{
    "name": "Patchwork Kingdom #118 | Minyrema",
    "description": "The twin kingdoms of Minyrema, separated by a digital divide. A bustling kingdom of 91 schools on top that are all connected to the internet, and 86 schools, not connected, hidden in the upside down kingdom | Created for Giga (GigaConnect.org) \u2014 connecting every school in the world \u2014 in celebration of UNICEF's 75th birthday, by Nadieh Bremer",
    "external_url": "https://dummyURL.com/patchwork_kingdoms_118",
    "image": "https://dummy-storage-url.com/patchwork_kingdoms_118.png",
    "attributes": [
        {
            "trait_type": "Color palette",
            "value": "unicorn"
        },
        {
            "display_type": "number",
            "trait_type": "Schools",
            "value": 185,
            "max_value": 460
        },
        {
            "display_type": "number",
            "trait_type": "Ratio - Connected",
            "value": 0.49,
            "max_value": 1
        },
        {
            "display_type": "number",
            "trait_type": "Ratio - Unconnected",
            "value": 0.46,
            "max_value": 1
        },
        {
            "display_type": "number",
            "trait_type": "Ratio - Data unavailable",
            "value": 0.04,
            "max_value": 1
        },
        {
            "trait_type": "Countries",
            "value": "BJ-BR-CO-CR-GD-HN-KG-KZ-PH-PS-RW-SL-ZW"
        },
        {
            "display_type": "number",
            "trait_type": "Symbols",
            "value": 44,
            "max_value": 51
        }
    ],
    "cluster_id": 118,
    "num_schools": 185,
    "num_schools_connected": 91,
    "num_schools_unconnected": 86,
    "num_schools_unknown": 8,
    "schools": [
        {
            "lon": -43.6903,
            "lat": -22.9251,
            "school_name": "1019805 EDI PROFESSOR CELSO DE ALMEIDA CHAVES",
            "country_name": "Brazil",
            "connectivity": true
        },
        {
            "lon": -88.34174,
            "lat": 13.97786,
            "school_name": "J.D.N JOSE ELOY GUZMAN",
            "country_name": "Honduras",
            "connectivity": true
        },
        {
            "lon": -88.30379,
            "lat": 14.00406,
            "school_name": "ESPA\u00c3\u2018A",
            "country_name": "Honduras",
            "connectivity": true
        },
        {
            "lon": -88.46584,
            "lat": 14.77896,
            "school_name": "JOSE TRINIDAD REYES",
            "country_name": "Honduras",
            "connectivity": true
        },
        {
            "lon": -52.40865,
            "lat": -24.050688,
            "school_name": "PAULO VI E M - EIEF",
            "country_name": "Brazil",
            "connectivity": true
        },
        {
            "lon": -51.23629,
            "lat": -23.303928,
            "school_name": "ESCOLA MUNICIPAL CECILIA MEIRELES - EF",
            "country_name": "Brazil",
            "connectivity": true
        },
        {
            "lon": -86.65174,
            "lat": 15.46397,
            "school_name": "MARIA NELA RIVERA",
            "country_name": "Honduras",
            "connectivity": true
        },
        {
            "lon": -50.0937,
            "lat": -21.4346,
            "school_name": "HARUME KUBOTA DA SILVA PROFA EMEF",
            "country_name": "Brazil",
            "connectivity": true
        },
        {
            "lon": -88.88354,
            "lat": 14.91159,
            "school_name": "SALVADOR CORLETO",
            "country_name": "Honduras",
            "connectivity": true
        },
        {
            "lon": -89.00486,
            "lat": 15.11353,
            "school_name": "NUEVOS HORIZONTES",
            "country_name": "Honduras",
            "connectivity": true
        },
        {
            "lon": -55.8253,
            "lat": -9.9671,
            "school_name": "EE TANCREDO DE ALMEIDA NEVES",
            "country_name": "Brazil",
            "connectivity": true
        },
        {
            "lon": -87.82524,
            "lat": 15.42086,
            "school_name": "15 DE SEPTIEMBRE",
            "country_name": "Honduras",
            "connectivity": true
        },
        {
            "lon": -87.20316,
            "lat": 13.344,
            "school_name": "ADRIANA E. DE ARGE\u00c3\u0090AL",
            "country_name": "Honduras",
            "connectivity": true
        },
        {
            "lon": 32.2414,
            "lat": -17.82592,
            "school_name": "HANGAIWA",
            "country_name": "Zimbabwe",
            "connectivity": true
        },
        {
            "lon": 30.55353,
            "lat": -16.84601,
            "school_name": "MAVARE",
            "country_name": "Zimbabwe",
            "connectivity": true
        },
        {
            "lon": -84.63819313,
            "lat": 10.44924007,
            "school_name": "EL JAUURI",
            "country_name": "Costa Rica",
            "connectivity": true
        },
        {
            "lon": -84.56069699,
            "lat": 10.73095643,
            "school_name": "CHIMURRIA",
            "country_name": "Costa Rica",
            "connectivity": true
        },
        {
            "lon": -83.90840184,
            "lat": 10.24086371,
            "school_name": "LA ISLA DE RIO FRIO",
            "country_name": "Costa Rica",
            "connectivity": true
        },
        {
            "lon": -83.07988204,
            "lat": 9.9867605,
            "school_name": "VILLA DEL MAR # 2",
            "country_name": "Costa Rica",
            "connectivity": true
        },
        {
            "lon": 32.63599,
            "lat": -16.98312,
            "school_name": "MADZIVANHANGA",
            "country_name": "Zimbabwe",
            "connectivity": true
        },
        {
            "lon": 29.38236,
            "lat": -16.85344,
            "school_name": "KEBVUNDE",
            "country_name": "Zimbabwe",
            "connectivity": true
        },
        {
            "lon": 31.66211,
            "lat": -19.54682,
            "school_name": "RUT I",
            "country_name": "Zimbabwe",
            "connectivity": true
        },
        {
            "lon": 29.29162,
            "lat": -21.55648,
            "school_name": "TSHANYAUGWE",
            "country_name": "Zimbabwe",
            "connectivity": true
        },
        {
            "lon": 30.36659,
            "lat": -22.07596,
            "school_name": "FULA",
            "country_name": "Zimbabwe",
            "connectivity": true
        },
        {
            "lon": -51.0565,
            "lat": 0.0398,
            "school_name": "CENTRO EDUC PROFISSIONAL DE MUSICA WALKIRIA LIMA",
            "country_name": "Brazil",
            "connectivity": true
        },
        {
            "lon": -61.696377,
            "lat": 12.019535,
            "school_name": "Westerhall Pre",
            "country_name": "Grenada",
            "connectivity": true
        },
        {
            "lon": -74.12141433,
            "lat": 4.522201662,
            "school_name": "Name unknown",
            "country_name": "Colombia",
            "connectivity": false
        },
        {
            "lon": 121.442482,
            "lat": 12.797621,
            "school_name": "Catmon ES",
            "country_name": "Philippines",
            "connectivity": true
        },
        {
            "lon": 122.696342,
            "lat": 10.884725,
            "school_name": "Acuit ES",
            "country_name": "Philippines",
            "connectivity": true
        },
        {
            "lon": 124.344335,
            "lat": 9.635543,
            "school_name": "Canuba ES",
            "country_name": "Philippines",
            "connectivity": true
        },
        {
            "lon": 124.8295331,
            "lat": 11.8745642,
            "school_name": "Tizon ES",
            "country_name": "Philippines",
            "connectivity": true
        },
        {
            "lon": 123.648522,
            "lat": 8.489252,
            "school_name": "Mialem ES",
            "country_name": "Philippines",
            "connectivity": true
        },
        {
            "lon": 124.726105,
            "lat": 6.29027,
            "school_name": "Little Baguio ES",
            "country_name": "Philippines",
            "connectivity": true
        },
        {
            "lon": 124.5858316,
            "lat": 7.347595628,
            "school_name": "Paruayan ES",
            "country_name": "Philippines",
            "connectivity": true
        },
        {
            "lon": 124.42148,
            "lat": 6.364301,
            "school_name": "Seguya ES",
            "country_name": "Philippines",
            "connectivity": true
        },
        {
            "lon": 120.5671404,
            "lat": 16.63254899,
            "school_name": "Liblibeng Bo. Sch.",
            "country_name": "Philippines",
            "connectivity": true
        },
        {
            "lon": -40.39134,
            "lat": -20.334213,
            "school_name": "CMEI TEREZA TIRONI MARTINS",
            "country_name": "Brazil",
            "connectivity": true
        },
        {
            "lon": -86.20406,
            "lat": 15.6529,
            "school_name": "MIGUEL MORAZAN",
            "country_name": "Honduras",
            "connectivity": true
        },
        {
            "lon": -72.883889,
            "lat": 5.511944,
            "school_name": "ESC GARAGOA",
            "country_name": "Colombia",
            "connectivity": true
        },
        {
            "lon": -73.19119689,
            "lat": 6.700786257,
            "school_name": "ESCUELA RURAL BUTAREGUA",
            "country_name": "Colombia",
            "connectivity": true
        },
        {
            "lon": -73.328857,
            "lat": 4.125723,
            "school_name": "EL GUAMO",
            "country_name": "Colombia",
            "connectivity": true
        },
        {
            "lon": -74.94529233,
            "lat": 5.597021155,
            "school_name": "ESCUELA RURAL MIXTA ALTO SAN JU\u00c1N",
            "country_name": "Colombia",
            "connectivity": true
        },
        {
            "lon": -74.92661097,
            "lat": 6.915506226,
            "school_name": "I. E. R.  LA CLARA",
            "country_name": "Colombia",
            "connectivity": true
        },
        {
            "lon": -75.02084588,
            "lat": 6.005371957,
            "school_name": "C. E. R. TEBAIDA",
            "country_name": "Colombia",
            "connectivity": true
        },
        {
            "lon": -76.01874,
            "lat": 4.816253,
            "school_name": "SIMON BOL\u00cdVAR",
            "country_name": "Colombia",
            "connectivity": true
        },
        {
            "lon": -76.205513,
            "lat": 4.226911,
            "school_name": "CRISTOBAL COLON",
            "country_name": "Colombia",
            "connectivity": true
        },
        {
            "lon": -76.19337886,
            "lat": 8.703465321,
            "school_name": "ESC NVA BOCA ALREVES",
            "country_name": "Colombia",
            "connectivity": true
        },
        {
            "lon": -76.52950763,
            "lat": 3.440536485,
            "school_name": "INSTITUCION EDUCATIVA TECNICA INDUSTRIAL ANTONIO JOSE CAMACHO",
            "country_name": "Colombia",
            "connectivity": true
        },
        {
            "lon": -76.57644,
            "lat": 3.493979,
            "school_name": "SEDE SAGRADO CORAZON DE JESUS",
            "country_name": "Colombia",
            "connectivity": true
        },
        {
            "lon": -76.589444,
            "lat": 3.236944,
            "school_name": "ALFONSO LOPEZ PUMAREJO",
            "country_name": "Colombia",
            "connectivity": true
        },
        {
            "lon": -76.616094,
            "lat": 5.628174,
            "school_name": "SEDE EL PI\u00d1AL",
            "country_name": "Colombia",
            "connectivity": true
        },
        {
            "lon": -76.73438252,
            "lat": 1.889303228,
            "school_name": "ESCUELA RURAL MIXTA GARRIZAL",
            "country_name": "Colombia",
            "connectivity": true
        },
        {
            "lon": -77.652772,
            "lat": 2.563889,
            "school_name": "PINULPI",
            "country_name": "Colombia",
            "connectivity": true
        },
        {
            "lon": -77.493333,
            "lat": 1.222778,
            "school_name": "CENTRO EDUCATIVO CAMAPMENTO",
            "country_name": "Colombia",
            "connectivity": true
        },
        {
            "lon": -70.025,
            "lat": -4.3751,
            "school_name": "ESCOLA ESTADUAL CORONEL RAYMUNDO CUNHA",
            "country_name": "Brazil",
            "connectivity": true
        },
        {
            "lon": -58.0033,
            "lat": -2.9747,
            "school_name": "E M NOSSA SENHORA DO PERPETUO SOCORRO",
            "country_name": "Brazil",
            "connectivity": false
        },
        {
            "lon": -67.2871,
            "lat": -9.2529,
            "school_name": "ESC INDIGENA ALBELINA APURINA",
            "country_name": "Brazil",
            "connectivity": true
        },
        {
            "lon": -60.4643,
            "lat": -3.7076,
            "school_name": "ESCOLA MUNICIPAL INDIGENA MARIA GESTRUDE DA CONCEICAO",
            "country_name": "Brazil",
            "connectivity": false
        },
        {
            "lon": -54.9555,
            "lat": -2.5061,
            "school_name": "E M E F PROF ANTONIO DE SOUSA PEDROSO",
            "country_name": "Brazil",
            "connectivity": true
        },
        {
            "lon": -48.4467,
            "lat": -1.3527,
            "school_name": "EEEFM PROFA DILMA DE SOUZA CATTETE",
            "country_name": "Brazil",
            "connectivity": true
        },
        {
            "lon": -48.2524,
            "lat": -1.02,
            "school_name": "ESCOLA MUNICIPAL DE EDUCACAO INFANTIL E ENSINO FUNDAMENTAL ALACID SOUSA CORREA",
            "country_name": "Brazil",
            "connectivity": false
        },
        {
            "lon": -48.0579,
            "lat": -6.7767,
            "school_name": "ESCOLA MUNICIPAL BOM JESUS",
            "country_name": "Brazil",
            "connectivity": false
        },
        {
            "lon": -44.0706,
            "lat": -2.5449,
            "school_name": "EM SAO FRANCISCO DE ASSIS",
            "country_name": "Brazil",
            "connectivity": false
        },
        {
            "lon": -44.0036,
            "lat": -3.1445,
            "school_name": "CME SAO RAIMUNDO",
            "country_name": "Brazil",
            "connectivity": false
        },
        {
            "lon": -45.3473,
            "lat": -7.1386,
            "school_name": "UE NEY BRAGA",
            "country_name": "Brazil",
            "connectivity": true
        },
        {
            "lon": -43.1322,
            "lat": -4.9141,
            "school_name": "UE MUL SANTO ANTONIO",
            "country_name": "Brazil",
            "connectivity": false
        },
        {
            "lon": -47.3629,
            "lat": -6.1725,
            "school_name": "CRECHE CRIANCA FELIZ",
            "country_name": "Brazil",
            "connectivity": true
        },
        {
            "lon": -46.9437,
            "lat": -23.567,
            "school_name": "ANTONIO RODRIGUES DA SILVA VEREADOR CEMEB",
            "country_name": "Brazil",
            "connectivity": true
        },
        {
            "lon": -38.8069,
            "lat": -3.6288,
            "school_name": "ANTONIO DIAS MACEDO EEIEF",
            "country_name": "Brazil",
            "connectivity": true
        },
        {
            "lon": -38.6844,
            "lat": -7.1022,
            "school_name": "PEDRO ROBERTO DA SILVA ESC",
            "country_name": "Brazil",
            "connectivity": true
        },
        {
            "lon": -40.9341,
            "lat": -3.7498,
            "school_name": "MIGUEL CARNEIRO DA CUNHA EEM",
            "country_name": "Brazil",
            "connectivity": true
        },
        {
            "lon": -36.6038,
            "lat": -5.6658,
            "school_name": "EM PROF",
            "country_name": "Brazil",
            "connectivity": true
        },
        {
            "lon": -49.0662,
            "lat": -5.2932,
            "school_name": "E M E F PEQUENO PAJE",
            "country_name": "Brazil",
            "connectivity": true
        },
        {
            "lon": -39.434,
            "lat": -8.1138,
            "school_name": "GRUPO ESCOLAR INACIO ALVES LANDIM",
            "country_name": "Brazil",
            "connectivity": false
        },
        {
            "lon": -49.0464,
            "lat": -5.21,
            "school_name": "EMEF PROF\u00aa IZAURA DE FATIMA NOCETI",
            "country_name": "Brazil",
            "connectivity": true
        },
        {
            "lon": -36.278,
            "lat": -9.5923,
            "school_name": "ESCOLA MUNICIPAL DE EDUCACAO BASICA MIGUEL VICENTE DA SILVA",
            "country_name": "Brazil",
            "connectivity": false
        },
        {
            "lon": -37.571,
            "lat": -10.7855,
            "school_name": "ESCOLA MUL MARTILIANO FERREIRA DOS SANTOS",
            "country_name": "Brazil",
            "connectivity": false
        },
        {
            "lon": -40.8073,
            "lat": -12.0542,
            "school_name": "COLEGIO IBIAPORA",
            "country_name": "Brazil",
            "connectivity": true
        },
        {
            "lon": -39.8491,
            "lat": -16.7205,
            "school_name": "ESCOLA MUNICIPAL ONILZA NUNES GOES",
            "country_name": "Brazil",
            "connectivity": true
        },
        {
            "lon": -37.9262,
            "lat": -11.494,
            "school_name": "ESCOLA E CRECHE JOSEFA LIMA SILVA",
            "country_name": "Brazil",
            "connectivity": false
        },
        {
            "lon": -46.2964,
            "lat": -20.1015,
            "school_name": "EM CAPITAO CARLOS RODRIGUES DA CUNHA OLIVEIRA",
            "country_name": "Brazil",
            "connectivity": true
        },
        {
            "lon": -42.4228,
            "lat": -19.1865,
            "school_name": "EE TEREZINHA BARBOSA DOS SANTOS",
            "country_name": "Brazil",
            "connectivity": true
        },
        {
            "lon": -41.8222,
            "lat": -19.0512,
            "school_name": "EM CATULINO FERREIRA DOS SANTOS",
            "country_name": "Brazil",
            "connectivity": false
        },
        {
            "lon": -44.1836,
            "lat": -16.7385,
            "school_name": "EM DR JOSE CARLOS DE LIMA",
            "country_name": "Brazil",
            "connectivity": true
        },
        {
            "lon": -46.5219,
            "lat": -23.6016,
            "school_name": "DIDIO DA SILVEIRA BALDY PROF",
            "country_name": "Brazil",
            "connectivity": true
        },
        {
            "lon": -40.1131,
            "lat": -18.8416,
            "school_name": "EUM RIO PRETO",
            "country_name": "Brazil",
            "connectivity": false
        },
        {
            "lon": -40.3565,
            "lat": -19.5088,
            "school_name": "EMPEI GERONCIO FRANCISCO",
            "country_name": "Brazil",
            "connectivity": false
        },
        {
            "lon": -43.1985,
            "lat": -22.9561,
            "school_name": "CPII - CAMPUS HUMAITA II",
            "country_name": "Brazil",
            "connectivity": true
        },
        {
            "lon": -47.5457,
            "lat": -24.6713,
            "school_name": "NARCISO DE MEDEIROS ENG AGRONOMO ETEC",
            "country_name": "Brazil",
            "connectivity": true
        },
        {
            "lon": -47.2386,
            "lat": -23.125,
            "school_name": "LEONEL JOSE VITORINO RIBEIRO PROFESSOR EMEB",
            "country_name": "Brazil",
            "connectivity": true
        },
        {
            "lon": -46.8943,
            "lat": -23.4039,
            "school_name": "BEM-TE-VI COLEGIO MUNICIPAL",
            "country_name": "Brazil",
            "connectivity": true
        },
        {
            "lon": -47.8244,
            "lat": -21.144,
            "school_name": "JESUS DE NAZARE CENTRO DE EDUCACAO INFANTIL",
            "country_name": "Brazil",
            "connectivity": true
        },
        {
            "lon": -46.4524,
            "lat": -23.9826,
            "school_name": "REGINA APARECIDA SILVA NASCIMENTO TIA CRECHE MUNICIPAL",
            "country_name": "Brazil",
            "connectivity": false
        },
        {
            "lon": -47.9886,
            "lat": -1.2996,
            "school_name": "EEEFM MARIA PIA DOS SANTOS AMARAL",
            "country_name": "Brazil",
            "connectivity": true
        },
        {
            "lon": -46.3398,
            "lat": -23.5406,
            "school_name": "TANIA LIMA DE AZEVEDO AMORIM CRECHE",
            "country_name": "Brazil",
            "connectivity": false
        },
        {
            "lon": -48.8457,
            "lat": -24.5156,
            "school_name": "CEMEI PROFA LUCI APARECIDA RODRIGUES CARDOSO",
            "country_name": "Brazil",
            "connectivity": false
        },
        {
            "lon": -39.0174,
            "lat": -11.6532,
            "school_name": "ESCOLA CARLOS AUGUSTO VILALVA NEGREIRO FALCAO",
            "country_name": "Brazil",
            "connectivity": true
        },
        {
            "lon": -50.8605,
            "lat": -25.6861,
            "school_name": "URQUIZ CORDEIRO E M EI EF",
            "country_name": "Brazil",
            "connectivity": false
        },
        {
            "lon": -48.6723,
            "lat": -26.7791,
            "school_name": "CEI TIA PEQUENA",
            "country_name": "Brazil",
            "connectivity": true
        },
        {
            "lon": -51.3163,
            "lat": -26.429,
            "school_name": "PEDRO ARAUJO NETO C E EF M",
            "country_name": "Brazil",
            "connectivity": true
        },
        {
            "lon": -48.8025,
            "lat": -27.7083,
            "school_name": "EB MUN PREF AUGUSTO ALTHOFF",
            "country_name": "Brazil",
            "connectivity": true
        },
        {
            "lon": -49.0442,
            "lat": -28.4697,
            "school_name": "CEI CIDADE AZUL",
            "country_name": "Brazil",
            "connectivity": true
        },
        {
            "lon": -53.6226,
            "lat": -31.0881,
            "school_name": "EMREF LIBIO VINHAS",
            "country_name": "Brazil",
            "connectivity": true
        },
        {
            "lon": -44.0866,
            "lat": -19.7666,
            "school_name": "EE JOSE PEDRO PEREIRA",
            "country_name": "Brazil",
            "connectivity": true
        },
        {
            "lon": -51.1634,
            "lat": -29.859,
            "school_name": "ESCOLA MUNICIPAL DE EDUCACAO BASICA ALBERTO PASQUALINI",
            "country_name": "Brazil",
            "connectivity": true
        },
        {
            "lon": -49.2731,
            "lat": -25.3258,
            "school_name": "JARDIM ROMA E M EF",
            "country_name": "Brazil",
            "connectivity": true
        },
        {
            "lon": -54.7878,
            "lat": -28.2373,
            "school_name": "EMEF PRINCESA ISABEL",
            "country_name": "Brazil",
            "connectivity": true
        },
        {
            "lon": -54.3341,
            "lat": -30.3336,
            "school_name": "ESC MUN DE EDUC INFANTIL CASA DA CRIANCA TRINDADE",
            "country_name": "Brazil",
            "connectivity": true
        },
        {
            "lon": -51.4985,
            "lat": -29.3111,
            "school_name": "EMEI GOTINHAS DE AMOR",
            "country_name": "Brazil",
            "connectivity": true
        },
        {
            "lon": -49.7973,
            "lat": -15.5766,
            "school_name": "ESC MUN SERRA DOURADA",
            "country_name": "Brazil",
            "connectivity": true
        },
        {
            "lon": -51.2274,
            "lat": -26.1598,
            "school_name": "CASIMIRO DE ABREU C E EF M",
            "country_name": "Brazil",
            "connectivity": true
        },
        {
            "lon": -40.5149,
            "lat": -11.1886,
            "school_name": "EE - CENTRO EDUCACIONAL DEOCLECIANO BARBOSA DE CASTRO - TEMPO INTEGRAL",
            "country_name": "Brazil",
            "connectivity": true
        },
        {
            "lon": -37.3413,
            "lat": -6.382,
            "school_name": "ESCOLA MUNICIPAL EVANILDO MARIANO DOS SANTOS",
            "country_name": "Brazil",
            "connectivity": true
        },
        {
            "lon": -48.0349,
            "lat": -16.053,
            "school_name": "ESC MUL CECILIA MEIRELES",
            "country_name": "Brazil",
            "connectivity": true
        },
        {
            "lon": -48.1703,
            "lat": -15.7406,
            "school_name": "EC 01 INCRA 08",
            "country_name": "Brazil",
            "connectivity": true
        },
        {
            "lon": -41.9267,
            "lat": -22.5249,
            "school_name": "E M ARY GOMES DE MARINS",
            "country_name": "Brazil",
            "connectivity": true
        },
        {
            "lon": -46.4431,
            "lat": -23.6781,
            "school_name": "JOSE ROMEU DA SILVA",
            "country_name": "Brazil",
            "connectivity": true
        },
        {
            "lon": -42.7797,
            "lat": -22.6814,
            "school_name": "E M GEREMIAS DE M FONTES",
            "country_name": "Brazil",
            "connectivity": true
        },
        {
            "lon": -49.2052,
            "lat": -16.755,
            "school_name": "ESC MUL ALEXANDRE GARCIA CARRERA",
            "country_name": "Brazil",
            "connectivity": true
        },
        {
            "lon": -38.4941,
            "lat": -3.9607,
            "school_name": "JOSE FERREIRA DA COSTA EMEF",
            "country_name": "Brazil",
            "connectivity": true
        },
        {
            "lon": -41.7846,
            "lat": -17.806,
            "school_name": "EE JOAO FERREIRA DE OLIVEIRA",
            "country_name": "Brazil",
            "connectivity": true
        }
    ],
    "num_countries": 13,
    "countries": [
        "Benin",
        "Brazil",
        "Colombia",
        "Costa Rica",
        "Grenada",
        "Honduras",
        "Kazakhstan",
        "Kyrgyzstan",
        "Palestine",
        "Philippines",
        "Rwanda",
        "Sierra Leone",
        "Zimbabwe"
    ],
    "schools_no_data": [
        {
            "lon": 5.2683879,
            "lat": 13.7851136,
            "school_name": "CSP KADADE",
            "country_name": "Niger",
            "connectivity": false
        },
        {
            "lon": 28.39288,
            "lat": -15.47238,
            "school_name": "American International School",
            "country_name": "Zambia",
            "connectivity": false
        },
        {
            "lon": -10.027531,
            "lat": 6.095389,
            "school_name": "Ben Town Public School",
            "country_name": "Liberia",
            "connectivity": false
        },
        {
            "lon": 7.800351667,
            "lat": 6.772298333,
            "school_name": "Name unknown",
            "country_name": "Nigeria",
            "connectivity": false
        },
        {
            "lon": -2.8791903,
            "lat": 10.6378959,
            "school_name": "Name unknown",
            "country_name": "Ghana",
            "connectivity": false
        },
        {
            "lon": 33.28221845,
            "lat": 16.64802632,
            "school_name": "Name unknown",
            "country_name": "Sudan",
            "connectivity": false
        },
        {
            "lon": 32.9709432666667,
            "lat": 15.2539530333333,
            "school_name": "Name unknown",
            "country_name": "Sudan",
            "connectivity": false
        },
        {
            "lon": 33.0659241666667,
            "lat": 14.47938265,
            "school_name": "Name unknown",
            "country_name": "Sudan",
            "connectivity": false
        },
        {
            "lon": 32.5804588833333,
            "lat": 14.0506317666667,
            "school_name": "Name unknown",
            "country_name": "Sudan",
            "connectivity": false
        },
        {
            "lon": -1.6487002,
            "lat": 7.0393834,
            "school_name": "Name unknown",
            "country_name": "Ghana",
            "connectivity": false
        },
        {
            "lon": -1.6497254,
            "lat": 6.70596,
            "school_name": "Name unknown",
            "country_name": "Ghana",
            "connectivity": false
        },
        {
            "lon": -0.1294157,
            "lat": 8.2053994,
            "school_name": "Name unknown",
            "country_name": "Ghana",
            "connectivity": false
        },
        {
            "lon": 34.82175,
            "lat": -2.43527,
            "school_name": "SERONERA",
            "country_name": "United Republic of Tanzania",
            "connectivity": false
        },
        {
            "lon": 38.89149,
            "lat": -7.78861,
            "school_name": "MNG'ARU",
            "country_name": "United Republic of Tanzania",
            "connectivity": false
        },
        {
            "lon": 35.30638,
            "lat": -5.13773,
            "school_name": "MANANTU",
            "country_name": "United Republic of Tanzania",
            "connectivity": false
        },
        {
            "lon": 39.29055,
            "lat": -6.90294,
            "school_name": "MATER DEI",
            "country_name": "United Republic of Tanzania",
            "connectivity": false
        },
        {
            "lon": 33.70851,
            "lat": -9.57375,
            "school_name": "NGANA",
            "country_name": "United Republic of Tanzania",
            "connectivity": false
        },
        {
            "lon": 33.54457,
            "lat": -2.12984,
            "school_name": "HARUZALE",
            "country_name": "United Republic of Tanzania",
            "connectivity": false
        },
        {
            "lon": 31.55639,
            "lat": -2.61028,
            "school_name": "ICHWANKIMA",
            "country_name": "United Republic of Tanzania",
            "connectivity": false
        },
        {
            "lon": 1.300458,
            "lat": 9.606282,
            "school_name": "JEP SOUMDINA-POWAI",
            "country_name": "Togo",
            "connectivity": false
        },
        {
            "lon": 0.041056667,
            "lat": 10.85953333,
            "school_name": "JEP KOUKDAGOU TAMI",
            "country_name": "Togo",
            "connectivity": false
        },
        {
            "lon": 1.25928,
            "lat": 6.13977,
            "school_name": "EPL ELOHIM",
            "country_name": "Togo",
            "connectivity": false
        },
        {
            "lon": 0.864492,
            "lat": 6.5513,
            "school_name": "EPP ATTI ATOVOU",
            "country_name": "Togo",
            "connectivity": false
        },
        {
            "lon": 1.451858,
            "lat": 6.450494,
            "school_name": "EPP NYITA APEYEME G/B",
            "country_name": "Togo",
            "connectivity": false
        },
        {
            "lon": 1.34155,
            "lat": 6.835778,
            "school_name": "EPP AGOTO",
            "country_name": "Togo",
            "connectivity": false
        },
        {
            "lon": 0.871274,
            "lat": 7.387597,
            "school_name": "EPC             AMOU OBLO",
            "country_name": "Togo",
            "connectivity": false
        },
        {
            "lon": 1.1066017,
            "lat": 8.9257531,
            "school_name": "EPP BAVILE",
            "country_name": "Togo",
            "connectivity": false
        },
        {
            "lon": 0.652386,
            "lat": 9.300483,
            "school_name": "EPP INABA G/A",
            "country_name": "Togo",
            "connectivity": false
        },
        {
            "lon": 0.885007,
            "lat": 9.60284,
            "school_name": "EPP SAMBA",
            "country_name": "Togo",
            "connectivity": false
        },
        {
            "lon": 1.165586667,
            "lat": 6.22151,
            "school_name": "CPL PLUME D'OR",
            "country_name": "Togo",
            "connectivity": false
        },
        {
            "lon": 38.34733,
            "lat": -6.18232,
            "school_name": "PONGWEKIONA",
            "country_name": "United Republic of Tanzania",
            "connectivity": false
        },
        {
            "lon": 35.9146,
            "lat": -5.94541,
            "school_name": "ZEPISA",
            "country_name": "United Republic of Tanzania",
            "connectivity": false
        },
        {
            "lon": 32.95247,
            "lat": -2.54206,
            "school_name": "MZIGU ENG. MED",
            "country_name": "United Republic of Tanzania",
            "connectivity": false
        },
        {
            "lon": 31.19197,
            "lat": -7.12243,
            "school_name": "MBEDE",
            "country_name": "United Republic of Tanzania",
            "connectivity": false
        },
        {
            "lon": 0.4751,
            "lat": 10.344125,
            "school_name": "CPL LE SAVOIR DE MANGO",
            "country_name": "Togo",
            "connectivity": false
        },
        {
            "lon": 1.318323,
            "lat": 9.470257,
            "school_name": "COLLEGE ATHENEE SAINT ALBERT LE GRAND D'AGBANG",
            "country_name": "Togo",
            "connectivity": false
        },
        {
            "lon": 33.50859841,
            "lat": -13.54863121,
            "school_name": "Milore Primary School",
            "country_name": "Malawi",
            "connectivity": false
        },
        {
            "lon": 33.62164572,
            "lat": -12.54823041,
            "school_name": "Njewe",
            "country_name": "Malawi",
            "connectivity": false
        },
        {
            "lon": 33.69215426,
            "lat": -10.24928156,
            "school_name": "Muzimero",
            "country_name": "Malawi",
            "connectivity": false
        },
        {
            "lon": 35.22518967,
            "lat": -16.16997191,
            "school_name": "Suzumira",
            "country_name": "Malawi",
            "connectivity": false
        },
        {
            "lon": 24.285,
            "lat": 0.805,
            "school_name": "INST YAEKELA",
            "country_name": "Democratic Republic of the Congo",
            "connectivity": false
        },
        {
            "lon": 27.23948621,
            "lat": -7.797697325,
            "school_name": "INST KIMISAKI",
            "country_name": "Democratic Republic of the Congo",
            "connectivity": false
        },
        {
            "lon": 20.50382273,
            "lat": 0.842178727,
            "school_name": "INST MONGEFEMA",
            "country_name": "Democratic Republic of the Congo",
            "connectivity": false
        },
        {
            "lon": 27.30604821,
            "lat": 2.40040464,
            "school_name": "EP MEDJE",
            "country_name": "Democratic Republic of the Congo",
            "connectivity": false
        },
        {
            "lon": 22.39669864,
            "lat": -7.193876515,
            "school_name": "INST PASTEUR KAYEMBE",
            "country_name": "Democratic Republic of the Congo",
            "connectivity": false
        },
        {
            "lon": 21.065796,
            "lat": 43.525288,
            "school_name": "\u0408\u043e\u0432\u0430\u043d \u0408\u043e\u0432\u0430\u043d\u043e\u0432\u0438\u045b \u0417\u043c\u0430\u0458",
            "country_name": "Serbia",
            "connectivity": false
        },
        {
            "lon": 22.44672177,
            "lat": 4.11109153,
            "school_name": "EP MEDINE",
            "country_name": "Democratic Republic of the Congo",
            "connectivity": false
        },
        {
            "lon": 23.18883889,
            "lat": -5.84275613,
            "school_name": "INST KASONGA LUAMBA",
            "country_name": "Democratic Republic of the Congo",
            "connectivity": false
        },
        {
            "lon": -68.66432,
            "lat": -16.858737,
            "school_name": "LITORAL DE JIHUACUTA",
            "country_name": "Bolivia (Plurinational State of)",
            "connectivity": false
        },
        {
            "lon": -67.410953,
            "lat": -17.528088,
            "school_name": "MEJILLONES",
            "country_name": "Bolivia (Plurinational State of)",
            "connectivity": false
        },
        {
            "lon": -100.890556,
            "lat": 20.538333,
            "school_name": "CENTRO DE ESTUDIOS TECNOLOGICOS EN AGUAS CONTINENTALES NUM. 06",
            "country_name": "Mexico",
            "connectivity": false
        },
        {
            "lon": -103.347825,
            "lat": 20.668911,
            "school_name": "UI INTERNACIONAL",
            "country_name": "Mexico",
            "connectivity": false
        },
        {
            "lon": -99.983,
            "lat": 18.833,
            "school_name": "TELEBACHILLERATO COMUNITARIO NUM. 427 SANTA CRUZ TEXCALAPA SULTEPEC",
            "country_name": "Mexico",
            "connectivity": false
        },
        {
            "lon": -99.236467,
            "lat": 18.932992,
            "school_name": "ESCUELA DE ESPA\u00d1OL PARA EXTRANJEROS KUKULCAN",
            "country_name": "Mexico",
            "connectivity": false
        },
        {
            "lon": -99.5405,
            "lat": 21.2141,
            "school_name": "EDUCACION MEDIA SUPERIOR A DISTANCIA PLANTEL AHUACATLAN DE GUADALUPE",
            "country_name": "Mexico",
            "connectivity": false
        },
        {
            "lon": -13.52761,
            "lat": 16.14304,
            "school_name": "kaedi4",
            "country_name": "Mauritania",
            "connectivity": false
        },
        {
            "lon": 32.06131,
            "lat": 0.29361,
            "school_name": "BLUE HOPE N/ SCHOOL",
            "country_name": "Uganda",
            "connectivity": false
        },
        {
            "lon": 32.59447,
            "lat": 0.37329,
            "school_name": "Kisaasi College School",
            "country_name": "Uganda",
            "connectivity": false
        },
        {
            "lon": 33.78966,
            "lat": 1.47053,
            "school_name": "Bishop Kitching community poly. Instruc. Coll.",
            "country_name": "Uganda",
            "connectivity": false
        },
        {
            "lon": 31.45347,
            "lat": -0.22046,
            "school_name": "Namirembe Public P.S",
            "country_name": "Uganda",
            "connectivity": false
        },
        {
            "lon": 32.58858,
            "lat": 1.74878,
            "school_name": "Abapiri P.S.",
            "country_name": "Uganda",
            "connectivity": false
        },
        {
            "lon": 30.75618,
            "lat": -0.67259,
            "school_name": "Karungi P.S.",
            "country_name": "Uganda",
            "connectivity": false
        },
        {
            "lon": 25.52578,
            "lat": -26.03964,
            "school_name": "Seshupo Primary School",
            "country_name": "South Africa",
            "connectivity": false
        },
        {
            "lon": 25.62817,
            "lat": -27.04275,
            "school_name": "Diatleng Primary School",
            "country_name": "South Africa",
            "connectivity": false
        },
        {
            "lon": 31.2363,
            "lat": -24.97504,
            "school_name": "Bhejani Primary School",
            "country_name": "South Africa",
            "connectivity": false
        },
        {
            "lon": 19.36815,
            "lat": -33.89778,
            "school_name": "Stettyn Primary School",
            "country_name": "South Africa",
            "connectivity": false
        },
        {
            "lon": 30.03634,
            "lat": -22.35185,
            "school_name": "Beitbridge Primary School",
            "country_name": "South Africa",
            "connectivity": false
        },
        {
            "lon": 30.13585,
            "lat": -22.75437,
            "school_name": "Mufongodi Primary",
            "country_name": "South Africa",
            "connectivity": false
        },
        {
            "lon": 18.44942,
            "lat": -33.68085,
            "school_name": "Eskom Training Centre",
            "country_name": "South Africa",
            "connectivity": false
        },
        {
            "lon": 30.85659,
            "lat": -23.02588,
            "school_name": "Govhu Secondary School",
            "country_name": "South Africa",
            "connectivity": false
        },
        {
            "lon": 29.15397,
            "lat": -23.6114,
            "school_name": "Agisanang Primary School",
            "country_name": "South Africa",
            "connectivity": false
        },
        {
            "lon": 18.69921,
            "lat": -34.04447,
            "school_name": "Masibulele Pre and Educare",
            "country_name": "South Africa",
            "connectivity": false
        },
        {
            "lon": 30.20842,
            "lat": -29.66645,
            "school_name": "Ndeleshane Primary School",
            "country_name": "South Africa",
            "connectivity": false
        },
        {
            "lon": 30.33902,
            "lat": -28.52996,
            "school_name": "Gede Junior Primary School",
            "country_name": "South Africa",
            "connectivity": false
        },
        {
            "lon": 30.5397,
            "lat": -23.61032,
            "school_name": "Mohale Primary",
            "country_name": "South Africa",
            "connectivity": false
        },
        {
            "lon": 27.81181,
            "lat": -26.38891,
            "school_name": "Motheo Foundation Primary School",
            "country_name": "South Africa",
            "connectivity": false
        },
        {
            "lon": 32.05135,
            "lat": -27.02973,
            "school_name": "Qoshama Secondary School",
            "country_name": "South Africa",
            "connectivity": false
        },
        {
            "lon": 31.58065,
            "lat": -29.02693,
            "school_name": "Sagewood Preparatory Primary School",
            "country_name": "South Africa",
            "connectivity": false
        },
        {
            "lon": 31.29384,
            "lat": -29.07716,
            "school_name": "Manqindi Junior Primary School",
            "country_name": "South Africa",
            "connectivity": false
        },
        {
            "lon": 27.3998,
            "lat": -26.35872,
            "school_name": "Emmanuel Driving School",
            "country_name": "South Africa",
            "connectivity": false
        },
        {
            "lon": 28.22484,
            "lat": -26.09194,
            "school_name": "Firearm Trust Services",
            "country_name": "South Africa",
            "connectivity": false
        },
        {
            "lon": 28.03663,
            "lat": -26.19491,
            "school_name": "Bantori High School",
            "country_name": "South Africa",
            "connectivity": false
        },
        {
            "lon": 28.23101,
            "lat": -26.06131,
            "school_name": "Laerskool Birchleigh",
            "country_name": "South Africa",
            "connectivity": false
        },
        {
            "lon": 27.60677,
            "lat": -32.46385,
            "school_name": "Emajwareni Junior Primary School",
            "country_name": "South Africa",
            "connectivity": false
        },
        {
            "lon": 28.12603,
            "lat": -25.47446,
            "school_name": "Hosea Kekana Secondary School",
            "country_name": "South Africa",
            "connectivity": false
        },
        {
            "lon": 27.51643,
            "lat": -32.17905,
            "school_name": "Sentile Junior Secondary School",
            "country_name": "South Africa",
            "connectivity": false
        },
        {
            "lon": 28.42778,
            "lat": -26.26659,
            "school_name": "Montessori Private Primary School",
            "country_name": "South Africa",
            "connectivity": false
        },
        {
            "lon": 32.49823,
            "lat": 0.62815,
            "school_name": "St.Theresa Nandere Girls School",
            "country_name": "Uganda",
            "connectivity": false
        },
        {
            "lon": 27.32712,
            "lat": -32.82452,
            "school_name": "Amantinde Senior Secondary School",
            "country_name": "South Africa",
            "connectivity": false
        },
        {
            "lon": 27.01033,
            "lat": -28.51335,
            "school_name": "Winburg Jeugsorg Sentrum",
            "country_name": "South Africa",
            "connectivity": false
        },
        {
            "lon": 27.88423,
            "lat": -32.97335,
            "school_name": "Cambridge Junior Primary School - Scout Hall Gate",
            "country_name": "South Africa",
            "connectivity": false
        },
        {
            "lon": -59.18036898,
            "lat": -34.573328,
            "school_name": "ESCUELA POLIMODAL N\u00ba2 JULIO STEVERLYNCK",
            "country_name": "Argentina",
            "connectivity": false
        },
        {
            "lon": -60.2718822,
            "lat": -38.38976134,
            "school_name": "JARDIN DE INFANTES N\u00ba917",
            "country_name": "Argentina",
            "connectivity": false
        },
        {
            "lon": -57.51894858,
            "lat": -35.17544497,
            "school_name": "ESCUELA PRIMARIA N\u00ba22 GENERAL MARTIN MIGUEL DE G\u00dcEMES",
            "country_name": "Argentina",
            "connectivity": false
        },
        {
            "lon": -60.20986068,
            "lat": -33.33193905,
            "school_name": "INSTITUTO INTEGRAL SAN NICOLAS",
            "country_name": "Argentina",
            "connectivity": false
        },
        {
            "lon": -58.51852865,
            "lat": -34.55055987,
            "school_name": "ESCUELA PRIMARIA N\u00ba20 MARTINA CESPEDES",
            "country_name": "Argentina",
            "connectivity": false
        },
        {
            "lon": -58.77241638,
            "lat": -38.54599853,
            "school_name": "ESCUELA SECUNDARIA N\u00ba5 9 DE JULIO",
            "country_name": "Argentina",
            "connectivity": false
        },
        {
            "lon": -58.39785756,
            "lat": -34.89652598,
            "school_name": "ESCUELA TECNICA N\u00ba2 CEFERINO NAMUNCURA",
            "country_name": "Argentina",
            "connectivity": false
        },
        {
            "lon": -60.1534313,
            "lat": -34.0330305,
            "school_name": "JARDIN DE INFANTES N\u00ba902 GRANADEROS DE SAN MARTIN",
            "country_name": "Argentina",
            "connectivity": false
        },
        {
            "lon": -58.67103828,
            "lat": -34.49133743,
            "school_name": "ESCUELA PRIMARIA N\u00ba17 DR. JUAN JOSE PASO",
            "country_name": "Argentina",
            "connectivity": false
        },
        {
            "lon": -60.27178086,
            "lat": -38.38967789,
            "school_name": "ESCUELA PRIMARIA N\u00ba21 JOSE HERNANDEZ",
            "country_name": "Argentina",
            "connectivity": false
        },
        {
            "lon": -58.7261063,
            "lat": -34.50944181,
            "school_name": "ESCUELA PRIMARIA N\u00ba11 ALMAFUERTE",
            "country_name": "Argentina",
            "connectivity": false
        },
        {
            "lon": -57.9935166,
            "lat": -38.3389637,
            "school_name": "ESCUELA PRIMARIA N\u00ba2 \\JOSE HERNANDEZ\\",
            "country_name": "Argentina",
            "connectivity": false
        },
        {
            "lon": -58.87372488,
            "lat": -34.63174087,
            "school_name": "ESCUELA PRIMARIA N\u00ba66 AMALIA SAENZ HUARTE",
            "country_name": "Argentina",
            "connectivity": false
        },
        {
            "lon": -62.6478586,
            "lat": -38.4739022,
            "school_name": "JARDIN DE INFANTES N\u00ba908",
            "country_name": "Argentina",
            "connectivity": false
        },
        {
            "lon": -58.56006181,
            "lat": -34.6750022,
            "school_name": "C.E.N.S. N\u00ba457",
            "country_name": "Argentina",
            "connectivity": false
        },
        {
            "lon": -58.47096794,
            "lat": -34.78498704,
            "school_name": "ESC. SECUNDARIA BASICA N\u00ba8",
            "country_name": "Argentina",
            "connectivity": false
        },
        {
            "lon": -58.63942357,
            "lat": -34.49395558,
            "school_name": "ESC. SECUNDARIA BASICA N\u00ba18",
            "country_name": "Argentina",
            "connectivity": false
        },
        {
            "lon": -58.52635266,
            "lat": -34.69798984,
            "school_name": "ESC. SECUNDARIA BASICA N\u00ba139",
            "country_name": "Argentina",
            "connectivity": false
        },
        {
            "lon": -58.37911716,
            "lat": -34.74944595,
            "school_name": "ESC. SECUNDARIA BASICA N\u00ba44",
            "country_name": "Argentina",
            "connectivity": false
        },
        {
            "lon": -60.8897996,
            "lat": -37.9951909,
            "school_name": "JARDIN DE INFANTES RURAL N\u00ba6 (FUNCIONA EN PP31)",
            "country_name": "Argentina",
            "connectivity": false
        },
        {
            "lon": -60.17770767,
            "lat": -34.4535141,
            "school_name": "JARDIN DE INFANTES RURAL",
            "country_name": "Argentina",
            "connectivity": false
        },
        {
            "lon": -67.02693,
            "lat": -27.6379,
            "school_name": "ESCUELA N\u00b0 6 FRAY MAMERTO ESQUI\u00da",
            "country_name": "Argentina",
            "connectivity": false
        },
        {
            "lon": -62.06833134,
            "lat": -24.60849703,
            "school_name": "E.E.P. N\u00ba 925",
            "country_name": "Argentina",
            "connectivity": false
        },
        {
            "lon": -62.97720132,
            "lat": -33.95146742,
            "school_name": "J.DE INF. ALFREDO MIGUEL CHOPITEA",
            "country_name": "Argentina",
            "connectivity": false
        },
        {
            "lon": -58.38847097,
            "lat": -28.12556726,
            "school_name": "ESCUELA PRIMARIA N\u00ba 614",
            "country_name": "Argentina",
            "connectivity": false
        },
        {
            "lon": -58.77821477,
            "lat": -32.17771663,
            "school_name": "PRIV. INSTITUTO SAN JOSE",
            "country_name": "Argentina",
            "connectivity": false
        },
        {
            "lon": -60.2011,
            "lat": -24.51378,
            "school_name": "EPEP N\u00b0360",
            "country_name": "Argentina",
            "connectivity": false
        },
        {
            "lon": -58.15570071,
            "lat": -26.20556884,
            "school_name": "EPES N\u00ba 72",
            "country_name": "Argentina",
            "connectivity": false
        },
        {
            "lon": -58.25018624,
            "lat": -25.23306892,
            "school_name": "NEP Y FP N\u00ba42 - EPEP N\u00ba313",
            "country_name": "Argentina",
            "connectivity": false
        },
        {
            "lon": -68.00753108,
            "lat": -33.31721072,
            "school_name": "ANTONIO RUIZ (FALUCHO)",
            "country_name": "Argentina",
            "connectivity": false
        },
        {
            "lon": -54.56082986,
            "lat": -26.38132886,
            "school_name": "INST. SAN MIGUEL",
            "country_name": "Argentina",
            "connectivity": false
        },
        {
            "lon": -68.07729773,
            "lat": -38.9493013,
            "school_name": "ESCUELA ESPECIAL 15",
            "country_name": "Argentina",
            "connectivity": false
        },
        {
            "lon": -63.33636085,
            "lat": -23.24984992,
            "school_name": "INFANTERIA DE MARINA ARGENTINA EX N\u00b0 692",
            "country_name": "Argentina",
            "connectivity": false
        },
        {
            "lon": -60.69348576,
            "lat": -32.95633131,
            "school_name": "GRADO RADIAL NRO I - ESCUELA NOCTURNA NRO 12",
            "country_name": "Argentina",
            "connectivity": false
        },
        {
            "lon": -60.7302,
            "lat": -32.69554,
            "school_name": "ESCUELA NRO 221 GRANADERO BASILIO BUSTOS",
            "country_name": "Argentina",
            "connectivity": false
        },
        {
            "lon": -64.2440617,
            "lat": -27.76284027,
            "school_name": "ESCUELA N\u00b0 254 JOSE MANUEL ESTRADA",
            "country_name": "Argentina",
            "connectivity": false
        },
        {
            "lon": -63.48199306,
            "lat": -27.11174103,
            "school_name": "ESCUELA N\u00ba 808",
            "country_name": "Argentina",
            "connectivity": false
        },
        {
            "lon": 5.771465,
            "lat": 5.528618,
            "school_name": "Name unknown",
            "country_name": "Nigeria",
            "connectivity": false
        },
        {
            "lon": 7.343550844,
            "lat": 5.363172875,
            "school_name": "Name unknown",
            "country_name": "Nigeria",
            "connectivity": false
        },
        {
            "lon": 7.463158333,
            "lat": 5.155941667,
            "school_name": "Name unknown",
            "country_name": "Nigeria",
            "connectivity": false
        },
        {
            "lon": 7.284745,
            "lat": 4.906285,
            "school_name": "Name unknown",
            "country_name": "Nigeria",
            "connectivity": false
        },
        {
            "lon": 13.27995085,
            "lat": 10.85117571,
            "school_name": "Name unknown",
            "country_name": "Nigeria",
            "connectivity": false
        },
        {
            "lon": 8.098111667,
            "lat": 6.189653333,
            "school_name": "Name unknown",
            "country_name": "Nigeria",
            "connectivity": false
        },
        {
            "lon": 8.111666667,
            "lat": 6.074558333,
            "school_name": "Name unknown",
            "country_name": "Nigeria",
            "connectivity": false
        },
        {
            "lon": 6.328129,
            "lat": 7.155721,
            "school_name": "Name unknown",
            "country_name": "Nigeria",
            "connectivity": false
        },
        {
            "lon": 7.520948333,
            "lat": 6.504145,
            "school_name": "Name unknown",
            "country_name": "Nigeria",
            "connectivity": false
        },
        {
            "lon": 7.535106667,
            "lat": 6.485421667,
            "school_name": "Name unknown",
            "country_name": "Nigeria",
            "connectivity": false
        },
        {
            "lon": 7.501704,
            "lat": 6.405673,
            "school_name": "Name unknown",
            "country_name": "Nigeria",
            "connectivity": false
        },
        {
            "lon": 7.29964,
            "lat": 6.4406317,
            "school_name": "Name unknown",
            "country_name": "Nigeria",
            "connectivity": false
        },
        {
            "lon": 7.45457728,
            "lat": 6.985399922,
            "school_name": "Name unknown",
            "country_name": "Nigeria",
            "connectivity": false
        },
        {
            "lon": 7.458015,
            "lat": 6.854339,
            "school_name": "Name unknown",
            "country_name": "Nigeria",
            "connectivity": false
        },
        {
            "lon": 7.364885,
            "lat": 8.99467,
            "school_name": "Name unknown",
            "country_name": "Nigeria",
            "connectivity": false
        },
        {
            "lon": 10.92149,
            "lat": 10.30676,
            "school_name": "Name unknown",
            "country_name": "Nigeria",
            "connectivity": false
        },
        {
            "lon": -77.5841,
            "lat": -5.6496,
            "school_name": "953",
            "country_name": "Peru",
            "connectivity": false
        },
        {
            "lon": -77.1566,
            "lat": -10.1526,
            "school_name": "47",
            "country_name": "Peru",
            "connectivity": false
        },
        {
            "lon": -79.9722,
            "lat": -5.90072,
            "school_name": "10189 PASAJE NORTE",
            "country_name": "Peru",
            "connectivity": false
        },
        {
            "lon": -79.202,
            "lat": -6.53969,
            "school_name": "10548",
            "country_name": "Peru",
            "connectivity": false
        },
        {
            "lon": -79.9429,
            "lat": -6.46992,
            "school_name": "11135 CESAR VALLEJO",
            "country_name": "Peru",
            "connectivity": false
        },
        {
            "lon": -76.9959,
            "lat": -12.0616,
            "school_name": "1138 JOSE ABELARDO QUI\u00d1ONES",
            "country_name": "Peru",
            "connectivity": false
        },
        {
            "lon": -76.978,
            "lat": -11.9604,
            "school_name": "115 31 GOTITAS DE AMOR",
            "country_name": "Peru",
            "connectivity": false
        },
        {
            "lon": -70.2022,
            "lat": -14.9132,
            "school_name": "118",
            "country_name": "Peru",
            "connectivity": false
        },
        {
            "lon": -76.4689,
            "lat": -8.44221,
            "school_name": "1355",
            "country_name": "Peru",
            "connectivity": false
        },
        {
            "lon": -79.8567,
            "lat": -5.34479,
            "school_name": "15165",
            "country_name": "Peru",
            "connectivity": false
        },
        {
            "lon": -80.6524,
            "lat": -5.16086,
            "school_name": "1550",
            "country_name": "Peru",
            "connectivity": false
        },
        {
            "lon": -73.0038,
            "lat": -3.5177,
            "school_name": "60234",
            "country_name": "Peru",
            "connectivity": false
        },
        {
            "lon": -78.834,
            "lat": -5.67354,
            "school_name": "17503",
            "country_name": "Peru",
            "connectivity": false
        },
        {
            "lon": -77.9025,
            "lat": -5.76686,
            "school_name": "18337",
            "country_name": "Peru",
            "connectivity": false
        },
        {
            "lon": -74.9036,
            "lat": -12.61,
            "school_name": "199",
            "country_name": "Peru",
            "connectivity": false
        },
        {
            "lon": -77.2476,
            "lat": -11.4447,
            "school_name": "20399 LA ESPERANZA",
            "country_name": "Peru",
            "connectivity": false
        },
        {
            "lon": -79.5334,
            "lat": -4.52992,
            "school_name": "20804",
            "country_name": "Peru",
            "connectivity": false
        },
        {
            "lon": -74.3986,
            "lat": -11.104,
            "school_name": "2225",
            "country_name": "Peru",
            "connectivity": false
        },
        {
            "lon": -76.649,
            "lat": -9.799,
            "school_name": "302",
            "country_name": "Peru",
            "connectivity": false
        },
        {
            "lon": -77.0407,
            "lat": -11.9807,
            "school_name": "3056 GRAN BRETA\u00d1A",
            "country_name": "Peru",
            "connectivity": false
        },
        {
            "lon": -76.2363,
            "lat": -9.92122,
            "school_name": "32814 MIGUEL GRAU SEMINARIO",
            "country_name": "Peru",
            "connectivity": false
        },
        {
            "lon": -76.1279,
            "lat": -9.76604,
            "school_name": "33141",
            "country_name": "Peru",
            "connectivity": false
        },
        {
            "lon": -73.4807,
            "lat": -13.5872,
            "school_name": "347",
            "country_name": "Peru",
            "connectivity": false
        },
        {
            "lon": -74.1276,
            "lat": -12.7318,
            "school_name": "38292 MARISCAL CACERES",
            "country_name": "Peru",
            "connectivity": false
        },
        {
            "lon": -71.3913,
            "lat": -16.4014,
            "school_name": "40675 GRAL. VELAZCO ALVARADO",
            "country_name": "Peru",
            "connectivity": false
        },
        {
            "lon": -73.8684,
            "lat": -13.1607,
            "school_name": "425-1",
            "country_name": "Peru",
            "connectivity": false
        },
        {
            "lon": -73.7083,
            "lat": -13.5144,
            "school_name": "473",
            "country_name": "Peru",
            "connectivity": false
        },
        {
            "lon": -71.5834,
            "lat": -13.9593,
            "school_name": "50061",
            "country_name": "Peru",
            "connectivity": false
        },
        {
            "lon": -72.8767,
            "lat": -12.6121,
            "school_name": "501088",
            "country_name": "Peru",
            "connectivity": false
        },
        {
            "lon": -74.5525,
            "lat": -8.4261,
            "school_name": "519 RETO\u00d1ITOS DE MANANTAY",
            "country_name": "Peru",
            "connectivity": false
        },
        {
            "lon": -72.593,
            "lat": -13.9954,
            "school_name": "54397 VIRGEN DEL CARMEN",
            "country_name": "Peru",
            "connectivity": false
        },
        {
            "lon": -72.0404,
            "lat": -14.784,
            "school_name": "56299",
            "country_name": "Peru",
            "connectivity": false
        },
        {
            "lon": -74.9938,
            "lat": -7.33915,
            "school_name": "6196",
            "country_name": "Peru",
            "connectivity": false
        },
        {
            "lon": -76.5058,
            "lat": -4.72867,
            "school_name": "62093",
            "country_name": "Peru",
            "connectivity": false
        },
        {
            "lon": -69.7805,
            "lat": -15.1767,
            "school_name": "72310",
            "country_name": "Peru",
            "connectivity": false
        },
        {
            "lon": -80.8534,
            "lat": -5.7624,
            "school_name": "724",
            "country_name": "Peru",
            "connectivity": false
        },
        {
            "lon": -69.4906,
            "lat": -13.9326,
            "school_name": "72472",
            "country_name": "Peru",
            "connectivity": false
        },
        {
            "lon": -70.7679,
            "lat": -14.939,
            "school_name": "72625",
            "country_name": "Peru",
            "connectivity": false
        },
        {
            "lon": -69.4624,
            "lat": -14.9024,
            "school_name": "73018",
            "country_name": "Peru",
            "connectivity": false
        },
        {
            "lon": -78.0966,
            "lat": -7.84444,
            "school_name": "80161",
            "country_name": "Peru",
            "connectivity": false
        },
        {
            "lon": -78.5947,
            "lat": -7.84763,
            "school_name": "80298",
            "country_name": "Peru",
            "connectivity": false
        },
        {
            "lon": -78.5617,
            "lat": -7.94276,
            "school_name": "80306",
            "country_name": "Peru",
            "connectivity": false
        },
        {
            "lon": -77.1596,
            "lat": -8.9991,
            "school_name": "87001",
            "country_name": "Peru",
            "connectivity": false
        },
        {
            "lon": -73.7526,
            "lat": -15.3031,
            "school_name": "953 NUESTRA SE\u00d1ORA DE FATIMA",
            "country_name": "Peru",
            "connectivity": false
        },
        {
            "lon": -79.7035,
            "lat": -6.75042,
            "school_name": "ADONAI",
            "country_name": "Peru",
            "connectivity": false
        },
        {
            "lon": -71.5043,
            "lat": -16.4329,
            "school_name": "ARANIBAR CALIENES",
            "country_name": "Peru",
            "connectivity": false
        },
        {
            "lon": 26.8110261,
            "lat": -7.60969898,
            "school_name": "EP NGOY MANI",
            "country_name": "Democratic Republic of the Congo",
            "connectivity": false
        },
        {
            "lon": -75.4831,
            "lat": -11.7852,
            "school_name": "BURBUJITAS DE AMOR",
            "country_name": "Peru",
            "connectivity": false
        },
        {
            "lon": -74.5409,
            "lat": -8.34405,
            "school_name": "CAMINANDO CON JESUS I",
            "country_name": "Peru",
            "connectivity": false
        },
        {
            "lon": -71.5273,
            "lat": -16.4223,
            "school_name": "CARAMELOS NEW",
            "country_name": "Peru",
            "connectivity": false
        },
        {
            "lon": -79.6386,
            "lat": -6.73778,
            "school_name": "CARITAS FECILES",
            "country_name": "Peru",
            "connectivity": false
        },
        {
            "lon": -77.5311,
            "lat": -9.53125,
            "school_name": "CARL FRIEDRICH GAUSS",
            "country_name": "Peru",
            "connectivity": false
        },
        {
            "lon": -79.005,
            "lat": -8.09474,
            "school_name": "CEBA - SAN JOSE SCHOOL",
            "country_name": "Peru",
            "connectivity": false
        },
        {
            "lon": -76.5706,
            "lat": -6.9819,
            "school_name": "CIELO LINDO",
            "country_name": "Peru",
            "connectivity": false
        },
        {
            "lon": -72.8808,
            "lat": -13.6349,
            "school_name": "FRANCISCO BOLOGNESI",
            "country_name": "Peru",
            "connectivity": false
        },
        {
            "lon": 1.239608333,
            "lat": 6.211781667,
            "school_name": "EPL LA THEORIE MODERNE",
            "country_name": "Togo",
            "connectivity": false
        },
        {
            "lon": -77.0847,
            "lat": -12.0006,
            "school_name": "HONORES NI\u00d1A MARIA",
            "country_name": "Peru",
            "connectivity": false
        },
        {
            "lon": -72.0248,
            "lat": -14.901,
            "school_name": "HUAROCOPALCA",
            "country_name": "Peru",
            "connectivity": false
        },
        {
            "lon": -77.0482,
            "lat": -12.0855,
            "school_name": "ILLARIY",
            "country_name": "Peru",
            "connectivity": false
        },
        {
            "lon": -77.0762,
            "lat": -12.0224,
            "school_name": "INGENIERIA SAN SILVESTRE",
            "country_name": "Peru",
            "connectivity": false
        },
        {
            "lon": -79.8342,
            "lat": -6.75738,
            "school_name": "KINDERLAND COLLEGE",
            "country_name": "Peru",
            "connectivity": false
        },
        {
            "lon": -76.7022,
            "lat": -6.51487,
            "school_name": "LOS CIENTIFICOS DEL MA\u00d1ANA",
            "country_name": "Peru",
            "connectivity": false
        },
        {
            "lon": -77.4622,
            "lat": -8.60937,
            "school_name": "LOS CRISTALES",
            "country_name": "Peru",
            "connectivity": false
        },
        {
            "lon": -76.1847,
            "lat": -10.5907,
            "school_name": "LOS TRAVIESOS",
            "country_name": "Peru",
            "connectivity": false
        },
        {
            "lon": -75.7099,
            "lat": -14.0443,
            "school_name": "LUCERITO",
            "country_name": "Peru",
            "connectivity": false
        },
        {
            "lon": -74.7641,
            "lat": -10.3969,
            "school_name": "MI BELLA FLOR",
            "country_name": "Peru",
            "connectivity": false
        },
        {
            "lon": -80.2651,
            "lat": -3.4833,
            "school_name": "MI DIVINO NI\u00d1O",
            "country_name": "Peru",
            "connectivity": false
        },
        {
            "lon": -76.876,
            "lat": -12.0213,
            "school_name": "MI MUNDO FELIZ I",
            "country_name": "Peru",
            "connectivity": false
        },
        {
            "lon": -79.0044,
            "lat": -8.08537,
            "school_name": "PIERRE SIMON LAPLACE COLLEGE",
            "country_name": "Peru",
            "connectivity": false
        },
        {
            "lon": -74.2297,
            "lat": -13.1396,
            "school_name": "RAYITOS DEL SABER",
            "country_name": "Peru",
            "connectivity": false
        },
        {
            "lon": -77.1043,
            "lat": -12.0081,
            "school_name": "SAGRADOS CORAZONES - LOS BENJAMINES",
            "country_name": "Peru",
            "connectivity": false
        },
        {
            "lon": -70.2508,
            "lat": -18.0173,
            "school_name": "SAN JUAN BOSCO",
            "country_name": "Peru",
            "connectivity": false
        },
        {
            "lon": -78.9158,
            "lat": -6.22288,
            "school_name": "SAN JUAN DE CHORRILLOS",
            "country_name": "Peru",
            "connectivity": false
        },
        {
            "lon": -73.9342,
            "lat": -12.2964,
            "school_name": "SANTA INES",
            "country_name": "Peru",
            "connectivity": false
        },
        {
            "lon": 7.22782,
            "lat": 5.7287,
            "school_name": "Name unknown",
            "country_name": "Nigeria",
            "connectivity": false
        },
        {
            "lon": -78.895,
            "lat": -6.5912,
            "school_name": "SOCORRO ALVARADO PUELLES",
            "country_name": "Peru",
            "connectivity": false
        },
        {
            "lon": -71.5345,
            "lat": -16.396,
            "school_name": "TRANSLEX",
            "country_name": "Peru",
            "connectivity": false
        },
        {
            "lon": -73.5845,
            "lat": -13.6996,
            "school_name": "TRILCE",
            "country_name": "Peru",
            "connectivity": false
        },
        {
            "lon": -72.0314,
            "lat": -13.5425,
            "school_name": "WANKAPAMPA",
            "country_name": "Peru",
            "connectivity": false
        },
        {
            "lon": -78.7646,
            "lat": -6.12208,
            "school_name": "WILLY H. CASTRO MALARIN",
            "country_name": "Peru",
            "connectivity": false
        },
        {
            "lon": 9.6885681,
            "lat": 11.8796978,
            "school_name": "Name unknown",
            "country_name": "Nigeria",
            "connectivity": false
        },
        {
            "lon": 9.259881,
            "lat": 12.5780258,
            "school_name": "Name unknown",
            "country_name": "Nigeria",
            "connectivity": false
        },
        {
            "lon": 7.39366948,
            "lat": 10.45890114,
            "school_name": "Name unknown",
            "country_name": "Nigeria",
            "connectivity": false
        },
        {
            "lon": 7.30391771,
            "lat": 11.16107635,
            "school_name": "Name unknown",
            "country_name": "Nigeria",
            "connectivity": false
        },
        {
            "lon": 8.088394403,
            "lat": 9.652921557,
            "school_name": "Name unknown",
            "country_name": "Nigeria",
            "connectivity": false
        },
        {
            "lon": 8.38935,
            "lat": 10.21199667,
            "school_name": "Name unknown",
            "country_name": "Nigeria",
            "connectivity": false
        },
        {
            "lon": 8.10038975,
            "lat": 10.68755273,
            "school_name": "Name unknown",
            "country_name": "Nigeria",
            "connectivity": false
        },
        {
            "lon": 7.867155075,
            "lat": 11.36027634,
            "school_name": "Name unknown",
            "country_name": "Nigeria",
            "connectivity": false
        },
        {
            "lon": 8.18274197,
            "lat": 9.0752726,
            "school_name": "Name unknown",
            "country_name": "Nigeria",
            "connectivity": false
        },
        {
            "lon": 7.73206374,
            "lat": 11.07823233,
            "school_name": "Name unknown",
            "country_name": "Nigeria",
            "connectivity": false
        },
        {
            "lon": 7.72661297,
            "lat": 11.08751792,
            "school_name": "Name unknown",
            "country_name": "Nigeria",
            "connectivity": false
        },
        {
            "lon": 9.083901,
            "lat": 11.64624,
            "school_name": "Name unknown",
            "country_name": "Nigeria",
            "connectivity": false
        },
        {
            "lon": 8.730527,
            "lat": 11.99634,
            "school_name": "Name unknown",
            "country_name": "Nigeria",
            "connectivity": false
        },
        {
            "lon": 7.694899,
            "lat": 11.50194,
            "school_name": "Name unknown",
            "country_name": "Nigeria",
            "connectivity": false
        },
        {
            "lon": 8.580521,
            "lat": 11.9697,
            "school_name": "Name unknown",
            "country_name": "Nigeria",
            "connectivity": false
        },
        {
            "lon": 8.52037,
            "lat": 12.0005,
            "school_name": "Name unknown",
            "country_name": "Nigeria",
            "connectivity": false
        },
        {
            "lon": 13.284647,
            "lat": 10.269444,
            "school_name": "Name unknown",
            "country_name": "Nigeria",
            "connectivity": false
        },
        {
            "lon": 13.300346,
            "lat": 10.155065,
            "school_name": "Name unknown",
            "country_name": "Nigeria",
            "connectivity": false
        },
        {
            "lon": 13.282608,
            "lat": 10.258042,
            "school_name": "Name unknown",
            "country_name": "Nigeria",
            "connectivity": false
        },
        {
            "lon": 11.998734,
            "lat": 9.686463,
            "school_name": "Name unknown",
            "country_name": "Nigeria",
            "connectivity": false
        },
        {
            "lon": 12.195369,
            "lat": 9.2592,
            "school_name": "Name unknown",
            "country_name": "Nigeria",
            "connectivity": false
        },
        {
            "lon": 3.367319,
            "lat": 9.821125,
            "school_name": "Name unknown",
            "country_name": "Nigeria",
            "connectivity": false
        },
        {
            "lon": 3.313973,
            "lat": 6.457305,
            "school_name": "Name unknown",
            "country_name": "Nigeria",
            "connectivity": false
        },
        {
            "lon": 3.59364,
            "lat": 6.67507,
            "school_name": "Name unknown",
            "country_name": "Nigeria",
            "connectivity": false
        },
        {
            "lon": 3.58308,
            "lat": 6.609,
            "school_name": "Name unknown",
            "country_name": "Nigeria",
            "connectivity": false
        },
        {
            "lon": 3.55948,
            "lat": 6.56586,
            "school_name": "Name unknown",
            "country_name": "Nigeria",
            "connectivity": false
        },
        {
            "lon": 3.296299,
            "lat": 6.551116,
            "school_name": "Name unknown",
            "country_name": "Nigeria",
            "connectivity": false
        },
        {
            "lon": 3.3909,
            "lat": 6.546239,
            "school_name": "Name unknown",
            "country_name": "Nigeria",
            "connectivity": false
        },
        {
            "lon": 7.603833,
            "lat": 8.052212,
            "school_name": "Name unknown",
            "country_name": "Nigeria",
            "connectivity": false
        },
        {
            "lon": 7.602569,
            "lat": 9.021596,
            "school_name": "Name unknown",
            "country_name": "Nigeria",
            "connectivity": false
        },
        {
            "lon": 7.83807,
            "lat": 8.00402,
            "school_name": "Name unknown",
            "country_name": "Nigeria",
            "connectivity": false
        },
        {
            "lon": 8.834926,
            "lat": 8.899553,
            "school_name": "Name unknown",
            "country_name": "Nigeria",
            "connectivity": false
        },
        {
            "lon": 6.510574222,
            "lat": 9.141928554,
            "school_name": "Name unknown",
            "country_name": "Nigeria",
            "connectivity": false
        },
        {
            "lon": 6.253516674,
            "lat": 10.18569946,
            "school_name": "Name unknown",
            "country_name": "Nigeria",
            "connectivity": false
        },
        {
            "lon": 6.634572325,
            "lat": 9.850520915,
            "school_name": "Name unknown",
            "country_name": "Nigeria",
            "connectivity": false
        },
        {
            "lon": 5.991485075,
            "lat": 9.622150236,
            "school_name": "Name unknown",
            "country_name": "Nigeria",
            "connectivity": false
        },
        {
            "lon": 3.35424599,
            "lat": 7.15427715,
            "school_name": "Name unknown",
            "country_name": "Nigeria",
            "connectivity": false
        },
        {
            "lon": 3.651,
            "lat": 6.85131,
            "school_name": "Name unknown",
            "country_name": "Nigeria",
            "connectivity": false
        },
        {
            "lon": 5.210852,
            "lat": 7.26916,
            "school_name": "Name unknown",
            "country_name": "Nigeria",
            "connectivity": false
        },
        {
            "lon": 4.739283745,
            "lat": 6.16659399,
            "school_name": "Name unknown",
            "country_name": "Nigeria",
            "connectivity": false
        },
        {
            "lon": 4.889135,
            "lat": 7.473857,
            "school_name": "Name unknown",
            "country_name": "Nigeria",
            "connectivity": false
        },
        {
            "lon": 7.71562,
            "lat": 5.19506,
            "school_name": "Name unknown",
            "country_name": "Nigeria",
            "connectivity": false
        },
        {
            "lon": 7.631372,
            "lat": 4.761674,
            "school_name": "Name unknown",
            "country_name": "Nigeria",
            "connectivity": false
        },
        {
            "lon": 3.92121,
            "lat": 7.509431,
            "school_name": "Name unknown",
            "country_name": "Nigeria",
            "connectivity": false
        },
        {
            "lon": 4.226009,
            "lat": 8.113454,
            "school_name": "Name unknown",
            "country_name": "Nigeria",
            "connectivity": false
        },
        {
            "lon": 4.266401,
            "lat": 8.431197,
            "school_name": "Name unknown",
            "country_name": "Nigeria",
            "connectivity": false
        },
        {
            "lon": 9.216166,
            "lat": 8.585514,
            "school_name": "Name unknown",
            "country_name": "Nigeria",
            "connectivity": false
        },
        {
            "lon": 7.37213,
            "lat": 4.66507,
            "school_name": "Name unknown",
            "country_name": "Nigeria",
            "connectivity": false
        },
        {
            "lon": 6.620526,
            "lat": 5.299107,
            "school_name": "Name unknown",
            "country_name": "Nigeria",
            "connectivity": false
        },
        {
            "lon": 9.620253,
            "lat": 8.181903,
            "school_name": "Name unknown",
            "country_name": "Nigeria",
            "connectivity": false
        },
        {
            "lon": 11.622568,
            "lat": 9.308,
            "school_name": "Name unknown",
            "country_name": "Nigeria",
            "connectivity": false
        },
        {
            "lon": 11.5303,
            "lat": 6.897989,
            "school_name": "Name unknown",
            "country_name": "Nigeria",
            "connectivity": false
        },
        {
            "lon": 9.99956,
            "lat": 7.383306,
            "school_name": "Name unknown",
            "country_name": "Nigeria",
            "connectivity": false
        },
        {
            "lon": 6.844937,
            "lat": 6.344698,
            "school_name": "Name unknown",
            "country_name": "Nigeria",
            "connectivity": false
        },
        {
            "lon": 6.98786,
            "lat": 6.082756,
            "school_name": "Name unknown",
            "country_name": "Nigeria",
            "connectivity": false
        },
        {
            "lon": 6.922653,
            "lat": 5.860707,
            "school_name": "Name unknown",
            "country_name": "Nigeria",
            "connectivity": false
        },
        {
            "lon": 6.986086,
            "lat": 6.159599,
            "school_name": "Name unknown",
            "country_name": "Nigeria",
            "connectivity": false
        },
        {
            "lon": 6.740467,
            "lat": 5.987067,
            "school_name": "Name unknown",
            "country_name": "Nigeria",
            "connectivity": false
        },
        {
            "lon": 7.44833645,
            "lat": 11.43396587,
            "school_name": "Name unknown",
            "country_name": "Nigeria",
            "connectivity": false
        },
        {
            "lon": 7.64854112,
            "lat": 11.32947942,
            "school_name": "Name unknown",
            "country_name": "Nigeria",
            "connectivity": false
        },
        {
            "lon": 8.27790887,
            "lat": 13.0646552,
            "school_name": "Name unknown",
            "country_name": "Nigeria",
            "connectivity": false
        },
        {
            "lon": 7.61363794,
            "lat": 11.79531885,
            "school_name": "Name unknown",
            "country_name": "Nigeria",
            "connectivity": false
        },
        {
            "lon": 9.75698448,
            "lat": 10.68816685,
            "school_name": "Name unknown",
            "country_name": "Nigeria",
            "connectivity": false
        },
        {
            "lon": 4.28632307,
            "lat": 12.92785293,
            "school_name": "Name unknown",
            "country_name": "Nigeria",
            "connectivity": false
        },
        {
            "lon": 4.28707498,
            "lat": 12.33549036,
            "school_name": "Name unknown",
            "country_name": "Nigeria",
            "connectivity": false
        },
        {
            "lon": 3.6777,
            "lat": 11.85538,
            "school_name": "Name unknown",
            "country_name": "Nigeria",
            "connectivity": false
        },
        {
            "lon": 4.95878048,
            "lat": 11.51167773,
            "school_name": "Name unknown",
            "country_name": "Nigeria",
            "connectivity": false
        },
        {
            "lon": 5.826622481,
            "lat": 12.85146977,
            "school_name": "Name unknown",
            "country_name": "Nigeria",
            "connectivity": false
        },
        {
            "lon": 7.820109,
            "lat": 7.935498,
            "school_name": "Name unknown",
            "country_name": "Nigeria",
            "connectivity": false
        },
        {
            "lon": 9.066022,
            "lat": 7.434715,
            "school_name": "Name unknown",
            "country_name": "Nigeria",
            "connectivity": false
        },
        {
            "lon": 8.363575,
            "lat": 7.067352,
            "school_name": "Name unknown",
            "country_name": "Nigeria",
            "connectivity": false
        },
        {
            "lon": 7.701674,
            "lat": 7.028841,
            "school_name": "Name unknown",
            "country_name": "Nigeria",
            "connectivity": false
        },
        {
            "lon": 9.647234,
            "lat": 7.445777,
            "school_name": "Name unknown",
            "country_name": "Nigeria",
            "connectivity": false
        },
        {
            "lon": 9.101612,
            "lat": 7.002765,
            "school_name": "Name unknown",
            "country_name": "Nigeria",
            "connectivity": false
        },
        {
            "lon": 11.67313993,
            "lat": 13.07118237,
            "school_name": "Name unknown",
            "country_name": "Nigeria",
            "connectivity": false
        },
        {
            "lon": 6.766168062,
            "lat": 12.31124934,
            "school_name": "Name unknown",
            "country_name": "Nigeria",
            "connectivity": false
        },
        {
            "lon": 6.678732634,
            "lat": 12.36482799,
            "school_name": "Name unknown",
            "country_name": "Nigeria",
            "connectivity": false
        },
        {
            "lon": 6.539,
            "lat": 12.5889,
            "school_name": "Name unknown",
            "country_name": "Nigeria",
            "connectivity": false
        },
        {
            "lon": 6.90614904,
            "lat": 11.82388068,
            "school_name": "Name unknown",
            "country_name": "Nigeria",
            "connectivity": false
        },
        {
            "lon": 31.8426,
            "lat": -28.68957,
            "school_name": "Somopho Primary School",
            "country_name": "South Africa",
            "connectivity": false
        },
        {
            "lon": 28.21569,
            "lat": -25.74733,
            "school_name": "Boston City Campus & Business College - Arcadia",
            "country_name": "South Africa",
            "connectivity": false
        },
        {
            "lon": -79.0927,
            "lat": -5.37546,
            "school_name": "16694",
            "country_name": "Peru",
            "connectivity": false
        },
        {
            "lon": -75.4482,
            "lat": -8.97368,
            "school_name": "759",
            "country_name": "Peru",
            "connectivity": false
        },
        {
            "lon": -78.2775,
            "lat": -7.07648,
            "school_name": "EL U\u00d1IGAN",
            "country_name": "Peru",
            "connectivity": false
        },
        {
            "lon": -74.3819,
            "lat": -8.52925,
            "school_name": "MI DULCE DESPERTAR I",
            "country_name": "Peru",
            "connectivity": false
        },
        {
            "lon": -73.8848,
            "lat": -12.7162,
            "school_name": "TRISOLINE",
            "country_name": "Peru",
            "connectivity": false
        },
        {
            "lon": 6.924448,
            "lat": 5.482899,
            "school_name": "Name unknown",
            "country_name": "Nigeria",
            "connectivity": false
        },
        {
            "lon": 7.52961065,
            "lat": 10.78425576,
            "school_name": "Name unknown",
            "country_name": "Nigeria",
            "connectivity": false
        },
        {
            "lon": 3.26529,
            "lat": 6.57995,
            "school_name": "Name unknown",
            "country_name": "Nigeria",
            "connectivity": false
        },
        {
            "lon": 7.20774,
            "lat": 9.21126,
            "school_name": "Name unknown",
            "country_name": "Nigeria",
            "connectivity": false
        },
        {
            "lon": 8.01734,
            "lat": 4.738115,
            "school_name": "Name unknown",
            "country_name": "Nigeria",
            "connectivity": false
        },
        {
            "lon": 11.25514,
            "lat": 8.740855,
            "school_name": "Name unknown",
            "country_name": "Nigeria",
            "connectivity": false
        },
        {
            "lon": 8.781355083,
            "lat": 12.69751817,
            "school_name": "Name unknown",
            "country_name": "Nigeria",
            "connectivity": false
        },
        {
            "lon": 69.3364211,
            "lat": 41.34362207,
            "school_name": "Muhammad al-Xorazmiy nomidagi axborot-kommunikatsiya texnologiyalari yo\u2018nalishiga oid fanlarni chuqurlashtirib o\u2018qitishga ixtisoslashtirilgan maktab",
            "country_name": "Uzbekistan",
            "connectivity": false
        },
        {
            "lon": 67.22267,
            "lat": 37.338892,
            "school_name": "1 -  sonli umumta\u2018lim maktabi",
            "country_name": "Uzbekistan",
            "connectivity": false
        },
        {
            "lon": 66.59666,
            "lat": 39.90392,
            "school_name": "7 -  sonli umumta\u2018lim maktabi",
            "country_name": "Uzbekistan",
            "connectivity": false
        },
        {
            "lon": 65.83409,
            "lat": 38.83428,
            "school_name": "31 -  sonli umumta\u2018lim maktabi",
            "country_name": "Uzbekistan",
            "connectivity": false
        },
        {
            "lon": 60.4440093,
            "lat": 41.7240802,
            "school_name": "28 -  sonli umumta\u2018lim maktabi",
            "country_name": "Uzbekistan",
            "connectivity": false
        },
        {
            "lon": 64.963308,
            "lat": 40.29897,
            "school_name": "10 -  sonli umumiy o'rta ta\u2018lim maktabi",
            "country_name": "Uzbekistan",
            "connectivity": false
        },
        {
            "lon": 72.18384,
            "lat": 40.58772,
            "school_name": "25 - sonli iqtisoslashtirilgan maktab internati",
            "country_name": "Uzbekistan",
            "connectivity": false
        },
        {
            "lon": 72.901127,
            "lat": 40.789078,
            "school_name": "29 -  sonli umumta\u2018lim maktabi",
            "country_name": "Uzbekistan",
            "connectivity": false
        },
        {
            "lon": -103.473985,
            "lat": 25.605669,
            "school_name": "BICENTENARIO DE LA INDEPENDENCIA",
            "country_name": "Mexico",
            "connectivity": false
        },
        {
            "lon": -106.375484,
            "lat": 26.040294,
            "school_name": "TELESECUNDARIA NUM. 327",
            "country_name": "Mexico",
            "connectivity": false
        },
        {
            "lon": -104.573925,
            "lat": 24.101574,
            "school_name": "TELESECUNDARIA NUM. 243",
            "country_name": "Mexico",
            "connectivity": false
        },
        {
            "lon": -100.8186,
            "lat": 20.60375,
            "school_name": "TELESECUNDARIA NUM. 922",
            "country_name": "Mexico",
            "connectivity": false
        },
        {
            "lon": -109.933967,
            "lat": 27.482557,
            "school_name": "JOSE RAFAEL CAMPOY",
            "country_name": "Mexico",
            "connectivity": false
        },
        {
            "lon": -94.83913,
            "lat": 18.16473,
            "school_name": "BENITO JUAREZ GARCIA",
            "country_name": "Mexico",
            "connectivity": false
        },
        {
            "lon": -95.27095,
            "lat": 18.41347,
            "school_name": "CARLOS FUENTES MACIAS",
            "country_name": "Mexico",
            "connectivity": false
        },
        {
            "lon": 69.0303,
            "lat": 24.6739,
            "school_name": "GBPS - ACHAR RIND",
            "country_name": "Pakistan",
            "connectivity": false
        },
        {
            "lon": 69.2317,
            "lat": 24.7786,
            "school_name": "GBPS - DOST MUHAMMAD JARWAR",
            "country_name": "Pakistan",
            "connectivity": false
        },
        {
            "lon": 67.9025,
            "lat": 27.2292,
            "school_name": "GGPS - MIR MUHAMMAD",
            "country_name": "Pakistan",
            "connectivity": false
        },
        {
            "lon": 67.0627,
            "lat": 24.8582,
            "school_name": "GBHS - QUAIDEEN BR 6 PECHS",
            "country_name": "Pakistan",
            "connectivity": false
        },
        {
            "lon": 67.4185,
            "lat": 24.8766,
            "school_name": "GBPS - FARABI",
            "country_name": "Pakistan",
            "connectivity": false
        },
        {
            "lon": 68.7697,
            "lat": 28.2531,
            "school_name": "GGPS -ABDUL SATTAR KANDRANI",
            "country_name": "Pakistan",
            "connectivity": false
        },
        {
            "lon": 67.6968,
            "lat": 27.5985,
            "school_name": "GGPS - GHABI DERO.",
            "country_name": "Pakistan",
            "connectivity": false
        },
        {
            "lon": 67.8681,
            "lat": 27.5101,
            "school_name": "GBPS - JAMAK CHANDIO.",
            "country_name": "Pakistan",
            "connectivity": false
        },
        {
            "lon": 67.1586,
            "lat": 24.8329,
            "school_name": "KMC - GIRLS PRIMARY SCHOOL",
            "country_name": "Pakistan",
            "connectivity": false
        },
        {
            "lon": 67.2171,
            "lat": 24.8578,
            "school_name": "KMC - BOYS SECONDARY SCHOOL",
            "country_name": "Pakistan",
            "connectivity": false
        },
        {
            "lon": 69.1059,
            "lat": 25.6166,
            "school_name": "GBPS - FAZUL-E-REHMAN",
            "country_name": "Pakistan",
            "connectivity": false
        },
        {
            "lon": 68.1156,
            "lat": 26.8781,
            "school_name": "GBPS - BOLANI VISTRA",
            "country_name": "Pakistan",
            "connectivity": false
        },
        {
            "lon": 68.1719,
            "lat": 27.0078,
            "school_name": "GBLSS - GHAZI KHAN GOPANG",
            "country_name": "Pakistan",
            "connectivity": false
        },
        {
            "lon": 68.5099,
            "lat": 26.033,
            "school_name": "GGPS - ALAM ZARADRI",
            "country_name": "Pakistan",
            "connectivity": false
        },
        {
            "lon": 68.5379,
            "lat": 25.9998,
            "school_name": "GGPS - GULAN KHASKHELI",
            "country_name": "Pakistan",
            "connectivity": false
        },
        {
            "lon": 68.3988,
            "lat": 26.2548,
            "school_name": "GBHS - GHULAM HYDER SHAH COLONY",
            "country_name": "Pakistan",
            "connectivity": false
        },
        {
            "lon": 68.2662,
            "lat": 26.2258,
            "school_name": "GBPS - IMAM BUX BROHI",
            "country_name": "Pakistan",
            "connectivity": false
        },
        {
            "lon": 68.3864,
            "lat": 24.3194,
            "school_name": "GBPS - RANA ABDUL SATTAR",
            "country_name": "Pakistan",
            "connectivity": false
        },
        {
            "lon": 68.2775,
            "lat": 24.4717,
            "school_name": "GBPS - RASHID ABAD",
            "country_name": "Pakistan",
            "connectivity": false
        },
        {
            "lon": 68.0903,
            "lat": 24.2711,
            "school_name": "GBPS - CHHACHH GOLO",
            "country_name": "Pakistan",
            "connectivity": false
        },
        {
            "lon": 68.7629,
            "lat": 24.9747,
            "school_name": "GGHS - DANDO",
            "country_name": "Pakistan",
            "connectivity": false
        },
        {
            "lon": 68.5337,
            "lat": 25.011,
            "school_name": "GBPS - BAHADUR ZAUR",
            "country_name": "Pakistan",
            "connectivity": false
        },
        {
            "lon": 70.0578,
            "lat": 24.4983,
            "school_name": "GGLSS - VINJHINYARI",
            "country_name": "Pakistan",
            "connectivity": false
        },