{
    "name": "Patchwork Kingdom #130 | Wenrandrus",
    "description": "The twin kingdoms of Wenrandrus, separated by a digital divide. A bustling kingdom of 145 schools on top that are all connected to the internet, and 107 schools, not connected, hidden in the upside down kingdom | Created for Giga (GigaConnect.org) \u2014 connecting every school in the world \u2014 in celebration of UNICEF's 75th birthday, by Nadieh Bremer",
    "external_url": "https://dummyURL.com/patchwork_kingdoms_130",
    "image": "https://dummy-storage-url.com/patchwork_kingdoms_130.png",
    "attributes": [
        {
            "trait_type": "Color palette",
            "value": "chaos"
        },
        {
            "display_type": "number",
            "trait_type": "Schools",
            "value": 271,
            "max_value": 460
        },
        {
            "display_type": "number",
            "trait_type": "Ratio - Connected",
            "value": 0.54,
            "max_value": 1
        },
        {
            "display_type": "number",
            "trait_type": "Ratio - Unconnected",
            "value": 0.39,
            "max_value": 1
        },
        {
            "display_type": "number",
            "trait_type": "Ratio - Data unavailable",
            "value": 0.07,
            "max_value": 1
        },
        {
            "trait_type": "Countries",
            "value": "BJ-BR-CO-CR-HN-KG-KZ-NA-PH-PS-RW-SL-ZW"
        },
        {
            "display_type": "number",
            "trait_type": "Symbols",
            "value": 46,
            "max_value": 51
        }
    ],
    "cluster_id": 130,
    "num_schools": 271,
    "num_schools_connected": 145,
    "num_schools_unconnected": 107,
    "num_schools_unknown": 19,
    "schools": [
        {
            "lon": -88.31401,
            "lat": 14.09184,
            "school_name": "FRANCISCO BERTRAND",
            "country_name": "Honduras",
            "connectivity": true
        },
        {
            "lon": -86.726,
            "lat": 14.87326,
            "school_name": "JOSE MANUEL ZELAYA ROSALES",
            "country_name": "Honduras",
            "connectivity": true
        },
        {
            "lon": -86.54239,
            "lat": 15.18463,
            "school_name": "JOSE TRINIDAD CABA\u00c3\u2018AS",
            "country_name": "Honduras",
            "connectivity": true
        },
        {
            "lon": -87.47319,
            "lat": 13.53908,
            "school_name": "JUAN AMBROSIO SABIO",
            "country_name": "Honduras",
            "connectivity": true
        },
        {
            "lon": -86.54513,
            "lat": 13.85432,
            "school_name": "VISITACION LARA DE ZELAYA",
            "country_name": "Honduras",
            "connectivity": true
        },
        {
            "lon": -87.82067,
            "lat": 14.85247,
            "school_name": "SALOMON PINEDA",
            "country_name": "Honduras",
            "connectivity": true
        },
        {
            "lon": -87.6032,
            "lat": 14.64265,
            "school_name": "JUSTO JIMENEZ",
            "country_name": "Honduras",
            "connectivity": true
        },
        {
            "lon": -86.80064,
            "lat": 13.81475,
            "school_name": "AMOR VIVIENTE",
            "country_name": "Honduras",
            "connectivity": true
        },
        {
            "lon": -87.29745,
            "lat": 14.33817,
            "school_name": "FRANCISCO MORAZAN",
            "country_name": "Honduras",
            "connectivity": true
        },
        {
            "lon": -87.49872,
            "lat": 13.71311,
            "school_name": "OSCAR ORLANDO FLORES",
            "country_name": "Honduras",
            "connectivity": true
        },
        {
            "lon": 32.69126,
            "lat": -17.60168,
            "school_name": "SANHANI",
            "country_name": "Zimbabwe",
            "connectivity": true
        },
        {
            "lon": 32.70252,
            "lat": -20.41692,
            "school_name": "MT SELINDA",
            "country_name": "Zimbabwe",
            "connectivity": true
        },
        {
            "lon": 32.71954,
            "lat": -20.17404,
            "school_name": "CHIVUNZE",
            "country_name": "Zimbabwe",
            "connectivity": true
        },
        {
            "lon": 29.54,
            "lat": -1.911194444,
            "school_name": "CS MWUMBA A",
            "country_name": "Rwanda",
            "connectivity": false
        },
        {
            "lon": -84.67674092,
            "lat": 10.79896727,
            "school_name": "LA NUEVA LUCHA",
            "country_name": "Costa Rica",
            "connectivity": true
        },
        {
            "lon": -82.71471124,
            "lat": 9.57118171,
            "school_name": "PARAISO",
            "country_name": "Costa Rica",
            "connectivity": true
        },
        {
            "lon": -84.32864032,
            "lat": 9.52208523,
            "school_name": "LA JULIETA",
            "country_name": "Costa Rica",
            "connectivity": true
        },
        {
            "lon": 35.253508,
            "lat": 32.14307,
            "school_name": "Name unknown",
            "country_name": "Palestine",
            "connectivity": true
        },
        {
            "lon": 35.126512,
            "lat": 31.918282,
            "school_name": "deer bzee_a secondary boys",
            "country_name": "Palestine",
            "connectivity": true
        },
        {
            "lon": 35.214992,
            "lat": 31.944403,
            "school_name": "aljalzon-basic-girls",
            "country_name": "Palestine",
            "connectivity": true
        },
        {
            "lon": 35.10078,
            "lat": 31.623413,
            "school_name": "elhassan bin elhaytham asic boys",
            "country_name": "Palestine",
            "connectivity": true
        },
        {
            "lon": 31.8738,
            "lat": -17.5295,
            "school_name": "CHITOWA NO 1",
            "country_name": "Zimbabwe",
            "connectivity": true
        },
        {
            "lon": -72.09111489,
            "lat": 4.917503323,
            "school_name": "Name unknown",
            "country_name": "Colombia",
            "connectivity": false
        },
        {
            "lon": -75.60054271,
            "lat": 6.265203734,
            "school_name": "Name unknown",
            "country_name": "Colombia",
            "connectivity": false
        },
        {
            "lon": 29.97466,
            "lat": -21.27723,
            "school_name": "TOWLA",
            "country_name": "Zimbabwe",
            "connectivity": true
        },
        {
            "lon": 28.57858,
            "lat": -18.55258,
            "school_name": "NDARIRE",
            "country_name": "Zimbabwe",
            "connectivity": true
        },
        {
            "lon": 29.80201,
            "lat": -19.47717,
            "school_name": "LUNDI PARK",
            "country_name": "Zimbabwe",
            "connectivity": true
        },
        {
            "lon": -75.12835318,
            "lat": 1.453907924,
            "school_name": "Name unknown",
            "country_name": "Colombia",
            "connectivity": false
        },
        {
            "lon": -74.64470779,
            "lat": 4.203624477,
            "school_name": "Name unknown",
            "country_name": "Colombia",
            "connectivity": false
        },
        {
            "lon": 120.937325,
            "lat": 15.04818615,
            "school_name": "Maasim Elementary School",
            "country_name": "Philippines",
            "connectivity": true
        },
        {
            "lon": 120.955139,
            "lat": 15.223954,
            "school_name": "Malinao PS",
            "country_name": "Philippines",
            "connectivity": true
        },
        {
            "lon": 121.332271,
            "lat": 14.110797,
            "school_name": "San Buenaventura Elementary School",
            "country_name": "Philippines",
            "connectivity": true
        },
        {
            "lon": 122.900091,
            "lat": 13.927819,
            "school_name": "Polantuna ES",
            "country_name": "Philippines",
            "connectivity": true
        },
        {
            "lon": 121.97639,
            "lat": 11.91606,
            "school_name": "Unidos ES",
            "country_name": "Philippines",
            "connectivity": true
        },
        {
            "lon": 124.206159,
            "lat": 10.19197,
            "school_name": "Alumar ES",
            "country_name": "Philippines",
            "connectivity": true
        },
        {
            "lon": 124.2858333,
            "lat": 9.695,
            "school_name": "Cagwang ES",
            "country_name": "Philippines",
            "connectivity": true
        },
        {
            "lon": 123.647217,
            "lat": 9.186328,
            "school_name": "Cantaroc Elementary School",
            "country_name": "Philippines",
            "connectivity": true
        },
        {
            "lon": 124.997964,
            "lat": 11.600365,
            "school_name": "Botoc ES",
            "country_name": "Philippines",
            "connectivity": true
        },
        {
            "lon": 124.4483022,
            "lat": 11.03232164,
            "school_name": "Hinagbuan ES",
            "country_name": "Philippines",
            "connectivity": true
        },
        {
            "lon": 124.4108471,
            "lat": 11.20037714,
            "school_name": "Tinghub ES",
            "country_name": "Philippines",
            "connectivity": true
        },
        {
            "lon": 124.5339872,
            "lat": 7.199995604,
            "school_name": "Lt. A. Calungsod ES",
            "country_name": "Philippines",
            "connectivity": true
        },
        {
            "lon": 121.1577778,
            "lat": 18.10111111,
            "school_name": "Dangla PS",
            "country_name": "Philippines",
            "connectivity": true
        },
        {
            "lon": 121.207283,
            "lat": 17.98053,
            "school_name": "Taracay ES",
            "country_name": "Philippines",
            "connectivity": true
        },
        {
            "lon": -42.9102,
            "lat": -22.385698,
            "school_name": "CE FANY NISKIER",
            "country_name": "Brazil",
            "connectivity": true
        },
        {
            "lon": -51.5725,
            "lat": -10.6452,
            "school_name": "EM VIDA E ESPERANCA",
            "country_name": "Brazil",
            "connectivity": true
        },
        {
            "lon": -88.0184,
            "lat": 15.23279,
            "school_name": "EL REMOLINO",
            "country_name": "Honduras",
            "connectivity": true
        },
        {
            "lon": -72.23759068,
            "lat": 11.37504435,
            "school_name": "COL RODOLFO MORALES - SEDE PRINCIPAL",
            "country_name": "Colombia",
            "connectivity": true
        },
        {
            "lon": -72.45743491,
            "lat": 7.250364205,
            "school_name": "SEDE LA COMPA\u00d1IA",
            "country_name": "Colombia",
            "connectivity": true
        },
        {
            "lon": -72.57833333,
            "lat": 2.7675,
            "school_name": "SEDE SAN RAFAEL",
            "country_name": "Colombia",
            "connectivity": true
        },
        {
            "lon": -72.77591667,
            "lat": 10.78847222,
            "school_name": "ESCUELA RURAL DE LOS PONDORES",
            "country_name": "Colombia",
            "connectivity": true
        },
        {
            "lon": -72.959892,
            "lat": 4.971124,
            "school_name": "SEDE PRINCIPAL SIMON BOLIVAR",
            "country_name": "Colombia",
            "connectivity": true
        },
        {
            "lon": -73.13101117,
            "lat": 7.100182098,
            "school_name": "IE JOSE CELESTINO MUTIS",
            "country_name": "Colombia",
            "connectivity": true
        },
        {
            "lon": -73.1931287,
            "lat": 8.338014048,
            "school_name": "SEDE LLANO GRANDE",
            "country_name": "Colombia",
            "connectivity": true
        },
        {
            "lon": -74.25324297,
            "lat": 4.319602728,
            "school_name": "ESCUELA RURAL ZORATAMA",
            "country_name": "Colombia",
            "connectivity": true
        },
        {
            "lon": -74.856111,
            "lat": 6.514167,
            "school_name": "E R GUACHARACAS",
            "country_name": "Colombia",
            "connectivity": true
        },
        {
            "lon": -74.86729037,
            "lat": 7.492154457,
            "school_name": "COLEGIO FRANCISCO DE PAULA SANTANDER",
            "country_name": "Colombia",
            "connectivity": true
        },
        {
            "lon": -74.80097588,
            "lat": 9.479767759,
            "school_name": "I.E.T. DE TACAMOCHO - SEDE PRINCIPAL",
            "country_name": "Colombia",
            "connectivity": true
        },
        {
            "lon": -75.22184096,
            "lat": 2.604391831,
            "school_name": "BAJO ROBLE",
            "country_name": "Colombia",
            "connectivity": true
        },
        {
            "lon": -75.9717985,
            "lat": 4.917402368,
            "school_name": "SE EL ROSARIO - LA CANCHA",
            "country_name": "Colombia",
            "connectivity": true
        },
        {
            "lon": -76.19111111,
            "lat": 1.99,
            "school_name": "SINA\u00cd",
            "country_name": "Colombia",
            "connectivity": true
        },
        {
            "lon": -76.11358449,
            "lat": 4.540981444,
            "school_name": "SAN MARTIN DE PORRES",
            "country_name": "Colombia",
            "connectivity": true
        },
        {
            "lon": -76.32026827,
            "lat": 4.212394811,
            "school_name": "MERCEDES ABREGO",
            "country_name": "Colombia",
            "connectivity": true
        },
        {
            "lon": -76.38361111,
            "lat": 3.97555555,
            "school_name": "VEINTE DE JULIO",
            "country_name": "Colombia",
            "connectivity": true
        },
        {
            "lon": -76.6725,
            "lat": 7.670278,
            "school_name": "I.E. MUNICIPAL JOSE DE LOS SANTOS ZU\u00d1IGA",
            "country_name": "Colombia",
            "connectivity": true
        },
        {
            "lon": -76.81854131,
            "lat": 2.69370956,
            "school_name": "CARRIZALITO ORTEGA",
            "country_name": "Colombia",
            "connectivity": true
        },
        {
            "lon": -76.805804,
            "lat": 2.12954,
            "school_name": "E.R.M. EL PARAISO - SEDE PRINCIPAL",
            "country_name": "Colombia",
            "connectivity": true
        },
        {
            "lon": -76.723358,
            "lat": 7.386642,
            "school_name": "CE SANTA MARIA DE BELEN DE BAJIRA - SEDE PRINCIPAL",
            "country_name": "Colombia",
            "connectivity": true
        },
        {
            "lon": -76.95744823,
            "lat": 8.163713358,
            "school_name": "SEDE RIO MAR EL ROTO",
            "country_name": "Colombia",
            "connectivity": true
        },
        {
            "lon": -77.0289798,
            "lat": 6.424244403,
            "school_name": "SEDE IND\u00cdGENA EL SAVIO FIDELIO DE SANTA LUCIA",
            "country_name": "Colombia",
            "connectivity": true
        },
        {
            "lon": -65.600624,
            "lat": -1.7842691,
            "school_name": "ESCOLA ESTADUAL BENTA SOLART",
            "country_name": "Brazil",
            "connectivity": true
        },
        {
            "lon": -42.498737,
            "lat": -3.4901142,
            "school_name": "ESCOLINHA SANTA TERESINHA",
            "country_name": "Brazil",
            "connectivity": true
        },
        {
            "lon": -35.44766,
            "lat": -7.8605943,
            "school_name": "ESCOLA ESTADUAL PADRE NICOLAU PIMENTEL",
            "country_name": "Brazil",
            "connectivity": true
        },
        {
            "lon": -78.07074319,
            "lat": 1.16029815,
            "school_name": "CENTRO EDUCATIVO ANDALUC\u00cdA",
            "country_name": "Colombia",
            "connectivity": true
        },
        {
            "lon": -78.79095888,
            "lat": 1.79907429,
            "school_name": "SEDE # 1 IBERIA",
            "country_name": "Colombia",
            "connectivity": true
        },
        {
            "lon": -66.1007,
            "lat": -2.5149,
            "school_name": "ESC MUN INDIG BOM JESUS",
            "country_name": "Brazil",
            "connectivity": false
        },
        {
            "lon": -59.9991,
            "lat": -3.1076,
            "school_name": "CMEI DALVA MARIA COSTA E SILVA",
            "country_name": "Brazil",
            "connectivity": true
        },
        {
            "lon": -61.3892,
            "lat": 3.2896,
            "school_name": "ESCOLA ESTADUAL INDIGENA FABIO DE MAGALHAES",
            "country_name": "Brazil",
            "connectivity": false
        },
        {
            "lon": -61.4342,
            "lat": 4.1507,
            "school_name": "ESCOLA MUNICIPAL ALONSO OLIVEIRA FRANCO",
            "country_name": "Brazil",
            "connectivity": false
        },
        {
            "lon": -47.6025,
            "lat": -0.7982,
            "school_name": "E M E I F PROF ZELIA FLEXA DA SILVA",
            "country_name": "Brazil",
            "connectivity": true
        },
        {
            "lon": -49.4994,
            "lat": -2.2497,
            "school_name": "E M E I F PROFESSOR BENEDITO FURTADO",
            "country_name": "Brazil",
            "connectivity": true
        },
        {
            "lon": -49.8922,
            "lat": -5.9683,
            "school_name": "E M E F 18 DE OUTUBRO",
            "country_name": "Brazil",
            "connectivity": true
        },
        {
            "lon": -44.1389,
            "lat": -2.5617,
            "school_name": "EM NOSSA SENHORA DA VITORIA",
            "country_name": "Brazil",
            "connectivity": false
        },
        {
            "lon": -43.6963,
            "lat": -2.6422,
            "school_name": "EM SANTA MARIA",
            "country_name": "Brazil",
            "connectivity": false
        },
        {
            "lon": -47.2504,
            "lat": -5.9122,
            "school_name": "EM ALMIRANTE BARROSO",
            "country_name": "Brazil",
            "connectivity": false
        },
        {
            "lon": -44.6529,
            "lat": -5.2521,
            "school_name": "EM SANTA RITA",
            "country_name": "Brazil",
            "connectivity": false
        },
        {
            "lon": -43.7165,
            "lat": -4.302,
            "school_name": "EM FILOMENA CATARINA MOREIRA",
            "country_name": "Brazil",
            "connectivity": true
        },
        {
            "lon": -43.0098,
            "lat": -4.0993,
            "school_name": "COL DEP ALUIZIO LOBO",
            "country_name": "Brazil",
            "connectivity": false
        },
        {
            "lon": -43.407,
            "lat": -4.6733,
            "school_name": "UEM JOAO LUIS ALBUQUERQUE",
            "country_name": "Brazil",
            "connectivity": false
        },
        {
            "lon": -43.0249,
            "lat": -6.7568,
            "school_name": "UE 13 DE JUNHO",
            "country_name": "Brazil",
            "connectivity": false
        },
        {
            "lon": -44.0005,
            "lat": -6.0114,
            "school_name": "EM DEPUTADO JOSE TEXEIRA",
            "country_name": "Brazil",
            "connectivity": false
        },
        {
            "lon": -47.8529,
            "lat": -5.0106,
            "school_name": "UNIDADE ESCOLAR SAO JOSE II",
            "country_name": "Brazil",
            "connectivity": true
        },
        {
            "lon": -47.082,
            "lat": -3.9306,
            "school_name": "ESCOLA MUNICIPAL ALUISIO AZEVEDO",
            "country_name": "Brazil",
            "connectivity": false
        },
        {
            "lon": -46.6996,
            "lat": -5.3154,
            "school_name": "UNIDADE INTEGRADA DE EDUCACAO ESCOLAR INDIGENA YHYK YW",
            "country_name": "Brazil",
            "connectivity": false
        },
        {
            "lon": -42.8095,
            "lat": -5.0237,
            "school_name": "CENTRO MUNICIPAL DE EDUCACAO INFANTIL DO MOCAMBINHO",
            "country_name": "Brazil",
            "connectivity": false
        },
        {
            "lon": -40.428,
            "lat": -4.1019,
            "school_name": "SALUSTIANO PINTO COL MUL ENS FUND",
            "country_name": "Brazil",
            "connectivity": true
        },
        {
            "lon": -40.9264,
            "lat": -3.8444,
            "school_name": "BELARMINO HOLANDA CAVALCANTE EEIEF",
            "country_name": "Brazil",
            "connectivity": true
        },
        {
            "lon": -40.8557,
            "lat": -3.5413,
            "school_name": "RAIMUNDO BARROSO TABOSA EMEIEF",
            "country_name": "Brazil",
            "connectivity": true
        },
        {
            "lon": -40.5565,
            "lat": -3.5584,
            "school_name": "EEIEF FRANCISCO REINALDO DE MARIA",
            "country_name": "Brazil",
            "connectivity": true
        },
        {
            "lon": -40.5573,
            "lat": -3.9204,
            "school_name": "EEIEF MONSENHOR ANTONIO CANDIDO DE MELO",
            "country_name": "Brazil",
            "connectivity": true
        },
        {
            "lon": -48.3021,
            "lat": -15.7787,
            "school_name": "ESCOLA MUNICIPAL FERNANDO CUNHA",
            "country_name": "Brazil",
            "connectivity": true
        },
        {
            "lon": -39.0562,
            "lat": -4.0964,
            "school_name": "ALEGRIA DE VIVER",
            "country_name": "Brazil",
            "connectivity": true
        },
        {
            "lon": -40.8669,
            "lat": -5.7828,
            "school_name": "MANOEL VIEIRA DE CARVALHO EEIF",
            "country_name": "Brazil",
            "connectivity": false
        },
        {
            "lon": -40.9889,
            "lat": -3.3403,
            "school_name": "MARIA CRUZ DE VASCONCELOS SOUSA CEI",
            "country_name": "Brazil",
            "connectivity": true
        },
        {
            "lon": -48.4052,
            "lat": -9.5565,
            "school_name": "ASSOCIACAO DE APOIO A ESC ESPECIAL UM RAIO DE LUZ",
            "country_name": "Brazil",
            "connectivity": true
        },
        {
            "lon": -37.1725,
            "lat": -7.1408,
            "school_name": "GRUPO ESCOLAR ALCEBIADES MOREIRA",
            "country_name": "Brazil",
            "connectivity": false
        },
        {
            "lon": -38.1006,
            "lat": -7.3946,
            "school_name": "ES MUL MIGUEL D DE SOUSA",
            "country_name": "Brazil",
            "connectivity": false
        },
        {
            "lon": -35.6042,
            "lat": -7.0596,
            "school_name": "CRECHE MARIA JUREMA DE PAIVA",
            "country_name": "Brazil",
            "connectivity": false
        },
        {
            "lon": -35.4695,
            "lat": -6.615,
            "school_name": "EMEF JOAO ALVES DE CARVALHO",
            "country_name": "Brazil",
            "connectivity": true
        },
        {
            "lon": -35.2909,
            "lat": -6.6162,
            "school_name": "EMEIF SENADOR RUY CARNEIRO",
            "country_name": "Brazil",
            "connectivity": true
        },
        {
            "lon": -37.1199,
            "lat": -7.9056,
            "school_name": "IFPB - CAMPUS MONTEIRO",
            "country_name": "Brazil",
            "connectivity": true
        },
        {
            "lon": -47.3772,
            "lat": -2.9943,
            "school_name": "E M E F ASSOCIACAO DA PAZ",
            "country_name": "Brazil",
            "connectivity": true
        },
        {
            "lon": -35.8356,
            "lat": -9.3779,
            "school_name": "ESCOLA MUNICIPAL PROFESSORA MARIA MARLUCE RAIMUNDO DA SILVA",
            "country_name": "Brazil",
            "connectivity": true
        },
        {
            "lon": -35.722,
            "lat": -9.5596,
            "school_name": "ESCOLA MUNICIPAL BENEDITA DA SILVA SANTOS",
            "country_name": "Brazil",
            "connectivity": true
        },
        {
            "lon": -37.8073,
            "lat": -10.7381,
            "school_name": "CRECHE NOSSA SENHORA SANTANA",
            "country_name": "Brazil",
            "connectivity": false
        },
        {
            "lon": -43.1801,
            "lat": -12.6918,
            "school_name": "POLO EDUCACIONAL PROFESSORA ROSA VAZ",
            "country_name": "Brazil",
            "connectivity": true
        },
        {
            "lon": -43.0438,
            "lat": -12.952,
            "school_name": "POLO EDUCACIONAL PROFESSORA HONORINA",
            "country_name": "Brazil",
            "connectivity": true
        },
        {
            "lon": -41.1193,
            "lat": -11.0729,
            "school_name": "ESCOLA MUNICIPAL IDALIA ROCHA AZEVEDO",
            "country_name": "Brazil",
            "connectivity": true
        },
        {
            "lon": -39.2822,
            "lat": -12.3328,
            "school_name": "ESC APRIGIO SANTANA",
            "country_name": "Brazil",
            "connectivity": false
        },
        {
            "lon": -39.83,
            "lat": -13.5554,
            "school_name": "ESCOLA TEMPO FELIZ",
            "country_name": "Brazil",
            "connectivity": false
        },
        {
            "lon": -40.5454,
            "lat": -14.9528,
            "school_name": "ESCOLA MUNICIPAL MONTEIRO LOBATO",
            "country_name": "Brazil",
            "connectivity": false
        },
        {
            "lon": -39.4066,
            "lat": -13.3181,
            "school_name": "ESCOLA MUNICIPAL BENEDITA PEREIRA GUEDES",
            "country_name": "Brazil",
            "connectivity": true
        },
        {
            "lon": -42.8641,
            "lat": -12.9756,
            "school_name": "ESCOLA MUNICIPAL DE CRUZ",
            "country_name": "Brazil",
            "connectivity": false
        },
        {
            "lon": -43.4075,
            "lat": -18.8284,
            "school_name": "EM DE SAO JOSE DE ARRUDAS",
            "country_name": "Brazil",
            "connectivity": true
        },
        {
            "lon": -42.4859,
            "lat": -16.7738,
            "school_name": "EM LICINIO JOSE DE SOUZA",
            "country_name": "Brazil",
            "connectivity": false
        },
        {
            "lon": -40.5558,
            "lat": -16.6766,
            "school_name": "EE BOA VISTA",
            "country_name": "Brazil",
            "connectivity": true
        },
        {
            "lon": -46.7214,
            "lat": -21.3078,
            "school_name": "EM EDUCADORA YOLANDA CONTI BERTONI",
            "country_name": "Brazil",
            "connectivity": true
        },
        {
            "lon": -42.2409,
            "lat": -20.864,
            "school_name": "EM JOSE SOARES DE SOUZA FILHO",
            "country_name": "Brazil",
            "connectivity": true
        },
        {
            "lon": -46.3708,
            "lat": -20.3281,
            "school_name": "EM ENELISE HELENA CUNHA",
            "country_name": "Brazil",
            "connectivity": true
        },
        {
            "lon": -41.681,
            "lat": -19.7005,
            "school_name": "EM LUIZ DE SOUZA BRAGA",
            "country_name": "Brazil",
            "connectivity": false
        },
        {
            "lon": -53.575,
            "lat": -24.2923,
            "school_name": "TANCREDO NEVES C E C DR EF M",
            "country_name": "Brazil",
            "connectivity": true
        },
        {
            "lon": -40.5043,
            "lat": -18.4965,
            "school_name": "EMEF FAZENDA QUARESMA",
            "country_name": "Brazil",
            "connectivity": false
        },
        {
            "lon": -41.0388,
            "lat": -20.8352,
            "school_name": "EMEB UNIDOCENTE ALTO GRUTA",
            "country_name": "Brazil",
            "connectivity": false
        },
        {
            "lon": -40.3546,
            "lat": -20.3152,
            "school_name": "CMEI SINCLAIR PHILLIPS",
            "country_name": "Brazil",
            "connectivity": true
        },
        {
            "lon": -41.6652,
            "lat": -22.1896,
            "school_name": "E M IRACEMA",
            "country_name": "Brazil",
            "connectivity": false
        },
        {
            "lon": -49.386,
            "lat": -20.6559,
            "school_name": "FRANCISCO PURITA PROFESSOR",
            "country_name": "Brazil",
            "connectivity": true
        },
        {
            "lon": -43.6556,
            "lat": -22.6424,
            "school_name": "ESCOLA MUNICIPAL ARY SCHIAVO",
            "country_name": "Brazil",
            "connectivity": true
        },
        {
            "lon": -46.4455,
            "lat": -24.0021,
            "school_name": "NEWTON DE ALMEIDA CASTRO ESCOLA MUNICIPAL",
            "country_name": "Brazil",
            "connectivity": true
        },
        {
            "lon": -47.4355,
            "lat": -23.518,
            "school_name": "SHA AR HANEGEV CEI 39",
            "country_name": "Brazil",
            "connectivity": true
        },
        {
            "lon": -50.4665,
            "lat": -21.2179,
            "school_name": "SERGIO ESGALHA EMEB",
            "country_name": "Brazil",
            "connectivity": true
        },
        {
            "lon": -49.6983,
            "lat": -21.0481,
            "school_name": "ELIANA BERTAZONI DOS REIS PROFESSORA ESCOLA MUNICIPAL",
            "country_name": "Brazil",
            "connectivity": true
        },
        {
            "lon": -49.1502,
            "lat": -25.4537,
            "school_name": "BERNHARD JULG E R M EI EF",
            "country_name": "Brazil",
            "connectivity": true
        },
        {
            "lon": -47.5891,
            "lat": -22.7696,
            "school_name": "AFFONSO SALATI ESCOLA MUNICIPAL",
            "country_name": "Brazil",
            "connectivity": true
        },
        {
            "lon": -46.4872,
            "lat": -23.6103,
            "school_name": "CEI DIRET ASSMA CURIATI",
            "country_name": "Brazil",
            "connectivity": true
        },
        {
            "lon": -42.5086,
            "lat": -14.6775,
            "school_name": "ESCOLA MUNICIPAL WALDECK ORNELAS",
            "country_name": "Brazil",
            "connectivity": true
        },
        {
            "lon": -47.7387,
            "lat": -23.7005,
            "school_name": "HONORINA HOLTZ DO AMARAL PROFA EMEF",
            "country_name": "Brazil",
            "connectivity": true
        },
        {
            "lon": -47.515,
            "lat": -23.5036,
            "school_name": "LUIZ ALMEIDA MARINS PROF EM",
            "country_name": "Brazil",
            "connectivity": true
        },
        {
            "lon": -48.0419,
            "lat": -23.5664,
            "school_name": "IRACEMA DE OLIVEIRA PROFA CENTRO DE EDUCACAO COMPLEMENTAR",
            "country_name": "Brazil",
            "connectivity": true
        },
        {
            "lon": -52.6653,
            "lat": -26.5111,
            "school_name": "EEB PROF OLGA NUNES DE ABREU",
            "country_name": "Brazil",
            "connectivity": true
        },
        {
            "lon": -52.5192,
            "lat": -22.3536,
            "school_name": "DESTILARIA ALCIDIA EMEI",
            "country_name": "Brazil",
            "connectivity": false
        },
        {
            "lon": -45.3978,
            "lat": -23.2377,
            "school_name": "JOAO GONCALVES DOS SANTOS EMEF",
            "country_name": "Brazil",
            "connectivity": true
        },
        {
            "lon": -46.2592,
            "lat": -23.5293,
            "school_name": "GERALDA FERRAZ DE CAMPOS EMR",
            "country_name": "Brazil",
            "connectivity": true
        },
        {
            "lon": -46.3891,
            "lat": -23.5124,
            "school_name": "UMBERTO LUIZ D URSO DR",
            "country_name": "Brazil",
            "connectivity": true
        },
        {
            "lon": -47.1317,
            "lat": -22.9779,
            "school_name": "CEL JTO A EE ORLANDO SIGNORELLI",
            "country_name": "Brazil",
            "connectivity": false
        },
        {
            "lon": -48.4694,
            "lat": -1.4071,
            "school_name": "EEEIF PROFA ESTHER BANDEIRA GOMES",
            "country_name": "Brazil",
            "connectivity": true
        },
        {
            "lon": -40.3371,
            "lat": -20.3286,
            "school_name": "UMEI CORRADINO DE CICCIO PADRE EDMUNDO",
            "country_name": "Brazil",
            "connectivity": true
        },
        {
            "lon": -43.1853,
            "lat": -22.9079,
            "school_name": "0102002 ESCOLA MUNICIPAL TIRADENTES",
            "country_name": "Brazil",
            "connectivity": true
        },
        {
            "lon": -49.3053,
            "lat": -25.5221,
            "school_name": "ERALDO KUSTER C M E I DR",
            "country_name": "Brazil",
            "connectivity": true
        },
        {
            "lon": -49.3336,
            "lat": -25.5594,
            "school_name": "FLORA MUNHOZ DA ROCHA C M E I",
            "country_name": "Brazil",
            "connectivity": true
        },
        {
            "lon": -53.154,
            "lat": -27.0642,
            "school_name": "PE CHAPEUZINHO VERMELHO",
            "country_name": "Brazil",
            "connectivity": true
        },
        {
            "lon": -53.2558,
            "lat": -26.692,
            "school_name": "ATIV COMPLEMENTAR DE SAO MIGUEL DA BOA VISTA",
            "country_name": "Brazil",
            "connectivity": true
        },
        {
            "lon": -51.7978,
            "lat": -27.6329,
            "school_name": "E M E I E F MADRE CANDIDA JUSTIINA",
            "country_name": "Brazil",
            "connectivity": true
        },
        {
            "lon": -56.073,
            "lat": -15.5825,
            "school_name": "EMEB QUINTINO PEREIRA DE FREITAS",
            "country_name": "Brazil",
            "connectivity": true
        },
        {
            "lon": -49.173,
            "lat": -25.3813,
            "school_name": "ERNESTO FERREIRA SANTIAGO E M EF",
            "country_name": "Brazil",
            "connectivity": true
        },
        {
            "lon": -50.003,
            "lat": -14.8454,
            "school_name": "ESC MUL AURITA PEREIRA DA SILVA",
            "country_name": "Brazil",
            "connectivity": true
        },
        {
            "lon": -49.6051,
            "lat": -16.1993,
            "school_name": "ESCOLA MUNICIPAL VISAO DO FUTURO",
            "country_name": "Brazil",
            "connectivity": true
        },
        {
            "lon": -46.7074,
            "lat": -23.8611,
            "school_name": "AYRTON SENNA DA SILVA",
            "country_name": "Brazil",
            "connectivity": true
        },
        {
            "lon": -47.8173,
            "lat": -16.0547,
            "school_name": "CENTRO MUNICIPAL DE EDUCACAO INFANTIL JORGE MIGUEL LAQUIS",
            "country_name": "Brazil",
            "connectivity": true
        },
        {
            "lon": -46.6344,
            "lat": -23.5313,
            "school_name": "PRUDENTE DE MORAES",
            "country_name": "Brazil",
            "connectivity": true
        },
        {
            "lon": -48.1156,
            "lat": -15.8445,
            "school_name": "CED 06 DE CEILANDIA",
            "country_name": "Brazil",
            "connectivity": true
        },
        {
            "lon": -41.2442,
            "lat": -14.0202,
            "school_name": "CENTRO MUNICIPAL DE EDUCACAO INFANTIL DE TANHACU",
            "country_name": "Brazil",
            "connectivity": true
        },
        {
            "lon": -51.9016,
            "lat": -23.3814,
            "school_name": "JOAO BARBOSA DE MACEDO E M PS EF",
            "country_name": "Brazil",
            "connectivity": true
        },
        {
            "lon": -48.6263,
            "lat": -27.009,
            "school_name": "N E I ANJO DA GUARDA",
            "country_name": "Brazil",
            "connectivity": true
        },
        {
            "lon": -43.3366,
            "lat": -22.958,
            "school_name": "0716076 ESCOLA MUNICIPAL OCTAVIO FRIAS DE OLIVEIRA",
            "country_name": "Brazil",
            "connectivity": true
        },
        {
            "lon": -44.5767,
            "lat": -20.0836,
            "school_name": "EE JOAO DORNAS FILHO",
            "country_name": "Brazil",
            "connectivity": true
        },
        {
            "lon": -46.9019,
            "lat": -16.3547,
            "school_name": "CENTRO DE EDUCACAO INFANTIL URSINHOS CARINHOSOS",
            "country_name": "Brazil",
            "connectivity": true
        },
        {
            "lon": -54.1248,
            "lat": -27.5958,
            "school_name": "ESCOLA MUNICIPAL DE ENSINO FUNDAMENTAL DIRCE MARGARETE GROSZ",
            "country_name": "Brazil",
            "connectivity": true
        },
        {
            "lon": -40.7184,
            "lat": -20.3106,
            "school_name": "EFA SAO BENTO DO CHAPEU",
            "country_name": "Brazil",
            "connectivity": true
        }
    ],
    "num_countries": 13,
    "countries": [
        "Benin",
        "Brazil",
        "Colombia",
        "Costa Rica",
        "Honduras",
        "Kazakhstan",
        "Kyrgyzstan",
        "Namibia",
        "Palestine",
        "Philippines",
        "Rwanda",
        "Sierra Leone",
        "Zimbabwe"
    ],
    "schools_no_data": [
        {
            "lon": 10.433775,
            "lat": 5.4896072,
            "school_name": "\u00c9cole publique bilingue de Koptchou Maetur",
            "country_name": "Cameroon",
            "connectivity": false
        },
        {
            "lon": 18.6183,
            "lat": -0.1072,
            "school_name": "INST  BOBALA",
            "country_name": "Democratic Republic of the Congo",
            "connectivity": false
        },
        {
            "lon": 30.47247253,
            "lat": 19.36377338,
            "school_name": "Name unknown",
            "country_name": "Sudan",
            "connectivity": false
        },
        {
            "lon": 30.40942553,
            "lat": 19.63727463,
            "school_name": "Name unknown",
            "country_name": "Sudan",
            "connectivity": false
        },
        {
            "lon": 33.99764118,
            "lat": 17.69683582,
            "school_name": "Name unknown",
            "country_name": "Sudan",
            "connectivity": false
        },
        {
            "lon": 36.15947855,
            "lat": 18.27999487,
            "school_name": "Name unknown",
            "country_name": "Sudan",
            "connectivity": false
        },
        {
            "lon": 32.2506699,
            "lat": 14.27433407,
            "school_name": "Name unknown",
            "country_name": "Sudan",
            "connectivity": false
        },
        {
            "lon": 19.818148,
            "lat": 43.861469,
            "school_name": "\u0421\u0442\u0430\u0440\u0438 \u0413\u0440\u0430\u0434",
            "country_name": "Serbia",
            "connectivity": false
        },
        {
            "lon": 24.24949757,
            "lat": 13.09586837,
            "school_name": "Name unknown",
            "country_name": "Sudan",
            "connectivity": false
        },
        {
            "lon": -0.2628319,
            "lat": 6.0628937,
            "school_name": "Name unknown",
            "country_name": "Ghana",
            "connectivity": false
        },
        {
            "lon": -0.7848323,
            "lat": 10.7748183,
            "school_name": "Name unknown",
            "country_name": "Ghana",
            "connectivity": false
        },
        {
            "lon": -1.4818668,
            "lat": 6.8126229,
            "school_name": "Name unknown",
            "country_name": "Ghana",
            "connectivity": false
        },
        {
            "lon": -1.6843683,
            "lat": 6.1990189,
            "school_name": "Name unknown",
            "country_name": "Ghana",
            "connectivity": false
        },
        {
            "lon": 35.28006,
            "lat": -11.3995,
            "school_name": "MSETO",
            "country_name": "United Republic of Tanzania",
            "connectivity": false
        },
        {
            "lon": 32.88884,
            "lat": -2.61933,
            "school_name": "VICTORIA ENGLISH MEDIUM",
            "country_name": "United Republic of Tanzania",
            "connectivity": false
        },
        {
            "lon": -2.5761437,
            "lat": 7.4636167,
            "school_name": "Name unknown",
            "country_name": "Ghana",
            "connectivity": false
        },
        {
            "lon": 35.70349,
            "lat": -5.52859,
            "school_name": "HUMEKWA",
            "country_name": "United Republic of Tanzania",
            "connectivity": false
        },
        {
            "lon": 34.62352,
            "lat": -1.78348,
            "school_name": "ITUNUNU",
            "country_name": "United Republic of Tanzania",
            "connectivity": false
        },
        {
            "lon": 32.88664,
            "lat": -1.96206,
            "school_name": "BUSANGU",
            "country_name": "United Republic of Tanzania",
            "connectivity": false
        },
        {
            "lon": 34.22171,
            "lat": -4.24094,
            "school_name": "MAPINDUZI",
            "country_name": "United Republic of Tanzania",
            "connectivity": false
        },
        {
            "lon": 36.47791,
            "lat": -6.899,
            "school_name": "MKOLEKO",
            "country_name": "United Republic of Tanzania",
            "connectivity": false
        },
        {
            "lon": 39.77666,
            "lat": -10.74442,
            "school_name": "MIUTA",
            "country_name": "United Republic of Tanzania",
            "connectivity": false
        },
        {
            "lon": 34.75543,
            "lat": -11.19613,
            "school_name": "NGINDO",
            "country_name": "United Republic of Tanzania",
            "connectivity": false
        },
        {
            "lon": 36.7663865,
            "lat": -1.3019198,
            "school_name": "Jamhuri Primary",
            "country_name": "Kenya",
            "connectivity": false
        },
        {
            "lon": 0.478465,
            "lat": 10.364215,
            "school_name": "EPP BENDENOU G/A",
            "country_name": "Togo",
            "connectivity": false
        },
        {
            "lon": 0.207275,
            "lat": 10.86114833,
            "school_name": "EPC DAPAONG G/B",
            "country_name": "Togo",
            "connectivity": false
        },
        {
            "lon": -0.013193333,
            "lat": 10.76389,
            "school_name": "EPP TAMPIALIM G/B",
            "country_name": "Togo",
            "connectivity": false
        },
        {
            "lon": 1.1456845,
            "lat": 6.2045735,
            "school_name": "CPL LES AS",
            "country_name": "Togo",
            "connectivity": false
        },
        {
            "lon": 1.47985,
            "lat": 8.654906,
            "school_name": "CEG GOUBI",
            "country_name": "Togo",
            "connectivity": false
        },
        {
            "lon": 21.30901337,
            "lat": 44.15581554,
            "school_name": "\u0421\u0442\u0435\u0432\u0430\u043d \u0421\u0438\u043d\u0452\u0435\u043b\u0438\u045b",
            "country_name": "Serbia",
            "connectivity": false
        },
        {
            "lon": 32.02354,
            "lat": -8.34251,
            "school_name": "LAELA A",
            "country_name": "United Republic of Tanzania",
            "connectivity": false
        },
        {
            "lon": 33.9796,
            "lat": -2.81455,
            "school_name": "SALUNDA",
            "country_name": "United Republic of Tanzania",
            "connectivity": false
        },
        {
            "lon": 38.91878,
            "lat": -10.25993,
            "school_name": "CHIENJELE",
            "country_name": "United Republic of Tanzania",
            "connectivity": false
        },
        {
            "lon": 34.89464961,
            "lat": -15.04181544,
            "school_name": "Malopa",
            "country_name": "Malawi",
            "connectivity": false
        },
        {
            "lon": -74.1981,
            "lat": -13.1706,
            "school_name": "332",
            "country_name": "Peru",
            "connectivity": false
        },
        {
            "lon": 34.69656066,
            "lat": -15.18528826,
            "school_name": "Mphande Primary School",
            "country_name": "Malawi",
            "connectivity": false
        },
        {
            "lon": 35.14387158,
            "lat": -15.73183657,
            "school_name": "St. Augustine Pvt Secondary",
            "country_name": "Malawi",
            "connectivity": false
        },
        {
            "lon": -78.3013,
            "lat": -6.64637,
            "school_name": "82499",
            "country_name": "Peru",
            "connectivity": false
        },
        {
            "lon": 24.96363353,
            "lat": -8.733272268,
            "school_name": "INST TSHIMWANG MUZANGISH",
            "country_name": "Democratic Republic of the Congo",
            "connectivity": false
        },
        {
            "lon": 20.79381092,
            "lat": -6.420026709,
            "school_name": "INST BULUNDA",
            "country_name": "Democratic Republic of the Congo",
            "connectivity": false
        },
        {
            "lon": 7.035131,
            "lat": 5.665622,
            "school_name": "Name unknown",
            "country_name": "Nigeria",
            "connectivity": false
        },
        {
            "lon": 24.43657453,
            "lat": -4.728622838,
            "school_name": "INST KADIAMBA KAVOUR",
            "country_name": "Democratic Republic of the Congo",
            "connectivity": false
        },
        {
            "lon": 24.44098707,
            "lat": -4.728443775,
            "school_name": "INST KALOMBO",
            "country_name": "Democratic Republic of the Congo",
            "connectivity": false
        },
        {
            "lon": 26.62791944,
            "lat": -2.567452778,
            "school_name": "INST ISP KALIMA",
            "country_name": "Democratic Republic of the Congo",
            "connectivity": false
        },
        {
            "lon": 27.53492817,
            "lat": -4.045212491,
            "school_name": "EP SARAMABILA",
            "country_name": "Democratic Republic of the Congo",
            "connectivity": false
        },
        {
            "lon": 21.38449333,
            "lat": 2.202405,
            "school_name": "EP BANGA MAKAMBO",
            "country_name": "Democratic Republic of the Congo",
            "connectivity": false
        },
        {
            "lon": 22.67914027,
            "lat": 3.63068921,
            "school_name": "EP LIBENDE",
            "country_name": "Democratic Republic of the Congo",
            "connectivity": false
        },
        {
            "lon": 19.16350588,
            "lat": 2.241496763,
            "school_name": "INST ELONGA",
            "country_name": "Democratic Republic of the Congo",
            "connectivity": false
        },
        {
            "lon": 28.19008959,
            "lat": -3.055548462,
            "school_name": "INST SUNGWE",
            "country_name": "Democratic Republic of the Congo",
            "connectivity": false
        },
        {
            "lon": -100.08,
            "lat": 19.485,
            "school_name": "TELEBACHILLERATO COMUNITARIO NUM. 495 POTRERO DE SAN DIEGO VILLA VICTORIA",
            "country_name": "Mexico",
            "connectivity": false
        },
        {
            "lon": -95.20942,
            "lat": 18.44602,
            "school_name": "COLEGIO BILING\u00dcE WILLIAMS HENRY GATES",
            "country_name": "Mexico",
            "connectivity": false
        },
        {
            "lon": -9.99557,
            "lat": 16.20076,
            "school_name": "Hassi lekwer",
            "country_name": "Mauritania",
            "connectivity": false
        },
        {
            "lon": 33.16282,
            "lat": 0.69464,
            "school_name": "MT. ST. JOHN'S COLLEGE  KAGOMA",
            "country_name": "Uganda",
            "connectivity": false
        },
        {
            "lon": 31.27043,
            "lat": -0.33285,
            "school_name": "KIKOBA PRIM SCHOOL",
            "country_name": "Uganda",
            "connectivity": false
        },
        {
            "lon": 32.79242,
            "lat": 0.34888,
            "school_name": "NURSERY SCHOOL",
            "country_name": "Uganda",
            "connectivity": false
        },
        {
            "lon": 30.32851,
            "lat": -0.49725,
            "school_name": "Nyakabirizi P.S",
            "country_name": "Uganda",
            "connectivity": false
        },
        {
            "lon": 34.08603,
            "lat": 2.95724,
            "school_name": "Kadokocin Aber Learning Centre",
            "country_name": "Uganda",
            "connectivity": false
        },
        {
            "lon": 34.20072,
            "lat": 3.00642,
            "school_name": "Masula 11 Aber Learning Centre",
            "country_name": "Uganda",
            "connectivity": false
        },
        {
            "lon": 31.07893,
            "lat": -0.44301,
            "school_name": "Nyakahita 11 P.S.",
            "country_name": "Uganda",
            "connectivity": false
        },
        {
            "lon": 30.51356,
            "lat": 0.6104,
            "school_name": "Mirongo P.S.",
            "country_name": "Uganda",
            "connectivity": false
        },
        {
            "lon": 34.17707,
            "lat": 1.03427,
            "school_name": "Bumageni Army P.S.",
            "country_name": "Uganda",
            "connectivity": false
        },
        {
            "lon": 29.06144,
            "lat": -25.11212,
            "school_name": "Bonginhlanhla Secondary School",
            "country_name": "South Africa",
            "connectivity": false
        },
        {
            "lon": 29.1943,
            "lat": -27.00171,
            "school_name": "Goedgewoon Primary School",
            "country_name": "South Africa",
            "connectivity": false
        },
        {
            "lon": 31.78132,
            "lat": -25.64528,
            "school_name": "Kwa Jelusa Primary School",
            "country_name": "South Africa",
            "connectivity": false
        },
        {
            "lon": 24.72988,
            "lat": -28.69395,
            "school_name": "Shekinah Christian School",
            "country_name": "South Africa",
            "connectivity": false
        },
        {
            "lon": 29.74492,
            "lat": -24.87075,
            "school_name": "Phokoane Primary",
            "country_name": "South Africa",
            "connectivity": false
        },
        {
            "lon": 29.80314,
            "lat": -24.84091,
            "school_name": "Sebjaneng Primary",
            "country_name": "South Africa",
            "connectivity": false
        },
        {
            "lon": 30.18513,
            "lat": -24.50821,
            "school_name": "Thibedi Primary",
            "country_name": "South Africa",
            "connectivity": false
        },
        {
            "lon": 18.62636,
            "lat": -33.88416,
            "school_name": "Willowbridge College",
            "country_name": "South Africa",
            "connectivity": false
        },
        {
            "lon": 27.14717,
            "lat": -29.51229,
            "school_name": "Beisang Mabewana Primary School",
            "country_name": "South Africa",
            "connectivity": false
        },
        {
            "lon": 29.09616,
            "lat": -23.25215,
            "school_name": "Tefu Primary",
            "country_name": "South Africa",
            "connectivity": false
        },
        {
            "lon": 18.70428,
            "lat": -33.97938,
            "school_name": "Dennemere Primary School",
            "country_name": "South Africa",
            "connectivity": false
        },
        {
            "lon": 30.67739,
            "lat": -22.53147,
            "school_name": "Tshipise Primary",
            "country_name": "South Africa",
            "connectivity": false
        },
        {
            "lon": 30.53515,
            "lat": -27.38633,
            "school_name": "Ehloko Primary School",
            "country_name": "South Africa",
            "connectivity": false
        },
        {
            "lon": 30.54918,
            "lat": -22.57438,
            "school_name": "Mukovhabale Primary",
            "country_name": "South Africa",
            "connectivity": false
        },
        {
            "lon": 31.58034,
            "lat": -28.21977,
            "school_name": "Tshendlovu Primary School",
            "country_name": "South Africa",
            "connectivity": false
        },
        {
            "lon": 28.164,
            "lat": -26.21508,
            "school_name": "Vets Child Care",
            "country_name": "South Africa",
            "connectivity": false
        },
        {
            "lon": 27.9942,
            "lat": -26.13817,
            "school_name": "Laerskool Louw Geldenhuys",
            "country_name": "South Africa",
            "connectivity": false
        },
        {
            "lon": 28.08742,
            "lat": -26.12565,
            "school_name": "Eastridge Christian School",
            "country_name": "South Africa",
            "connectivity": false
        },
        {
            "lon": 28.04633,
            "lat": -26.2085,
            "school_name": "Albert Street School",
            "country_name": "South Africa",
            "connectivity": false
        },
        {
            "lon": 28.00768,
            "lat": -26.1758,
            "school_name": "Tinker School Pop Up 27 Boxes 4Th Avenue",
            "country_name": "South Africa",
            "connectivity": false
        },
        {
            "lon": 28.23021,
            "lat": -32.39015,
            "school_name": "Maboboti Secondary School",
            "country_name": "South Africa",
            "connectivity": false
        },
        {
            "lon": 32.67054,
            "lat": 0.44659,
            "school_name": "St. Beatrice Bunava P.S.",
            "country_name": "Uganda",
            "connectivity": false
        },
        {
            "lon": 27.8467,
            "lat": -26.27368,
            "school_name": "Mapetla Secondary School",
            "country_name": "South Africa",
            "connectivity": false
        },
        {
            "lon": 32.69068,
            "lat": 0.5408,
            "school_name": "Namasumbi C.U",
            "country_name": "Uganda",
            "connectivity": false
        },
        {
            "lon": 32.74924,
            "lat": 1.03522,
            "school_name": "Matembe COU P.S.",
            "country_name": "Uganda",
            "connectivity": false
        },
        {
            "lon": 27.06363,
            "lat": -33.09889,
            "school_name": "Mqwashu Primary School",
            "country_name": "South Africa",
            "connectivity": false
        },
        {
            "lon": 27.7531,
            "lat": -31.91922,
            "school_name": "Tsojana Junior Secondary School",
            "country_name": "South Africa",
            "connectivity": false
        },
        {
            "lon": 27.71878,
            "lat": -32.9583,
            "school_name": "Zamani Primary School",
            "country_name": "South Africa",
            "connectivity": false
        },
        {
            "lon": 28.35359,
            "lat": -31.95471,
            "school_name": "Mpozolo Junior Secondary School",
            "country_name": "South Africa",
            "connectivity": false
        },
        {
            "lon": 28.74205,
            "lat": -30.91661,
            "school_name": "Qanqu Junior Secondary School",
            "country_name": "South Africa",
            "connectivity": false
        },
        {
            "lon": 28.69857,
            "lat": -30.51838,
            "school_name": "Tlawu Combined School",
            "country_name": "South Africa",
            "connectivity": false
        },
        {
            "lon": 29.05612,
            "lat": -31.02776,
            "school_name": "Zwelihlangene Primary School",
            "country_name": "South Africa",
            "connectivity": false
        },
        {
            "lon": -57.56789286,
            "lat": -38.02330743,
            "school_name": "ESC SEC. MUNIC. DE EDUC. TEC. NRO 1",
            "country_name": "Argentina",
            "connectivity": false
        },
        {
            "lon": -57.33554844,
            "lat": -35.38932818,
            "school_name": "INSTITUTO SUPERIOR DE FORMACION DOCENTE N\u00ba90",
            "country_name": "Argentina",
            "connectivity": false
        },
        {
            "lon": -58.4299916,
            "lat": -34.80915964,
            "school_name": "JARDIN DE INFANTES BELEN",
            "country_name": "Argentina",
            "connectivity": false
        },
        {
            "lon": -58.44641985,
            "lat": -34.63628611,
            "school_name": "INST MEDALLA MILAGROSA",
            "country_name": "Argentina",
            "connectivity": false
        },
        {
            "lon": -58.39269952,
            "lat": -34.60264778,
            "school_name": "COLEGIO DEL SALVADOR",
            "country_name": "Argentina",
            "connectivity": false
        },
        {
            "lon": -62.25156756,
            "lat": -38.70802901,
            "school_name": "ESCUELA PRIMARIA N\u00ba29 DOMINGO FAUSTINO SARMIENTO",
            "country_name": "Argentina",
            "connectivity": false
        },
        {
            "lon": -58.72357719,
            "lat": -35.02019599,
            "school_name": "ESCUELA PRIMARIA N\u00ba14 JUAN MARTIN DE PUEYRREDON",
            "country_name": "Argentina",
            "connectivity": false
        },
        {
            "lon": -58.49546508,
            "lat": -34.53263358,
            "school_name": "JARDIN DE INFANTES RUDOLF STEINER",
            "country_name": "Argentina",
            "connectivity": false
        },
        {
            "lon": -57.95124201,
            "lat": -34.93436697,
            "school_name": "INSTITUTO MONSE\u00d1OR ALBERTI",
            "country_name": "Argentina",
            "connectivity": false
        },
        {
            "lon": -58.24356001,
            "lat": -34.70535,
            "school_name": "JARDIN MARIA MONTESSORI",
            "country_name": "Argentina",
            "connectivity": false
        },
        {
            "lon": -62.28673431,
            "lat": -38.7176976,
            "school_name": "ESC. SECUNDARIA BASICA N\u00ba49",
            "country_name": "Argentina",
            "connectivity": false
        },
        {
            "lon": -58.83039825,
            "lat": -34.46562389,
            "school_name": "INSTITUTO EDUCATIVO DAILAN",
            "country_name": "Argentina",
            "connectivity": false
        },
        {
            "lon": -65.77418046,
            "lat": -28.4685139,
            "school_name": "COLEGIO PRIVADO SRA.DEL VALLE",
            "country_name": "Argentina",
            "connectivity": false
        },
        {
            "lon": -65.70883432,
            "lat": -28.42538621,
            "school_name": "ESCUELA N\u00b0 264 PROVINCIA DE BUENOS AIRES",
            "country_name": "Argentina",
            "connectivity": false
        },
        {
            "lon": -65.80346412,
            "lat": -28.46575272,
            "school_name": "ESCUELA N\u00b0 198",
            "country_name": "Argentina",
            "connectivity": false
        },
        {
            "lon": -61.17818046,
            "lat": -25.31201469,
            "school_name": "E.E.P. N\u00ba 668-GRAL.BARTOLOME MITRE",
            "country_name": "Argentina",
            "connectivity": false
        },
        {
            "lon": -59.0024782,
            "lat": -27.47304145,
            "school_name": "PRIM.ADULTOS N\u00ba 37-ESCULTOR CHAQUE\u00d1O FABRICIANO GOMEZ",
            "country_name": "Argentina",
            "connectivity": false
        },
        {
            "lon": -64.2488844,
            "lat": -31.44858257,
            "school_name": "ESCUELA ALAS ARGENTINAS",
            "country_name": "Argentina",
            "connectivity": false
        },
        {
            "lon": -62.09168,
            "lat": -33.12777,
            "school_name": "J.DE INF. JUAN BAUTISTA ALBERDI",
            "country_name": "Argentina",
            "connectivity": false
        },
        {
            "lon": -65.8972526,
            "lat": -22.74600559,
            "school_name": "COLEGIO SECUNDARIO N 22",
            "country_name": "Argentina",
            "connectivity": false
        },
        {
            "lon": -66.96263382,
            "lat": -28.93549938,
            "school_name": "ESCUELA PROVINCIAL AGROPECUARIA DE NIVEL MEDIO",
            "country_name": "Argentina",
            "connectivity": false
        },
        {
            "lon": -62.99918673,
            "lat": -40.81898122,
            "school_name": "CENTRO DE EDUCACION BASICA PARA ADULTOS NRO. 6",
            "country_name": "Argentina",
            "connectivity": false
        },
        {
            "lon": -60.6325896,
            "lat": -32.98396464,
            "school_name": "ESCUELA NRO 114 JUSTO GERMAN DEHEZA",
            "country_name": "Argentina",
            "connectivity": false
        },
        {
            "lon": -61.4931194,
            "lat": -32.1975681,
            "school_name": "ESCUELA NRO 6026 EL CHACO",
            "country_name": "Argentina",
            "connectivity": false
        },
        {
            "lon": -60.0849997,
            "lat": -29.8277667,
            "school_name": "ESCUELA NRO 1167 SARGENTO CABRAL",
            "country_name": "Argentina",
            "connectivity": false
        },
        {
            "lon": -64.47277415,
            "lat": -26.24477539,
            "school_name": "ESCUELA N\u00ba769 J/426",
            "country_name": "Argentina",
            "connectivity": false
        },
        {
            "lon": -63.53762804,
            "lat": -27.16029781,
            "school_name": "ESCUELA N\u00b0 1195",
            "country_name": "Argentina",
            "connectivity": false
        },
        {
            "lon": -64.23338522,
            "lat": -27.84490493,
            "school_name": "ESCUELA N\u00ba719 BLAS PARERA",
            "country_name": "Argentina",
            "connectivity": false
        },
        {
            "lon": -65.2333398,
            "lat": -26.75630886,
            "school_name": "C.E.B.A. N\u00b0 1-37",
            "country_name": "Argentina",
            "connectivity": false
        },
        {
            "lon": 6.248249,
            "lat": 5.802627,
            "school_name": "Name unknown",
            "country_name": "Nigeria",
            "connectivity": false
        },
        {
            "lon": 7.475493333,
            "lat": 5.264995,
            "school_name": "Name unknown",
            "country_name": "Nigeria",
            "connectivity": false
        },
        {
            "lon": 7.412741667,
            "lat": 5.836846667,
            "school_name": "Name unknown",
            "country_name": "Nigeria",
            "connectivity": false
        },
        {
            "lon": 12.00864673,
            "lat": 10.72249466,
            "school_name": "Name unknown",
            "country_name": "Nigeria",
            "connectivity": false
        },
        {
            "lon": 7.89469,
            "lat": 6.05788,
            "school_name": "Name unknown",
            "country_name": "Nigeria",
            "connectivity": false
        },
        {
            "lon": 12.05055356,
            "lat": 10.23088396,
            "school_name": "Name unknown",
            "country_name": "Nigeria",
            "connectivity": false
        },
        {
            "lon": 5.236963333,
            "lat": 7.830366667,
            "school_name": "Name unknown",
            "country_name": "Nigeria",
            "connectivity": false
        },
        {
            "lon": 7.5082,
            "lat": 6.065337,
            "school_name": "Name unknown",
            "country_name": "Nigeria",
            "connectivity": false
        },
        {
            "lon": 7.481256667,
            "lat": 6.476433333,
            "school_name": "Name unknown",
            "country_name": "Nigeria",
            "connectivity": false
        },
        {
            "lon": 7.4925717,
            "lat": 6.4215067,
            "school_name": "Name unknown",
            "country_name": "Nigeria",
            "connectivity": false
        },
        {
            "lon": 7.33532,
            "lat": 6.693606,
            "school_name": "Name unknown",
            "country_name": "Nigeria",
            "connectivity": false
        },
        {
            "lon": 7.380153,
            "lat": 6.311715,
            "school_name": "Name unknown",
            "country_name": "Nigeria",
            "connectivity": false
        },
        {
            "lon": 6.936037,
            "lat": 8.483838,
            "school_name": "Name unknown",
            "country_name": "Nigeria",
            "connectivity": false
        },
        {
            "lon": 7.580045,
            "lat": 8.96385,
            "school_name": "Name unknown",
            "country_name": "Nigeria",
            "connectivity": false
        },
        {
            "lon": 7.448004,
            "lat": 9.019606,
            "school_name": "Name unknown",
            "country_name": "Nigeria",
            "connectivity": false
        },
        {
            "lon": 11.47353,
            "lat": 9.62552,
            "school_name": "Name unknown",
            "country_name": "Nigeria",
            "connectivity": false
        },
        {
            "lon": 7.286331,
            "lat": 5.484172,
            "school_name": "Name unknown",
            "country_name": "Nigeria",
            "connectivity": false
        },
        {
            "lon": 7.186416667,
            "lat": 5.578931667,
            "school_name": "Name unknown",
            "country_name": "Nigeria",
            "connectivity": false
        },
        {
            "lon": 7.019958333,
            "lat": 5.663128333,
            "school_name": "Name unknown",
            "country_name": "Nigeria",
            "connectivity": false
        },
        {
            "lon": -77.0128,
            "lat": -11.911,
            "school_name": "02 JOSE GALVITO",
            "country_name": "Peru",
            "connectivity": false
        },
        {
            "lon": -76.672,
            "lat": -7.27289,
            "school_name": "273",
            "country_name": "Peru",
            "connectivity": false
        },
        {
            "lon": -76.2079,
            "lat": -6.692,
            "school_name": "603",
            "country_name": "Peru",
            "connectivity": false
        },
        {
            "lon": 3.731984514,
            "lat": 6.666950068,
            "school_name": "Name unknown",
            "country_name": "Nigeria",
            "connectivity": false
        },
        {
            "lon": -70.3244,
            "lat": -15.1014,
            "school_name": "1380",
            "country_name": "Peru",
            "connectivity": false
        },
        {
            "lon": -80.446,
            "lat": -4.7162,
            "school_name": "1486",
            "country_name": "Peru",
            "connectivity": false
        },
        {
            "lon": -78.0001,
            "lat": -6.9658,
            "school_name": "18027",
            "country_name": "Peru",
            "connectivity": false
        },
        {
            "lon": -78.0292,
            "lat": -6.63038,
            "school_name": "18325",
            "country_name": "Peru",
            "connectivity": false
        },
        {
            "lon": -76.2229,
            "lat": -10.0419,
            "school_name": "199",
            "country_name": "Peru",
            "connectivity": false
        },
        {
            "lon": -77.0241,
            "lat": -11.922,
            "school_name": "2075 CRISTO HIJO DE DIOS",
            "country_name": "Peru",
            "connectivity": false
        },
        {
            "lon": -77.3884,
            "lat": -8.92359,
            "school_name": "210 VIRGEN NI\u00d1A",
            "country_name": "Peru",
            "connectivity": false
        },
        {
            "lon": -75.6844,
            "lat": -14.0676,
            "school_name": "22485",
            "country_name": "Peru",
            "connectivity": false
        },
        {
            "lon": -73.3985,
            "lat": -14.9074,
            "school_name": "24243 PORTAL DEL VALLE HUANCA HUANCA",
            "country_name": "Peru",
            "connectivity": false
        },
        {
            "lon": -74.4106,
            "lat": -12.5824,
            "school_name": "30994 FRAY MARTIN DE PORRES",
            "country_name": "Peru",
            "connectivity": false
        },
        {
            "lon": -70.0293,
            "lat": -15.8358,
            "school_name": "70023",
            "country_name": "Peru",
            "connectivity": false
        },
        {
            "lon": -69.191,
            "lat": -12.6015,
            "school_name": "318 MI PEQUE\u00d1O MUNDO",
            "country_name": "Peru",
            "connectivity": false
        },
        {
            "lon": -75.9934,
            "lat": -9.249,
            "school_name": "32508 VICTOR REYES ROCA",
            "country_name": "Peru",
            "connectivity": false
        },
        {
            "lon": -78.6154,
            "lat": -6.55001,
            "school_name": "327",
            "country_name": "Peru",
            "connectivity": false
        },
        {
            "lon": -76.3229,
            "lat": -10.5587,
            "school_name": "34625 SANTA ISABEL",
            "country_name": "Peru",
            "connectivity": false
        },
        {
            "lon": -79.8195,
            "lat": -6.7628,
            "school_name": "371 LAS SEMILLITAS DEL SABER",
            "country_name": "Peru",
            "connectivity": false
        },
        {
            "lon": -69.9368,
            "lat": -17.7673,
            "school_name": "422",
            "country_name": "Peru",
            "connectivity": false
        },
        {
            "lon": -70.2426,
            "lat": -18.008,
            "school_name": "43001 HERMANOS BARRETO",
            "country_name": "Peru",
            "connectivity": false
        },
        {
            "lon": -71.4154,
            "lat": -14.8626,
            "school_name": "478",
            "country_name": "Peru",
            "connectivity": false
        },
        {
            "lon": 3.50899,
            "lat": 6.56379,
            "school_name": "Name unknown",
            "country_name": "Nigeria",
            "connectivity": false
        },
        {
            "lon": -73.9485,
            "lat": -9.88484,
            "school_name": "588-B",
            "country_name": "Peru",
            "connectivity": false
        },
        {
            "lon": -75.3037,
            "lat": -11.8422,
            "school_name": "596",
            "country_name": "Peru",
            "connectivity": false
        },
        {
            "lon": -73.3098,
            "lat": -2.94831,
            "school_name": "601414",
            "country_name": "Peru",
            "connectivity": false
        },
        {
            "lon": -74.9163,
            "lat": -7.89859,
            "school_name": "61164 PS",
            "country_name": "Peru",
            "connectivity": false
        },
        {
            "lon": -77.3617,
            "lat": -3.71733,
            "school_name": "62738",
            "country_name": "Peru",
            "connectivity": false
        },
        {
            "lon": -73.7241,
            "lat": -10.7387,
            "school_name": "64122 SAN JUAN BAUTISTA DE MALDONADILLO",
            "country_name": "Peru",
            "connectivity": false
        },
        {
            "lon": -73.2172,
            "lat": -12.6406,
            "school_name": "64444",
            "country_name": "Peru",
            "connectivity": false
        },
        {
            "lon": -73.0499,
            "lat": -11.1575,
            "school_name": "65284 - B",
            "country_name": "Peru",
            "connectivity": false
        },
        {
            "lon": -77.1821,
            "lat": -9.01975,
            "school_name": "676",
            "country_name": "Peru",
            "connectivity": false
        },
        {
            "lon": -77.0213,
            "lat": -12.1509,
            "school_name": "7043 CORAZON DE JESUS",
            "country_name": "Peru",
            "connectivity": false
        },
        {
            "lon": -70.1971,
            "lat": -14.9053,
            "school_name": "72001",
            "country_name": "Peru",
            "connectivity": false
        },
        {
            "lon": -69.3526,
            "lat": -15.4969,
            "school_name": "72413",
            "country_name": "Peru",
            "connectivity": false
        },
        {
            "lon": -79.008,
            "lat": -7.39592,
            "school_name": "82618",
            "country_name": "Peru",
            "connectivity": false
        },
        {
            "lon": -78.8796,
            "lat": -7.02247,
            "school_name": "82779",
            "country_name": "Peru",
            "connectivity": false
        },
        {
            "lon": -77.5663,
            "lat": -8.5364,
            "school_name": "84180 GASTON VIDAL PORTURAS",
            "country_name": "Peru",
            "connectivity": false
        },
        {
            "lon": -77.8334,
            "lat": -9.11993,
            "school_name": "86535 SANTA ROSA DE COIROCSHO",
            "country_name": "Peru",
            "connectivity": false
        },
        {
            "lon": -77.4834,
            "lat": -10.2569,
            "school_name": "86713 JOSE MARIA ARGUEDAS",
            "country_name": "Peru",
            "connectivity": false
        },
        {
            "lon": -78.4968,
            "lat": -7.17211,
            "school_name": "876",
            "country_name": "Peru",
            "connectivity": false
        },
        {
            "lon": -74.5385,
            "lat": -12.153,
            "school_name": "914",
            "country_name": "Peru",
            "connectivity": false
        },
        {
            "lon": -81.2718,
            "lat": -4.57969,
            "school_name": "ALEJANDRO DUMAS TABOADA CRISANTO",
            "country_name": "Peru",
            "connectivity": false
        },
        {
            "lon": -78.5196,
            "lat": -7.14689,
            "school_name": "ALTAIR",
            "country_name": "Peru",
            "connectivity": false
        },
        {
            "lon": -78.8871,
            "lat": -6.47325,
            "school_name": "ANAXIMANDRO VEGA MATEOLA",
            "country_name": "Peru",
            "connectivity": false
        },
        {
            "lon": -73.7992,
            "lat": -14.9853,
            "school_name": "ANDRES AVELINO CACERES M/MX DE AYCARA",
            "country_name": "Peru",
            "connectivity": false
        },
        {
            "lon": -73.8009,
            "lat": -13.5256,
            "school_name": "CALLEBAMBA",
            "country_name": "Peru",
            "connectivity": false
        },
        {
            "lon": -69.7459,
            "lat": -16.3511,
            "school_name": "CANGALLI",
            "country_name": "Peru",
            "connectivity": false
        },
        {
            "lon": -79.7127,
            "lat": -4.63666,
            "school_name": "CEBA - LIZARDO MONTERO",
            "country_name": "Peru",
            "connectivity": false
        },
        {
            "lon": -70.2456,
            "lat": -18.0033,
            "school_name": "CEBA - SAN CARLOS",
            "country_name": "Peru",
            "connectivity": false
        },
        {
            "lon": -75.9913,
            "lat": -9.8992,
            "school_name": "CEBA - TUPAC AMARU",
            "country_name": "Peru",
            "connectivity": false
        },
        {
            "lon": -74.9354,
            "lat": -12.8063,
            "school_name": "CESAR VALLEJO MENDOZA",
            "country_name": "Peru",
            "connectivity": false
        },
        {
            "lon": -79.8794,
            "lat": -6.76144,
            "school_name": "CHISPITA DEL SABER",
            "country_name": "Peru",
            "connectivity": false
        },
        {
            "lon": 3.32635,
            "lat": 6.49341,
            "school_name": "Name unknown",
            "country_name": "Nigeria",
            "connectivity": false
        },
        {
            "lon": -71.2249,
            "lat": -14.2569,
            "school_name": "PITAGORAS DE SICUANI",
            "country_name": "Peru",
            "connectivity": false
        },
        {
            "lon": -74.8758,
            "lat": -10.9286,
            "school_name": "EMANUEL",
            "country_name": "Peru",
            "connectivity": false
        },
        {
            "lon": -76.1121,
            "lat": -6.90921,
            "school_name": "ESTRELLITAS LUMINOSAS",
            "country_name": "Peru",
            "connectivity": false
        },
        {
            "lon": 15.31706763,
            "lat": -4.378229652,
            "school_name": "CS MAPANGILA 2",
            "country_name": "Democratic Republic of the Congo",
            "connectivity": false
        },
        {
            "lon": -70.1285,
            "lat": -15.5044,
            "school_name": "FLORIDA SCHOOL",
            "country_name": "Peru",
            "connectivity": false
        },
        {
            "lon": -71.602,
            "lat": -15.6367,
            "school_name": "HATARISUNCHIS - EL PRINCIPITO",
            "country_name": "Peru",
            "connectivity": false
        },
        {
            "lon": -76.6626,
            "lat": -9.79284,
            "school_name": "INCA PACHACUTEC",
            "country_name": "Peru",
            "connectivity": false
        },
        {
            "lon": -76.889,
            "lat": -12.0203,
            "school_name": "JESUS GUIA",
            "country_name": "Peru",
            "connectivity": false
        },
        {
            "lon": 9.4040127,
            "lat": 12.6276464,
            "school_name": "Name unknown",
            "country_name": "Nigeria",
            "connectivity": false
        },
        {
            "lon": -77.0979,
            "lat": -12.012,
            "school_name": "JUAN INGUNZA VALDIVIA",
            "country_name": "Peru",
            "connectivity": false
        },
        {
            "lon": -77.0269,
            "lat": -12.0634,
            "school_name": "SAN IDELFONSO",
            "country_name": "Peru",
            "connectivity": false
        },
        {
            "lon": -80.6298,
            "lat": -5.18623,
            "school_name": "LAS PRADERAS DEL NORTE",
            "country_name": "Peru",
            "connectivity": false
        },
        {
            "lon": -76.1121,
            "lat": -9.80588,
            "school_name": "LOS NI\u00d1OS DE HUANUCHCA",
            "country_name": "Peru",
            "connectivity": false
        },
        {
            "lon": -76.869,
            "lat": -12.2729,
            "school_name": "LURIN",
            "country_name": "Peru",
            "connectivity": false
        },
        {
            "lon": -79.0121,
            "lat": -8.07489,
            "school_name": "MARIA DEL CARMEN",
            "country_name": "Peru",
            "connectivity": false
        },
        {
            "lon": -74.4822,
            "lat": -13.2635,
            "school_name": "PABLO VALERIANO MESAHUAMAN",
            "country_name": "Peru",
            "connectivity": false
        },
        {
            "lon": -74.7742,
            "lat": -5.96603,
            "school_name": "RICARDO PALMA",
            "country_name": "Peru",
            "connectivity": false
        },
        {
            "lon": -76.3633,
            "lat": -6.49101,
            "school_name": "SAGRADO CORAZON DE JESUS",
            "country_name": "Peru",
            "connectivity": false
        },
        {
            "lon": -77.0517,
            "lat": -12.0202,
            "school_name": "SAN AGUSTIN DE INGENIERIA",
            "country_name": "Peru",
            "connectivity": false
        },
        {
            "lon": -69.8627,
            "lat": -14.9003,
            "school_name": "SAN ANTONIO",
            "country_name": "Peru",
            "connectivity": false
        },
        {
            "lon": -75.0091,
            "lat": -7.35163,
            "school_name": "SAN FRANCISCO",
            "country_name": "Peru",
            "connectivity": false
        },
        {
            "lon": -74.917,
            "lat": -12.3125,
            "school_name": "SAN MIGUEL",
            "country_name": "Peru",
            "connectivity": false
        },
        {
            "lon": -77.0576,
            "lat": -12.0115,
            "school_name": "SAN PEDRO",
            "country_name": "Peru",
            "connectivity": false
        },
        {
            "lon": -77.6063,
            "lat": -11.1063,
            "school_name": "SANTO DOMINGO DE GUZMAN",
            "country_name": "Peru",
            "connectivity": false
        },
        {
            "lon": -76.1308,
            "lat": -13.4126,
            "school_name": "TALENTOS",
            "country_name": "Peru",
            "connectivity": false
        },
        {
            "lon": -77.0996,
            "lat": -11.9932,
            "school_name": "TECHNOLOGY SCHOOLS DE SAN MARTIN DE PORRES",
            "country_name": "Peru",
            "connectivity": false
        },
        {
            "lon": -78.0414,
            "lat": -7.81371,
            "school_name": "VIRGEN DE ALTA GRACIA",
            "country_name": "Peru",
            "connectivity": false
        },
        {
            "lon": 9.2017393,
            "lat": 12.0902061,
            "school_name": "Name unknown",
            "country_name": "Nigeria",
            "connectivity": false
        },
        {
            "lon": 7.13925909,
            "lat": 10.92881148,
            "school_name": "Name unknown",
            "country_name": "Nigeria",
            "connectivity": false
        },
        {
            "lon": 7.33825104,
            "lat": 9.54776441,
            "school_name": "Name unknown",
            "country_name": "Nigeria",
            "connectivity": false
        },
        {
            "lon": 8.991419,
            "lat": 11.35706,
            "school_name": "Name unknown",
            "country_name": "Nigeria",
            "connectivity": false
        },
        {
            "lon": 8.778621,
            "lat": 11.95783,
            "school_name": "Name unknown",
            "country_name": "Nigeria",
            "connectivity": false
        },
        {
            "lon": 8.688761,
            "lat": 10.64376,
            "school_name": "Name unknown",
            "country_name": "Nigeria",
            "connectivity": false
        },
        {
            "lon": 7.767047,
            "lat": 11.44649,
            "school_name": "Name unknown",
            "country_name": "Nigeria",
            "connectivity": false
        },
        {
            "lon": 8.551679,
            "lat": 12.03188,
            "school_name": "Name unknown",
            "country_name": "Nigeria",
            "connectivity": false
        },
        {
            "lon": 8.549337,
            "lat": 12.03891,
            "school_name": "Name unknown",
            "country_name": "Nigeria",
            "connectivity": false
        },
        {
            "lon": 13.613531,
            "lat": 10.866329,
            "school_name": "Name unknown",
            "country_name": "Nigeria",
            "connectivity": false
        },
        {
            "lon": 13.422931,
            "lat": 10.61734,
            "school_name": "Name unknown",
            "country_name": "Nigeria",
            "connectivity": false
        },
        {
            "lon": 13.298206,
            "lat": 10.268981,
            "school_name": "Name unknown",
            "country_name": "Nigeria",
            "connectivity": false
        },
        {
            "lon": 6.731922,
            "lat": 7.737447,
            "school_name": "Name unknown",
            "country_name": "Nigeria",
            "connectivity": false
        },
        {
            "lon": 6.838677,
            "lat": 8.377356,
            "school_name": "Name unknown",
            "country_name": "Nigeria",
            "connectivity": false
        },
        {
            "lon": 4.572194,
            "lat": 8.48618,
            "school_name": "Name unknown",
            "country_name": "Nigeria",
            "connectivity": false
        },
        {
            "lon": 4.826145,
            "lat": 9.090272,
            "school_name": "Name unknown",
            "country_name": "Nigeria",
            "connectivity": false
        },
        {
            "lon": 4.732032,
            "lat": 8.174822,
            "school_name": "Name unknown",
            "country_name": "Nigeria",
            "connectivity": false
        },
        {
            "lon": 3.316937095,
            "lat": 6.611962121,
            "school_name": "Name unknown",
            "country_name": "Nigeria",
            "connectivity": false
        },
        {
            "lon": 3.24118,
            "lat": 6.52878,
            "school_name": "Name unknown",
            "country_name": "Nigeria",
            "connectivity": false
        },
        {
            "lon": 3.2928,
            "lat": 6.47307,
            "school_name": "Name unknown",
            "country_name": "Nigeria",
            "connectivity": false
        },
        {
            "lon": 3.227766938,
            "lat": 6.455508954,
            "school_name": "Name unknown",
            "country_name": "Nigeria",
            "connectivity": false
        },
        {
            "lon": 3.324706249,
            "lat": 6.549022985,
            "school_name": "Name unknown",
            "country_name": "Nigeria",
            "connectivity": false
        },
        {
            "lon": 3.377154032,
            "lat": 6.499156459,
            "school_name": "Name unknown",
            "country_name": "Nigeria",
            "connectivity": false
        },
        {
            "lon": 7.844306,
            "lat": 9.268412,
            "school_name": "Name unknown",
            "country_name": "Nigeria",
            "connectivity": false
        },
        {
            "lon": 6.992573333,
            "lat": 9.271448333,
            "school_name": "Name unknown",
            "country_name": "Nigeria",
            "connectivity": false
        },
        {
            "lon": 4.63064326,
            "lat": 9.84821961,
            "school_name": "Name unknown",
            "country_name": "Nigeria",
            "connectivity": false
        },
        {
            "lon": 7.204842567,
            "lat": 9.130448699,
            "school_name": "Name unknown",
            "country_name": "Nigeria",
            "connectivity": false
        },
        {
            "lon": 7.283345461,
            "lat": 9.327392578,
            "school_name": "Name unknown",
            "country_name": "Nigeria",
            "connectivity": false
        },
        {
            "lon": 3.350291976,
            "lat": 7.184537829,
            "school_name": "Name unknown",
            "country_name": "Nigeria",
            "connectivity": false
        },
        {
            "lon": 3.31328968,
            "lat": 7.15521121,
            "school_name": "Name unknown",
            "country_name": "Nigeria",
            "connectivity": false
        },
        {
            "lon": 3.360746667,
            "lat": 7.147835,
            "school_name": "Name unknown",
            "country_name": "Nigeria",
            "connectivity": false
        },
        {
            "lon": 2.834665929,
            "lat": 6.480390847,
            "school_name": "Name unknown",
            "country_name": "Nigeria",
            "connectivity": false
        },
        {
            "lon": 3.716404344,
            "lat": 6.937440454,
            "school_name": "Name unknown",
            "country_name": "Nigeria",
            "connectivity": false
        },
        {
            "lon": 5.909869357,
            "lat": 7.683059548,
            "school_name": "Name unknown",
            "country_name": "Nigeria",
            "connectivity": false
        },
        {
            "lon": 5.041561,
            "lat": 6.70261,
            "school_name": "Name unknown",
            "country_name": "Nigeria",
            "connectivity": false
        },
        {
            "lon": 4.485706,
            "lat": 7.868672,
            "school_name": "Name unknown",
            "country_name": "Nigeria",
            "connectivity": false
        },
        {
            "lon": 7.892544,
            "lat": 4.617978,
            "school_name": "Name unknown",
            "country_name": "Nigeria",
            "connectivity": false
        },
        {
            "lon": 7.998087,
            "lat": 4.656025,
            "school_name": "Name unknown",
            "country_name": "Nigeria",
            "connectivity": false
        },
        {
            "lon": 7.834712,
            "lat": 5.102169,
            "school_name": "Name unknown",
            "country_name": "Nigeria",
            "connectivity": false
        },
        {
            "lon": 7.752255,
            "lat": 5.209606,
            "school_name": "Name unknown",
            "country_name": "Nigeria",
            "connectivity": false
        },
        {
            "lon": 3.864155,
            "lat": 7.522723,
            "school_name": "Name unknown",
            "country_name": "Nigeria",
            "connectivity": false
        },
        {
            "lon": 3.887846,
            "lat": 7.397049,
            "school_name": "Name unknown",
            "country_name": "Nigeria",
            "connectivity": false
        },
        {
            "lon": 3.837244,
            "lat": 7.400986,
            "school_name": "Name unknown",
            "country_name": "Nigeria",
            "connectivity": false
        },
        {
            "lon": 9.049593,
            "lat": 9.282592,
            "school_name": "Name unknown",
            "country_name": "Nigeria",
            "connectivity": false
        },
        {
            "lon": 10.084922,
            "lat": 9.371032,
            "school_name": "Name unknown",
            "country_name": "Nigeria",
            "connectivity": false
        },
        {
            "lon": 9.12826,
            "lat": 8.55134,
            "school_name": "Name unknown",
            "country_name": "Nigeria",
            "connectivity": false
        },
        {
            "lon": 10.08931814,
            "lat": 8.602874861,
            "school_name": "Name unknown",
            "country_name": "Nigeria",
            "connectivity": false
        },
        {
            "lon": 11.679347,
            "lat": 9.239974,
            "school_name": "Name unknown",
            "country_name": "Nigeria",
            "connectivity": false
        },
        {
            "lon": 11.14361667,
            "lat": 6.567676667,
            "school_name": "Name unknown",
            "country_name": "Nigeria",
            "connectivity": false
        },
        {
            "lon": 9.83105,
            "lat": 7.082792,
            "school_name": "Name unknown",
            "country_name": "Nigeria",
            "connectivity": false
        },
        {
            "lon": 7.109469,
            "lat": 5.974712,
            "school_name": "Name unknown",
            "country_name": "Nigeria",
            "connectivity": false
        },
        {
            "lon": 7.52625824,
            "lat": 11.55897354,
            "school_name": "Name unknown",
            "country_name": "Nigeria",
            "connectivity": false
        },
        {
            "lon": 6.87779,
            "lat": 6.02048,
            "school_name": "Name unknown",
            "country_name": "Nigeria",
            "connectivity": false
        },
        {
            "lon": 8.83753145,
            "lat": 12.84049929,
            "school_name": "Name unknown",
            "country_name": "Nigeria",
            "connectivity": false
        },
        {
            "lon": 7.8562,
            "lat": 12.7015,
            "school_name": "Name unknown",
            "country_name": "Nigeria",
            "connectivity": false
        },
        {
            "lon": 7.51006175,
            "lat": 11.36190362,
            "school_name": "Name unknown",
            "country_name": "Nigeria",
            "connectivity": false
        },
        {
            "lon": 7.4510154,
            "lat": 12.53068171,
            "school_name": "Name unknown",
            "country_name": "Nigeria",
            "connectivity": false
        },
        {
            "lon": 7.69013538,
            "lat": 11.9632924,
            "school_name": "Name unknown",
            "country_name": "Nigeria",
            "connectivity": false
        },
        {
            "lon": 10.58709329,
            "lat": 11.84303385,
            "school_name": "Name unknown",
            "country_name": "Nigeria",
            "connectivity": false
        },
        {
            "lon": 10.44754,
            "lat": 11.7833,
            "school_name": "Name unknown",
            "country_name": "Nigeria",
            "connectivity": false
        },
        {
            "lon": 4.18763662,
            "lat": 12.46842645,
            "school_name": "Name unknown",
            "country_name": "Nigeria",
            "connectivity": false
        },
        {
            "lon": 4.71270785,
            "lat": 10.6308119,
            "school_name": "Name unknown",
            "country_name": "Nigeria",
            "connectivity": false
        },
        {
            "lon": 6.29429,
            "lat": 4.92344,
            "school_name": "Name unknown",
            "country_name": "Nigeria",
            "connectivity": false
        },
        {
            "lon": 6.437375,
            "lat": 5.06691,
            "school_name": "Name unknown",
            "country_name": "Nigeria",
            "connectivity": false
        },
        {
            "lon": 9.088901,
            "lat": 7.433318,
            "school_name": "Name unknown",
            "country_name": "Nigeria",
            "connectivity": false
        },
        {
            "lon": 9.36069,
            "lat": 6.95534,
            "school_name": "Name unknown",
            "country_name": "Nigeria",
            "connectivity": false
        },
        {
            "lon": 7.934732,
            "lat": 7.108121,
            "school_name": "Name unknown",
            "country_name": "Nigeria",
            "connectivity": false
        },
        {
            "lon": 10.45870584,
            "lat": 12.87394272,
            "school_name": "Name unknown",
            "country_name": "Nigeria",
            "connectivity": false
        },
        {
            "lon": 6.99928,
            "lat": 12.49997,
            "school_name": "Name unknown",
            "country_name": "Nigeria",
            "connectivity": false
        },
        {
            "lon": 6.68090521,
            "lat": 12.17085397,
            "school_name": "Name unknown",
            "country_name": "Nigeria",
            "connectivity": false
        },
        {
            "lon": 6.53678797,
            "lat": 12.51767118,
            "school_name": "Name unknown",
            "country_name": "Nigeria",
            "connectivity": false
        },
        {
            "lon": 6.697143131,
            "lat": 12.65606467,
            "school_name": "Name unknown",
            "country_name": "Nigeria",
            "connectivity": false
        },
        {
            "lon": 9.039543333,
            "lat": 6.48582,
            "school_name": "Name unknown",
            "country_name": "Nigeria",
            "connectivity": false
        },
        {
            "lon": 8.213915,
            "lat": 5.917881667,
            "school_name": "Name unknown",
            "country_name": "Nigeria",
            "connectivity": false
        },
        {
            "lon": -10.75394,
            "lat": 6.328307,
            "school_name": "Alan Ndebe Kolison School",
            "country_name": "Liberia",
            "connectivity": false
        },
        {
            "lon": -72.8132,
            "lat": -13.5116,
            "school_name": "30 DIVINO NI\u00d1O JESUS",
            "country_name": "Peru",
            "connectivity": false
        },