{
    "name": "Patchwork Kingdom #140 | Petlulla",
    "description": "The twin kingdoms of Petlulla, separated by a digital divide. A bustling kingdom of 200 schools on top that are all connected to the internet, and 146 schools, not connected, hidden in the upside down kingdom | Created for Giga (GigaConnect.org) \u2014 connecting every school in the world \u2014 in celebration of UNICEF's 75th birthday, by Nadieh Bremer",
    "external_url": "https://dummyURL.com/patchwork_kingdoms_140",
    "image": "https://dummy-storage-url.com/patchwork_kingdoms_140.png",
    "attributes": [
        {
            "trait_type": "Color palette",
            "value": "chaos"
        },
        {
            "display_type": "number",
            "trait_type": "Schools",
            "value": 378,
            "max_value": 460
        },
        {
            "display_type": "number",
            "trait_type": "Ratio - Connected",
            "value": 0.53,
            "max_value": 1
        },
        {
            "display_type": "number",
            "trait_type": "Ratio - Unconnected",
            "value": 0.39,
            "max_value": 1
        },
        {
            "display_type": "number",
            "trait_type": "Ratio - Data unavailable",
            "value": 0.08,
            "max_value": 1
        },
        {
            "trait_type": "Countries",
            "value": "BJ-BR-CO-CR-HN-KG-KZ-NA-PH-PS-RW-SL-ZW"
        },
        {
            "display_type": "number",
            "trait_type": "Symbols",
            "value": 46,
            "max_value": 51
        }
    ],
    "cluster_id": 140,
    "num_schools": 378,
    "num_schools_connected": 200,
    "num_schools_unconnected": 146,
    "num_schools_unknown": 32,
    "schools": [
        {
            "lon": -88.65752,
            "lat": 14.26363,
            "school_name": "NAPOLEON ALCERRO OLIVA",
            "country_name": "Honduras",
            "connectivity": true
        },
        {
            "lon": -51.0331,
            "lat": -29.9157,
            "school_name": "EMEF PARQUE DOS EUCALIPTOS",
            "country_name": "Brazil",
            "connectivity": true
        },
        {
            "lon": -86.76651,
            "lat": 15.43837,
            "school_name": "SUSANA DIAZ",
            "country_name": "Honduras",
            "connectivity": true
        },
        {
            "lon": -85.82431,
            "lat": 15.85006,
            "school_name": "LUZ Y ESPERANZA",
            "country_name": "Honduras",
            "connectivity": true
        },
        {
            "lon": -86.05402,
            "lat": 15.83975,
            "school_name": "INES MARTINES DE LOPEZ",
            "country_name": "Honduras",
            "connectivity": true
        },
        {
            "lon": -46.9003,
            "lat": -21.5946,
            "school_name": "STELLA COUVERT RIBEIRO PROFESSORA",
            "country_name": "Brazil",
            "connectivity": true
        },
        {
            "lon": -48.383,
            "lat": -22.3693,
            "school_name": "JOSE ALVES MIRA",
            "country_name": "Brazil",
            "connectivity": true
        },
        {
            "lon": -87.34072,
            "lat": 14.71509,
            "school_name": "MI FUTURO",
            "country_name": "Honduras",
            "connectivity": true
        },
        {
            "lon": -87.59131,
            "lat": 14.61825,
            "school_name": "APRENDIENDO JUNTOS",
            "country_name": "Honduras",
            "connectivity": true
        },
        {
            "lon": -87.93712,
            "lat": 14.74315,
            "school_name": "JOSE TRINIDAD CABA\u00c3\u2018AS",
            "country_name": "Honduras",
            "connectivity": true
        },
        {
            "lon": -50.0719,
            "lat": -23.0326,
            "school_name": "CAETANO VEZOZZO E M EI EF",
            "country_name": "Brazil",
            "connectivity": true
        },
        {
            "lon": -74.97167513,
            "lat": 4.03233985,
            "school_name": "Name unknown",
            "country_name": "Colombia",
            "connectivity": false
        },
        {
            "lon": -86.57037,
            "lat": 13.89394,
            "school_name": "JN RAYITO DE LUZ",
            "country_name": "Honduras",
            "connectivity": true
        },
        {
            "lon": -85.79311,
            "lat": 14.13038,
            "school_name": "GUSTAVO QUINTANILLA",
            "country_name": "Honduras",
            "connectivity": true
        },
        {
            "lon": -84.94079,
            "lat": 15.95937,
            "school_name": "ABEL GREEN GONZALES",
            "country_name": "Honduras",
            "connectivity": true
        },
        {
            "lon": 31.001,
            "lat": -17.77529,
            "school_name": "HALLINGBURY",
            "country_name": "Zimbabwe",
            "connectivity": true
        },
        {
            "lon": 32.22285,
            "lat": -18.94013,
            "school_name": "CHINOTA SECONDARY",
            "country_name": "Zimbabwe",
            "connectivity": true
        },
        {
            "lon": -39.5252,
            "lat": -11.4574,
            "school_name": "EE - CENTRO ESTADUAL DE EDUCACAO PROFISSIONAL DO SEMI ARIDO",
            "country_name": "Brazil",
            "connectivity": true
        },
        {
            "lon": -85.50011807,
            "lat": 10.20656401,
            "school_name": "FRAY BARTOLOME DE LAS CASAS",
            "country_name": "Costa Rica",
            "connectivity": true
        },
        {
            "lon": -84.74460164,
            "lat": 9.98441046,
            "school_name": "EL CHAGUITE",
            "country_name": "Costa Rica",
            "connectivity": true
        },
        {
            "lon": -83.41195275,
            "lat": 10.23064867,
            "school_name": "MARYLAND",
            "country_name": "Costa Rica",
            "connectivity": true
        },
        {
            "lon": -83.63352254,
            "lat": 10.13920696,
            "school_name": "POCORA SUR",
            "country_name": "Costa Rica",
            "connectivity": true
        },
        {
            "lon": -85.01464281,
            "lat": 10.78089319,
            "school_name": "EL SALTO",
            "country_name": "Costa Rica",
            "connectivity": true
        },
        {
            "lon": 29.40973,
            "lat": -17.92895,
            "school_name": "GAMBIZA",
            "country_name": "Zimbabwe",
            "connectivity": true
        },
        {
            "lon": 30.45491,
            "lat": -17.23037,
            "school_name": "MVOU",
            "country_name": "Zimbabwe",
            "connectivity": true
        },
        {
            "lon": 30.63428,
            "lat": -20.95208,
            "school_name": "MWENEZI",
            "country_name": "Zimbabwe",
            "connectivity": true
        },
        {
            "lon": 27.71,
            "lat": -19.30845,
            "school_name": "REGINA MUNDI SEC",
            "country_name": "Zimbabwe",
            "connectivity": true
        },
        {
            "lon": 28.78618,
            "lat": -20.29325,
            "school_name": "HOW MINE",
            "country_name": "Zimbabwe",
            "connectivity": true
        },
        {
            "lon": -43.3161,
            "lat": -22.8318,
            "school_name": "0514008 ESCOLA MUNICIPAL MARIA BAPTISTINA DUFFLES TEIXEIRA LOTT",
            "country_name": "Brazil",
            "connectivity": true
        },
        {
            "lon": -75.476389,
            "lat": 10.363889,
            "school_name": "COL. SUE?OS Y OPORTUNIDADES JESUS MAESTRO",
            "country_name": "Colombia",
            "connectivity": true
        },
        {
            "lon": -73.07177558,
            "lat": 4.819374375,
            "school_name": "EL SECRETO",
            "country_name": "Colombia",
            "connectivity": true
        },
        {
            "lon": -76.31108168,
            "lat": 3.547127893,
            "school_name": "Name unknown",
            "country_name": "Colombia",
            "connectivity": false
        },
        {
            "lon": -75.57323469,
            "lat": 6.211576254,
            "school_name": "Name unknown",
            "country_name": "Colombia",
            "connectivity": false
        },
        {
            "lon": -75.58579233,
            "lat": 6.214153186,
            "school_name": "Name unknown",
            "country_name": "Colombia",
            "connectivity": false
        },
        {
            "lon": -74.18760458,
            "lat": 4.595738013,
            "school_name": "Name unknown",
            "country_name": "Colombia",
            "connectivity": false
        },
        {
            "lon": 16.65065,
            "lat": -17.69758,
            "school_name": "Onduludiya PS",
            "country_name": "Namibia",
            "connectivity": false
        },
        {
            "lon": 119.720024,
            "lat": 11.038255,
            "school_name": "Casian NHS",
            "country_name": "Philippines",
            "connectivity": true
        },
        {
            "lon": 120.962303,
            "lat": 14.790153,
            "school_name": "M. Parang ES",
            "country_name": "Philippines",
            "connectivity": true
        },
        {
            "lon": 120.878136,
            "lat": 15.578892,
            "school_name": "Malaya ES",
            "country_name": "Philippines",
            "connectivity": true
        },
        {
            "lon": 123.827114,
            "lat": 12.824661,
            "school_name": "Sta. Lourdes ES",
            "country_name": "Philippines",
            "connectivity": true
        },
        {
            "lon": 122.6905556,
            "lat": 11.37583333,
            "school_name": "Agtambi PS",
            "country_name": "Philippines",
            "connectivity": true
        },
        {
            "lon": 122.4177778,
            "lat": 10.85472222,
            "school_name": "Dalid ES",
            "country_name": "Philippines",
            "connectivity": true
        },
        {
            "lon": 123.882337,
            "lat": 9.738698,
            "school_name": "Cabawan ES",
            "country_name": "Philippines",
            "connectivity": true
        },
        {
            "lon": 123.576614,
            "lat": 9.121403,
            "school_name": "Campalanas Elementary School",
            "country_name": "Philippines",
            "connectivity": true
        },
        {
            "lon": 125.1135607,
            "lat": 12.56293089,
            "school_name": "Dona P.C. Gorgonia ES",
            "country_name": "Philippines",
            "connectivity": true
        },
        {
            "lon": 124.847206,
            "lat": 10.824539,
            "school_name": "San Vicente Elementary School",
            "country_name": "Philippines",
            "connectivity": true
        },
        {
            "lon": 124.862788,
            "lat": 11.541211,
            "school_name": "Sugod PS",
            "country_name": "Philippines",
            "connectivity": true
        },
        {
            "lon": 125.032707,
            "lat": 11.27931111,
            "school_name": "Tingib ES",
            "country_name": "Philippines",
            "connectivity": true
        },
        {
            "lon": 125.938927,
            "lat": 9.350547,
            "school_name": "Nocot PS",
            "country_name": "Philippines",
            "connectivity": true
        },
        {
            "lon": 125.671553,
            "lat": 9.967913,
            "school_name": "Nueva Estrella ES",
            "country_name": "Philippines",
            "connectivity": true
        },
        {
            "lon": 120.749,
            "lat": 17.7336,
            "school_name": "Ba-i Elementary School",
            "country_name": "Philippines",
            "connectivity": true
        },
        {
            "lon": -44.9832,
            "lat": -20.7166,
            "school_name": "EM D MARIQUITA BEZE",
            "country_name": "Brazil",
            "connectivity": true
        },
        {
            "lon": -44.03102,
            "lat": -19.996286,
            "school_name": "ESCOLA MUNICIPAL EDITH PIMENTA DA VEIGA",
            "country_name": "Brazil",
            "connectivity": true
        },
        {
            "lon": -41.98196,
            "lat": -18.899818,
            "school_name": "EM JOSE ANGELO DE MARCO",
            "country_name": "Brazil",
            "connectivity": true
        },
        {
            "lon": -46.872963,
            "lat": -17.242617,
            "school_name": "CRECHE MUN MARIA CONCEICAO MACEDO NEIVA",
            "country_name": "Brazil",
            "connectivity": false
        },
        {
            "lon": -42.410564,
            "lat": -22.160995,
            "school_name": "CRECHE MUNICIPAL MARIA JOSE CALVAO LOBOSCO",
            "country_name": "Brazil",
            "connectivity": false
        },
        {
            "lon": -88.95437,
            "lat": 14.63813,
            "school_name": "ESTRELLITAS FELICES",
            "country_name": "Honduras",
            "connectivity": true
        },
        {
            "lon": -87.82291,
            "lat": 14.59545,
            "school_name": "RENACIMIENTO",
            "country_name": "Honduras",
            "connectivity": true
        },
        {
            "lon": 122.965408,
            "lat": 13.804408,
            "school_name": "Bolo Sur ES",
            "country_name": "Philippines",
            "connectivity": true
        },
        {
            "lon": -72.501389,
            "lat": 2.174167,
            "school_name": "LA ASUNCION",
            "country_name": "Colombia",
            "connectivity": true
        },
        {
            "lon": -72.84216065,
            "lat": 6.877440978,
            "school_name": "ESCUELA RURAL LLANO GRANDE",
            "country_name": "Colombia",
            "connectivity": true
        },
        {
            "lon": -73.13774964,
            "lat": 4.78895061,
            "school_name": "ESC TONTOG\u00dc\u00c9",
            "country_name": "Colombia",
            "connectivity": true
        },
        {
            "lon": -72.83160423,
            "lat": 10.74219334,
            "school_name": "ESCUELA RURAL MIXTA DE PALOQUEMAO",
            "country_name": "Colombia",
            "connectivity": true
        },
        {
            "lon": -73.01694444,
            "lat": 7.322222222,
            "school_name": "ESCUELA RURAL MAGUEYES",
            "country_name": "Colombia",
            "connectivity": true
        },
        {
            "lon": -73.0978641,
            "lat": 8.146588722,
            "school_name": "SEDE LA SIERRA PARTE ALTA",
            "country_name": "Colombia",
            "connectivity": true
        },
        {
            "lon": -73.37345332,
            "lat": 5.416666563,
            "school_name": "ESC SIRAQUITA",
            "country_name": "Colombia",
            "connectivity": true
        },
        {
            "lon": -73.34,
            "lat": 5.97,
            "school_name": "ESCUELA RURAL EL TABLON",
            "country_name": "Colombia",
            "connectivity": true
        },
        {
            "lon": -73.682797,
            "lat": 6.64723,
            "school_name": "I.E. FORJADORES DE UN MUNDO NUEVO - SEDE PRINCIPAL",
            "country_name": "Colombia",
            "connectivity": true
        },
        {
            "lon": -74.181395,
            "lat": 4.702258486,
            "school_name": "CONCENTRACION RURAL EL CERRITO",
            "country_name": "Colombia",
            "connectivity": true
        },
        {
            "lon": -74.347399,
            "lat": 3.901808,
            "school_name": "CENT EDUC DIST RURAL EL SALITRE",
            "country_name": "Colombia",
            "connectivity": true
        },
        {
            "lon": -74.673611,
            "lat": 7.575833,
            "school_name": "C. E. R. SALTO DEL PERICO",
            "country_name": "Colombia",
            "connectivity": true
        },
        {
            "lon": -75.197998,
            "lat": 4.44238,
            "school_name": "SEDE 8 EL SECRETO",
            "country_name": "Colombia",
            "connectivity": true
        },
        {
            "lon": -75.22633873,
            "lat": 4.282813188,
            "school_name": "MARTINEZ",
            "country_name": "Colombia",
            "connectivity": true
        },
        {
            "lon": -75.2975,
            "lat": 6.92,
            "school_name": "CENTRO EDUCATIVO RURAL  LA TRINIDAD",
            "country_name": "Colombia",
            "connectivity": true
        },
        {
            "lon": -75.26611523,
            "lat": 6.193748471,
            "school_name": "C. E. R. YARUMOS",
            "country_name": "Colombia",
            "connectivity": true
        },
        {
            "lon": -75.5898242,
            "lat": 6.170422404,
            "school_name": "INSTITUCION EDUCATIVA MANUEL URIBE ANGEL",
            "country_name": "Colombia",
            "connectivity": true
        },
        {
            "lon": -75.940556,
            "lat": 6.075278,
            "school_name": "C.E.R. PEPE BERNAL",
            "country_name": "Colombia",
            "connectivity": true
        },
        {
            "lon": -76.1201828,
            "lat": 1.688459411,
            "school_name": "ROBLE",
            "country_name": "Colombia",
            "connectivity": true
        },
        {
            "lon": -75.873056,
            "lat": 8.749722,
            "school_name": "ESCUELA RURAL MIXTA LOS PERICOS",
            "country_name": "Colombia",
            "connectivity": true
        },
        {
            "lon": -75.96361111,
            "lat": 5.153333333,
            "school_name": "SE EL DIAMANTE",
            "country_name": "Colombia",
            "connectivity": true
        },
        {
            "lon": -76.004702,
            "lat": 9.093914,
            "school_name": "LA FLORIDA",
            "country_name": "Colombia",
            "connectivity": true
        },
        {
            "lon": -76.371111,
            "lat": 8.550278,
            "school_name": "C. E. R. MARCELLA",
            "country_name": "Colombia",
            "connectivity": true
        },
        {
            "lon": -76.48098466,
            "lat": 2.853399186,
            "school_name": "CENTRO DOCENTE ARAUCA",
            "country_name": "Colombia",
            "connectivity": true
        },
        {
            "lon": -76.47183798,
            "lat": 4.962581276,
            "school_name": "SEDE CABECERA",
            "country_name": "Colombia",
            "connectivity": true
        },
        {
            "lon": -76.977865,
            "lat": 2.144409,
            "school_name": "VERSALLES",
            "country_name": "Colombia",
            "connectivity": true
        },
        {
            "lon": -77.299134,
            "lat": 3.297015,
            "school_name": "EL PAPAYO",
            "country_name": "Colombia",
            "connectivity": true
        },
        {
            "lon": -77.522209,
            "lat": 0.819133,
            "school_name": "INSTITUCION EDUCATIVA BAJO SINAI",
            "country_name": "Colombia",
            "connectivity": true
        },
        {
            "lon": -77.40423359,
            "lat": 2.985164389,
            "school_name": "ZARAGOZA (sede principal)",
            "country_name": "Colombia",
            "connectivity": true
        },
        {
            "lon": -63.857,
            "lat": -8.737,
            "school_name": "EMEIEF GUADALUPE",
            "country_name": "Brazil",
            "connectivity": true
        },
        {
            "lon": -67.8554,
            "lat": -9.9601,
            "school_name": "ESC JORNALISTA ARMANDO NOGUEIRA",
            "country_name": "Brazil",
            "connectivity": true
        },
        {
            "lon": -60.0278,
            "lat": -2.0524,
            "school_name": "ESCOLA MUNICIPAL ENGENHEIRO NELSON DORNELES",
            "country_name": "Brazil",
            "connectivity": true
        },
        {
            "lon": -59.128,
            "lat": -3.5836,
            "school_name": "ESCOLA ESTADUAL PEDRO SANTAREM PENALBER",
            "country_name": "Brazil",
            "connectivity": false
        },
        {
            "lon": -60.0508,
            "lat": -3.1035,
            "school_name": "CMEI PROFESSORA ELZA CRUZ DE OLIVEIRA",
            "country_name": "Brazil",
            "connectivity": false
        },
        {
            "lon": -52.4221,
            "lat": -28.3351,
            "school_name": "ESC EST ENS FUN PADRE PAULO JACQUES",
            "country_name": "Brazil",
            "connectivity": true
        },
        {
            "lon": -60.382,
            "lat": -5.128,
            "school_name": "ESCOLA ESTADUAL LOURIVAL HOLANDA SARAIVA NETO",
            "country_name": "Brazil",
            "connectivity": true
        },
        {
            "lon": -46.9519,
            "lat": -1.0359,
            "school_name": "E M E I F FRANCISCO NASCIMENTO",
            "country_name": "Brazil",
            "connectivity": false
        },
        {
            "lon": -48.82,
            "lat": -1.6672,
            "school_name": "E M E I F SAGRADO CORACAO DE JESUS",
            "country_name": "Brazil",
            "connectivity": false
        },
        {
            "lon": -47.8606,
            "lat": -4.5904,
            "school_name": "E M E F VASCO DA GAMA",
            "country_name": "Brazil",
            "connectivity": true
        },
        {
            "lon": -54.7998,
            "lat": -3.5657,
            "school_name": "E M E F TANCREDO NEVES",
            "country_name": "Brazil",
            "connectivity": false
        },
        {
            "lon": -49.756,
            "lat": -0.8053,
            "school_name": "E M E F TIMBO",
            "country_name": "Brazil",
            "connectivity": false
        },
        {
            "lon": -46.4558,
            "lat": -1.4462,
            "school_name": "E M E F SILAS ALVES - CUMARU CURUPAITI",
            "country_name": "Brazil",
            "connectivity": false
        },
        {
            "lon": -48.0405,
            "lat": -1.1097,
            "school_name": "E M E F CAMPO SERRADO",
            "country_name": "Brazil",
            "connectivity": false
        },
        {
            "lon": -54.8758,
            "lat": -2.6618,
            "school_name": "E M E I NSRA DAS GRACAS",
            "country_name": "Brazil",
            "connectivity": false
        },
        {
            "lon": -50.3859,
            "lat": -29.7477,
            "school_name": "EMEIF BENTO GONCALVES",
            "country_name": "Brazil",
            "connectivity": true
        },
        {
            "lon": -51.1476,
            "lat": 0.1419,
            "school_name": "ESC EST GAL CARROMBERT PEREIRA DA COSTA",
            "country_name": "Brazil",
            "connectivity": false
        },
        {
            "lon": -47.0998,
            "lat": -11.2299,
            "school_name": "ESCOLA MUL PROFESSOR JUVENAL CARDOSO",
            "country_name": "Brazil",
            "connectivity": false
        },
        {
            "lon": -48.7268,
            "lat": -9.8423,
            "school_name": "ESCOLA MUNICIPAL CRIANCA FELIZ",
            "country_name": "Brazil",
            "connectivity": true
        },
        {
            "lon": -45.0566,
            "lat": -2.6209,
            "school_name": "UNIDADE ESCOLAR DE EDUCACAO BASICA MUNICIPAL MIRTES PAIVA",
            "country_name": "Brazil",
            "connectivity": false
        },
        {
            "lon": -46.0823,
            "lat": -2.554,
            "school_name": "EM RAIMUNDO MIRANDA",
            "country_name": "Brazil",
            "connectivity": false
        },
        {
            "lon": -45.6001,
            "lat": -2.2224,
            "school_name": "EM PEDRO ALVARES CABRAL",
            "country_name": "Brazil",
            "connectivity": false
        },
        {
            "lon": -47.5036,
            "lat": -4.9234,
            "school_name": "EM MARIO CABRAL DE MELO",
            "country_name": "Brazil",
            "connectivity": true
        },
        {
            "lon": -45.558,
            "lat": -5.2691,
            "school_name": "UI SAO FRANCISCO",
            "country_name": "Brazil",
            "connectivity": false
        },
        {
            "lon": -43.3944,
            "lat": -3.8661,
            "school_name": "UE MARIA CARDOSO BARROS",
            "country_name": "Brazil",
            "connectivity": false
        },
        {
            "lon": -43.3859,
            "lat": -4.2113,
            "school_name": "EM MARIZA DUARTE",
            "country_name": "Brazil",
            "connectivity": false
        },
        {
            "lon": -45.7779,
            "lat": -1.4113,
            "school_name": "UNIDADE INTEGRADA VEREADOR NATAL DO NASCIMENTO SILVA",
            "country_name": "Brazil",
            "connectivity": false
        },
        {
            "lon": -44.2671,
            "lat": -2.6296,
            "school_name": "UEB MARIO PEREIRA",
            "country_name": "Brazil",
            "connectivity": true
        },
        {
            "lon": -45.4544,
            "lat": -6.1421,
            "school_name": "ESCOLA MUNICIPAL DE EDUCACAO BASICA BOM PASTOR",
            "country_name": "Brazil",
            "connectivity": false
        },
        {
            "lon": -44.1713,
            "lat": -2.578,
            "school_name": "ESCOLA MUNICIPAL JARDIM TROPICAL II",
            "country_name": "Brazil",
            "connectivity": false
        },
        {
            "lon": -41.617,
            "lat": -3.1178,
            "school_name": "UNID ESC SEBASTIAO R FILHO",
            "country_name": "Brazil",
            "connectivity": false
        },
        {
            "lon": -40.7944,
            "lat": -7.7869,
            "school_name": "ESC MUL NOSSA SENHORA DAS MERCES",
            "country_name": "Brazil",
            "connectivity": false
        },
        {
            "lon": -41.4485,
            "lat": -7.0839,
            "school_name": "ESC MUL NOSSA SENHORA APARECIDA",
            "country_name": "Brazil",
            "connectivity": false
        },
        {
            "lon": -42.7472,
            "lat": -5.0243,
            "school_name": "CENTRO MUNICIPAL DE EDUCACAO INFANTIL TOM JOBIM",
            "country_name": "Brazil",
            "connectivity": false
        },
        {
            "lon": -40.9288,
            "lat": -4.242,
            "school_name": "BOQUEIRAO EEIF",
            "country_name": "Brazil",
            "connectivity": false
        },
        {
            "lon": -41.102,
            "lat": -3.6815,
            "school_name": "JOSIAS VIEIRA DA SILVA EEF",
            "country_name": "Brazil",
            "connectivity": true
        },
        {
            "lon": -39.2634,
            "lat": -3.2678,
            "school_name": "LAURA VERISSIMO VITAL CEI",
            "country_name": "Brazil",
            "connectivity": false
        },
        {
            "lon": -40.211,
            "lat": -5.8401,
            "school_name": "EEIF PREFEITO PEDRO PEDROSA DE CASTRO CASTELO",
            "country_name": "Brazil",
            "connectivity": true
        },
        {
            "lon": -38.9366,
            "lat": -6.0475,
            "school_name": "FRANCISCO VICENTE BATISTA EEIEF",
            "country_name": "Brazil",
            "connectivity": false
        },
        {
            "lon": -38.6975,
            "lat": -3.7261,
            "school_name": "TAPEBA ANGATURAMA LINDALVA TEIXEIRA EDEIEF",
            "country_name": "Brazil",
            "connectivity": false
        },
        {
            "lon": -38.4949,
            "lat": -4.0451,
            "school_name": "EEM MANOEL SENHOR DE MELO FILHO",
            "country_name": "Brazil",
            "connectivity": true
        },
        {
            "lon": -37.8163,
            "lat": -5.6288,
            "school_name": "UNIDADE XXIII ISAURO CAMILO DE OLIVEIRA",
            "country_name": "Brazil",
            "connectivity": true
        },
        {
            "lon": -37.0122,
            "lat": -6.0255,
            "school_name": "ESCOLA MUNICIPAL SANTO ALEXANDRE",
            "country_name": "Brazil",
            "connectivity": true
        },
        {
            "lon": -38.3627,
            "lat": -6.3628,
            "school_name": "UNIDADE DE ENSINO II PE RAIMUNDO OSVALDO ROCHA",
            "country_name": "Brazil",
            "connectivity": false
        },
        {
            "lon": -38.4501,
            "lat": -6.1648,
            "school_name": "ESCOLA MUNICIPAL JOAO LEITE DA SILVA",
            "country_name": "Brazil",
            "connectivity": true
        },
        {
            "lon": -38.0622,
            "lat": -5.7908,
            "school_name": "UNIDADE VII JOSE DE SOUZA",
            "country_name": "Brazil",
            "connectivity": false
        },
        {
            "lon": -49.9423,
            "lat": -7.0963,
            "school_name": "E M E F LENIVAL XAVIER PEREIRA",
            "country_name": "Brazil",
            "connectivity": true
        },
        {
            "lon": -35.3439,
            "lat": -5.5913,
            "school_name": "EM EMIDIO FERREIRA DA SILVA",
            "country_name": "Brazil",
            "connectivity": true
        },
        {
            "lon": -35.258,
            "lat": -5.7511,
            "school_name": "ESC MUL PROFA PALMIRA DE SOUZA",
            "country_name": "Brazil",
            "connectivity": true
        },
        {
            "lon": -38.0437,
            "lat": -6.2697,
            "school_name": "PRE-ESCOLA MUNICIPAL MAGNA RODRIGUES BEZERRA",
            "country_name": "Brazil",
            "connectivity": true
        },
        {
            "lon": -37.9225,
            "lat": -7.204,
            "school_name": "EMEIF MARIA DE LOURDES PAULINO",
            "country_name": "Brazil",
            "connectivity": true
        },
        {
            "lon": -35.7548,
            "lat": -5.8956,
            "school_name": "IFRN - CAMPUS SAO PAULO DO POTENGI",
            "country_name": "Brazil",
            "connectivity": true
        },
        {
            "lon": -36.9442,
            "lat": -6.7091,
            "school_name": "CENTRO MUNICIPAL DE EDUCACAO INFANTIL KLEYSE MEDEIROS DE ARAUJO",
            "country_name": "Brazil",
            "connectivity": true
        },
        {
            "lon": -36.4578,
            "lat": -7.6537,
            "school_name": "EMEIEF EMILIANO PEREIRA DE ARAUJO",
            "country_name": "Brazil",
            "connectivity": false
        },
        {
            "lon": -34.8318,
            "lat": -6.9672,
            "school_name": "EEEFM PROFESSOR PEDRO ANIBAL MOURA",
            "country_name": "Brazil",
            "connectivity": true
        },
        {
            "lon": -35.8267,
            "lat": -7.2482,
            "school_name": "EMEIEF BENTO DA COSTA AGRA",
            "country_name": "Brazil",
            "connectivity": true
        },
        {
            "lon": -35.732,
            "lat": -6.4988,
            "school_name": "EMEF SAO LUIS",
            "country_name": "Brazil",
            "connectivity": false
        },
        {
            "lon": -37.8389,
            "lat": -7.1363,
            "school_name": "EMEIF ANTONIO LEITE FERREIRA",
            "country_name": "Brazil",
            "connectivity": false
        },
        {
            "lon": -38.3664,
            "lat": -6.5835,
            "school_name": "EMEIEF DE BANDARRA",
            "country_name": "Brazil",
            "connectivity": true
        },
        {
            "lon": -35.8663,
            "lat": -7.0313,
            "school_name": "CRECHE PEQUENO JOAO ARIANO GRANGEIRO CALANDRINI",
            "country_name": "Brazil",
            "connectivity": false
        },
        {
            "lon": -39.6845,
            "lat": -7.6554,
            "school_name": "GRUPO MUNICIPAL ADALTON ALENCAR",
            "country_name": "Brazil",
            "connectivity": false
        },
        {
            "lon": -34.9054,
            "lat": -7.9022,
            "school_name": "EM - ESCOLAS REUNIDAS SANTA ROSA",
            "country_name": "Brazil",
            "connectivity": false
        },
        {
            "lon": -35.5842,
            "lat": -9.2503,
            "school_name": "ESCOLA MUNICIPAL ESTER LOPES BARBOSA",
            "country_name": "Brazil",
            "connectivity": false
        },
        {
            "lon": -44.2091,
            "lat": -13.0027,
            "school_name": "ESCOLA MUNICIPAL ANTONIO MIGUEL DOS SANTOS",
            "country_name": "Brazil",
            "connectivity": false
        },
        {
            "lon": -42.4928,
            "lat": -14.6306,
            "school_name": "ESCOLA MUNICIPAL SENHOR DO BONFIM",
            "country_name": "Brazil",
            "connectivity": false
        },
        {
            "lon": -41.9681,
            "lat": -14.9002,
            "school_name": "ESCOLA MUNICIPAL ELEUTERIO TAVARES",
            "country_name": "Brazil",
            "connectivity": true
        },
        {
            "lon": -39.1106,
            "lat": -13.9466,
            "school_name": "ESCOLA MUNICIPAL DR VASCO DE AZEVEDO FILHO",
            "country_name": "Brazil",
            "connectivity": true
        },
        {
            "lon": -38.8686,
            "lat": -4.0244,
            "school_name": "MATIAS BECK EMEF",
            "country_name": "Brazil",
            "connectivity": true
        },
        {
            "lon": -40.0226,
            "lat": -17.1278,
            "school_name": "ESCOLA MUNICIPAL SAO JOAO DA PRATA",
            "country_name": "Brazil",
            "connectivity": true
        },
        {
            "lon": -42.6936,
            "lat": -14.3018,
            "school_name": "IF BAIANO - CAMPUS GUANAMBI",
            "country_name": "Brazil",
            "connectivity": true
        },
        {
            "lon": -38.4426,
            "lat": -12.1354,
            "school_name": "CRECHE MUNICIPAL ALEGRIA DA MAMAE",
            "country_name": "Brazil",
            "connectivity": true
        },
        {
            "lon": -38.3964,
            "lat": -12.7829,
            "school_name": "ESCOLA PEDRO CERQUEIRA SANTOS",
            "country_name": "Brazil",
            "connectivity": true
        },
        {
            "lon": -41.2133,
            "lat": -15.364,
            "school_name": "ESCOLA MUNICIPAL HENRIQUE BRITO",
            "country_name": "Brazil",
            "connectivity": false
        },
        {
            "lon": -39.7498,
            "lat": -12.1574,
            "school_name": "CRECHE ESCOLA ROSANGELA JESUS DE OLIVEIRA",
            "country_name": "Brazil",
            "connectivity": false
        },
        {
            "lon": -44.838,
            "lat": -20.0611,
            "school_name": "ESCOLA MUNICIPAL JOSE SABINO",
            "country_name": "Brazil",
            "connectivity": true
        },
        {
            "lon": -44.9534,
            "lat": -19.7741,
            "school_name": "ESCOLA MUNICIPAL ISAIAS TEIXEIRA RESENDE",
            "country_name": "Brazil",
            "connectivity": false
        },
        {
            "lon": -46.4217,
            "lat": -16.2008,
            "school_name": "EM HELIODORO TEIXEIRA",
            "country_name": "Brazil",
            "connectivity": true
        },
        {
            "lon": -45.415,
            "lat": -21.7039,
            "school_name": "EM SAO SEBASTIAO",
            "country_name": "Brazil",
            "connectivity": false
        },
        {
            "lon": -49.9421,
            "lat": -18.6908,
            "school_name": "EM BARAO DO RIO BRANCO",
            "country_name": "Brazil",
            "connectivity": false
        },
        {
            "lon": -46.5917,
            "lat": -21.7836,
            "school_name": "CEI MUNICIPAL LAPIS DE COR",
            "country_name": "Brazil",
            "connectivity": true
        },
        {
            "lon": -49.8294,
            "lat": -24.1398,
            "school_name": "ZIZI E M DONA EI EF",
            "country_name": "Brazil",
            "connectivity": true
        },
        {
            "lon": -44.7549,
            "lat": -19.4515,
            "school_name": "EM NADIR JOSE DE BARCELOS",
            "country_name": "Brazil",
            "connectivity": true
        },
        {
            "lon": -44.2374,
            "lat": -20.1485,
            "school_name": "EDUCACAO INFANTIL NAIR DAS GRACAS PRADO",
            "country_name": "Brazil",
            "connectivity": true
        },
        {
            "lon": -40.4204,
            "lat": -20.3445,
            "school_name": "EMEF DR DENIZART SANTOS",
            "country_name": "Brazil",
            "connectivity": true
        },
        {
            "lon": -49.1775,
            "lat": -26.7369,
            "school_name": "EEB JOSE BONIFACIO",
            "country_name": "Brazil",
            "connectivity": true
        },
        {
            "lon": -54.9949,
            "lat": -10.2387,
            "school_name": "CRECHE ESCOLA IRMA DULCE",
            "country_name": "Brazil",
            "connectivity": true
        },
        {
            "lon": -51.8241,
            "lat": -30.8636,
            "school_name": "EMEF BENTO FRANCISCO DIAS",
            "country_name": "Brazil",
            "connectivity": true
        },
        {
            "lon": -40.5382,
            "lat": -20.0228,
            "school_name": "EMUEF CHAVES",
            "country_name": "Brazil",
            "connectivity": false
        },
        {
            "lon": -48.9707,
            "lat": -21.1235,
            "school_name": "NICOLA MASTROCOLA",
            "country_name": "Brazil",
            "connectivity": true
        },
        {
            "lon": -39.0839,
            "lat": -12.8475,
            "school_name": "EE - COLEGIO ESTADUAL SAO FELIPE",
            "country_name": "Brazil",
            "connectivity": true
        },
        {
            "lon": -47.7419,
            "lat": -23.5947,
            "school_name": "RITA MACHADO CRECHE",
            "country_name": "Brazil",
            "connectivity": true
        },
        {
            "lon": -47.7323,
            "lat": -23.8039,
            "school_name": "CELIA ANTUNES DE PROENCA PROFESSORA EMEI",
            "country_name": "Brazil",
            "connectivity": true
        },
        {
            "lon": -46.8965,
            "lat": -23.6071,
            "school_name": "AGUINALDO SOUZA ESTRELA EM",
            "country_name": "Brazil",
            "connectivity": true
        },
        {
            "lon": -47.1972,
            "lat": -22.9554,
            "school_name": "OCTAVIO CESAR BORGHI PROFESSOR CEI",
            "country_name": "Brazil",
            "connectivity": true
        },
        {
            "lon": -48.5572,
            "lat": -20.5702,
            "school_name": "CHRISTIANO CARVALHO EM",
            "country_name": "Brazil",
            "connectivity": true
        },
        {
            "lon": -49.3494,
            "lat": -23.3988,
            "school_name": "MARIVALDO TONON EM",
            "country_name": "Brazil",
            "connectivity": true
        },
        {
            "lon": -47.2184,
            "lat": -20.6389,
            "school_name": "OLIVIO FALEIROS EMEB",
            "country_name": "Brazil",
            "connectivity": false
        },
        {
            "lon": -46.8657,
            "lat": -23.5284,
            "school_name": "FRANCISCO ZACARIOTO EMEF",
            "country_name": "Brazil",
            "connectivity": true
        },
        {
            "lon": -46.7921,
            "lat": -23.4932,
            "school_name": "FRANCISCO MANUEL LUMBRALES CARNEIRO DR EMEF",
            "country_name": "Brazil",
            "connectivity": true
        },
        {
            "lon": -46.8497,
            "lat": -23.7117,
            "school_name": "JASMIM EM",
            "country_name": "Brazil",
            "connectivity": true
        },
        {
            "lon": -48.0611,
            "lat": -20.7376,
            "school_name": "DIVINA HELENA DE C BONFIM PROFA CEMES",
            "country_name": "Brazil",
            "connectivity": true
        },
        {
            "lon": -50.7843,
            "lat": -29.5565,
            "school_name": "EMEI PEQUENO POLEGAR",
            "country_name": "Brazil",
            "connectivity": true
        },
        {
            "lon": -47.3369,
            "lat": -22.7655,
            "school_name": "GRAUNA CASA DA CRIANCA",
            "country_name": "Brazil",
            "connectivity": true
        },
        {
            "lon": -46.7366,
            "lat": -23.437,
            "school_name": "CEI DIRET CITY JARAGUA IV",
            "country_name": "Brazil",
            "connectivity": true
        },
        {
            "lon": -48.0365,
            "lat": -24.4994,
            "school_name": "ILHA RASA MARGEM DIREITA EMEF",
            "country_name": "Brazil",
            "connectivity": false
        },
        {
            "lon": -47.5179,
            "lat": -24.3802,
            "school_name": "BAIRRO PE DA SERRA ESCOLA MUNICIPAL",
            "country_name": "Brazil",
            "connectivity": false
        },
        {
            "lon": -46.5245,
            "lat": -23.5803,
            "school_name": "CEU CEI ADELAIDE TERESA LOPES CIMONARI PROFA",
            "country_name": "Brazil",
            "connectivity": true
        },
        {
            "lon": -40.8667,
            "lat": -14.8957,
            "school_name": "ESCOLA MUNICIPAL MARIA SANTANA",
            "country_name": "Brazil",
            "connectivity": true
        },
        {
            "lon": -46.6634,
            "lat": -23.6761,
            "school_name": "EMEF MARIA LUCIA DOS SANTOS PROFA",
            "country_name": "Brazil",
            "connectivity": true
        },
        {
            "lon": -39.0246,
            "lat": -15.6212,
            "school_name": "ESCOLA SAO JOSE",
            "country_name": "Brazil",
            "connectivity": true
        },
        {
            "lon": -51.1129,
            "lat": -21.1533,
            "school_name": "PENITENCIARIA II DE MIRANDOPOLIS",
            "country_name": "Brazil",
            "connectivity": false
        },
        {
            "lon": -45.5108,
            "lat": -22.9726,
            "school_name": "PENITENCIARIA FEMININA II DE TREMEMBE",
            "country_name": "Brazil",
            "connectivity": false
        },
        {
            "lon": -49.1645,
            "lat": -23.0473,
            "school_name": "SEBASTIANA FRANCO DE OLIVEIRA PROFESSORA CRECHE",
            "country_name": "Brazil",
            "connectivity": true
        },
        {
            "lon": -45.5792,
            "lat": -23.0029,
            "school_name": "PROGRAMA ENSINO ESPORTE E JUVENTUDE UNIDADE III",
            "country_name": "Brazil",
            "connectivity": true
        },
        {
            "lon": -49.9581,
            "lat": -22.2487,
            "school_name": "NILZE SCARANO MANSO - CATAVENTO PROFA EMEI",
            "country_name": "Brazil",
            "connectivity": true
        },
        {
            "lon": -50.852,
            "lat": -23.6411,
            "school_name": "JOAO BATISTA BUENO E M EI EF",
            "country_name": "Brazil",
            "connectivity": true
        },
        {
            "lon": -47.5437,
            "lat": -0.6606,
            "school_name": "E M E I F JOSE BONIFACIO",
            "country_name": "Brazil",
            "connectivity": true
        },
        {
            "lon": -52.6732,
            "lat": -26.2352,
            "school_name": "ROCHA POMBO E M EI EF",
            "country_name": "Brazil",
            "connectivity": true
        },
        {
            "lon": -46.7684,
            "lat": -23.6719,
            "school_name": "MANOEL DA SILVEIRA PORTO FILHO REVERENDO PROFESSOR",
            "country_name": "Brazil",
            "connectivity": true
        },
        {
            "lon": -50.3797,
            "lat": -23.5399,
            "school_name": "PEQUENO PRINCIPE CENTRO MUL DE EDUC INFANTIL",
            "country_name": "Brazil",
            "connectivity": true
        },
        {
            "lon": -50.7478,
            "lat": -23.0802,
            "school_name": "MARIA M MENDES E M EI EF MOD ED ESP",
            "country_name": "Brazil",
            "connectivity": true
        },
        {
            "lon": -48.5117,
            "lat": -27.5735,
            "school_name": "NEIM SANTO ANTONIO DE PADUA",
            "country_name": "Brazil",
            "connectivity": true
        },
        {
            "lon": -50.5674,
            "lat": -27.285,
            "school_name": "CENTRO MUNICIPAL DE EDUCACAO INFANTIL OSCAR FERREIRA",
            "country_name": "Brazil",
            "connectivity": true
        },
        {
            "lon": -49.3476,
            "lat": -27.5173,
            "school_name": "EI RIO BONITO",
            "country_name": "Brazil",
            "connectivity": true
        },
        {
            "lon": -51.1234,
            "lat": -30.039,
            "school_name": "ESC EST ENS MED PROFESSOR ALCIDES CUNHA",
            "country_name": "Brazil",
            "connectivity": true
        },
        {
            "lon": -52.0964,
            "lat": -32.047,
            "school_name": "ESC MUN ENS FUN NAVEGANTES",
            "country_name": "Brazil",
            "connectivity": true
        },
        {
            "lon": -43.5215,
            "lat": -19.0018,
            "school_name": "EE DE ITACOLOMI",
            "country_name": "Brazil",
            "connectivity": true
        },
        {
            "lon": -51.3935,
            "lat": -30.6769,
            "school_name": "ESCOLA MUNICIPAL DE EDUCACAO INFANTIL JORGE ALBERTO WOLF",
            "country_name": "Brazil",
            "connectivity": true
        },
        {
            "lon": -51.1559,
            "lat": -29.8154,
            "school_name": "IFSUL - CAMPUS SAPUCAIA DO SUL",
            "country_name": "Brazil",
            "connectivity": true
        },
        {
            "lon": -51.3767,
            "lat": -29.5891,
            "school_name": "CENTRO EDUC MUN DOS ALUNOS CAIENSES",
            "country_name": "Brazil",
            "connectivity": true
        },
        {
            "lon": -58.459,
            "lat": -15.0747,
            "school_name": "EE PROF DEMETRIO PEREIRA",
            "country_name": "Brazil",
            "connectivity": true
        },
        {
            "lon": -53.116,
            "lat": -25.0972,
            "school_name": "REASSENTAMENTO SAO MARCOS C E C EF M",
            "country_name": "Brazil",
            "connectivity": true
        },
        {
            "lon": -52.1262,
            "lat": -25.3753,
            "school_name": "CRIANCA FELIZ C M E I",
            "country_name": "Brazil",
            "connectivity": true
        },
        {
            "lon": -40.3723,
            "lat": -14.5245,
            "school_name": "EE - COLEGIO ESTADUAL MILTON ALMEIDA DOS SANTOS - TEMPO INTEGRAL - ANTIGO COLEGIO ESTADUAL DOUTOR RO",
            "country_name": "Brazil",
            "connectivity": true
        },
        {
            "lon": -39.2617,
            "lat": -17.7362,
            "school_name": "EE - COLEGIO POLIVALENTE DE CARAVELAS - TEMPO INTEGRAL",
            "country_name": "Brazil",
            "connectivity": true
        },
        {
            "lon": -46.4946,
            "lat": -23.7428,
            "school_name": "JOAO BAPTISTA MARIGO MARTINS",
            "country_name": "Brazil",
            "connectivity": true
        },
        {
            "lon": -40.5259,
            "lat": -9.4276,
            "school_name": "EE - COLEGIO ESTADUAL ARTUR OLIVEIRA DA SILVA",
            "country_name": "Brazil",
            "connectivity": true
        },
        {
            "lon": -44.0688,
            "lat": -20.6618,
            "school_name": "EE PEDRO DOMINGUES",
            "country_name": "Brazil",
            "connectivity": true
        },
        {
            "lon": -46.8287,
            "lat": -22.9884,
            "school_name": "ANGELA LYGIA PARODI SCAVONE PROFA EMEB",
            "country_name": "Brazil",
            "connectivity": true
        },
        {
            "lon": -42.8779,
            "lat": -22.5908,
            "school_name": "E M ENG ELIAS FARHAT",
            "country_name": "Brazil",
            "connectivity": true
        },
        {
            "lon": -43.3325,
            "lat": -22.8896,
            "school_name": "0515604 CRECHE MUNICIPAL GERCINDA ROSA FONSECA",
            "country_name": "Brazil",
            "connectivity": true
        },
        {
            "lon": -48.9257,
            "lat": -19.319,
            "school_name": "ESCOLA MUNICIPAL JUNTO A LOJA MACONICA UNIAO E CARIDADE",
            "country_name": "Brazil",
            "connectivity": true
        },
        {
            "lon": -46.5841,
            "lat": -23.5511,
            "school_name": "ANTONIO DE QUEIROZ TELLES DOUTOR",
            "country_name": "Brazil",
            "connectivity": true
        },
        {
            "lon": -46.4484,
            "lat": -24.0037,
            "school_name": "ALFREDO REIS VIEGAS DOUTOR",
            "country_name": "Brazil",
            "connectivity": true
        },
        {
            "lon": -43.3634,
            "lat": -3.7375,
            "school_name": "UE NOSSA SENHORA APARECIDA",
            "country_name": "Brazil",
            "connectivity": true
        },
        {
            "lon": -43.7095,
            "lat": -6.4935,
            "school_name": "EM FRANCISCO MENDES VIEIRA",
            "country_name": "Brazil",
            "connectivity": true
        },
        {
            "lon": -40.9084,
            "lat": -7.3565,
            "school_name": "U E DR FRANCISCO LUIZ DE MACEDO",
            "country_name": "Brazil",
            "connectivity": true
        },
        {
            "lon": -52.4941,
            "lat": -25.5796,
            "school_name": "PINHALZINHO C R E DE EF M",
            "country_name": "Brazil",
            "connectivity": true
        },
        {
            "lon": -50.2,
            "lat": -23.8321,
            "school_name": "JOAO ALFREDO COSTA E E EF",
            "country_name": "Brazil",
            "connectivity": true
        },
        {
            "lon": -53.442,
            "lat": -26.6533,
            "school_name": "EEB PROF CECILIA LOTIN",
            "country_name": "Brazil",
            "connectivity": true
        },
        {
            "lon": -48.6835,
            "lat": -26.8917,
            "school_name": "CEI ELIZABETH MALBURG",
            "country_name": "Brazil",
            "connectivity": true
        },
        {
            "lon": -64.7903,
            "lat": -7.2536,
            "school_name": "CRECHE DANILO DE AGUIAR CORREA",
            "country_name": "Brazil",
            "connectivity": true
        },
        {
            "lon": -39.0757,
            "lat": -7.538,
            "school_name": "MA GONCALVES DANTAS EEIF",
            "country_name": "Brazil",
            "connectivity": true
        },
        {
            "lon": -34.8738,
            "lat": -7.953,
            "school_name": "ESCOLA DE REFERENCIA EM ENSINO MEDIO DE PAULISTA",
            "country_name": "Brazil",
            "connectivity": true
        },
        {
            "lon": -44.8072,
            "lat": -21.8374,
            "school_name": "EE SAO SEBASTIAO",
            "country_name": "Brazil",
            "connectivity": true
        },
        {
            "lon": -44.2006,
            "lat": -20.1493,
            "school_name": "E M LIDIMANHA AUGUSTA MAIA",
            "country_name": "Brazil",
            "connectivity": true
        }
    ],
    "num_countries": 13,
    "countries": [
        "Benin",
        "Brazil",
        "Colombia",
        "Costa Rica",
        "Honduras",
        "Kazakhstan",
        "Kyrgyzstan",
        "Namibia",
        "Palestine",
        "Philippines",
        "Rwanda",
        "Sierra Leone",
        "Zimbabwe"
    ],
    "schools_no_data": [
        {
            "lon": -10.773106,
            "lat": 6.972787,
            "school_name": "Karnley Public School",
            "country_name": "Liberia",
            "connectivity": false
        },
        {
            "lon": -7.831005,
            "lat": 5.232093,
            "school_name": "Saiken Public",
            "country_name": "Liberia",
            "connectivity": false
        },
        {
            "lon": 7.624602,
            "lat": 6.896505,
            "school_name": "Name unknown",
            "country_name": "Nigeria",
            "connectivity": false
        },
        {
            "lon": -0.2024035,
            "lat": 5.5734258,
            "school_name": "Name unknown",
            "country_name": "Ghana",
            "connectivity": false
        },
        {
            "lon": 37.87919365,
            "lat": 18.11096365,
            "school_name": "Name unknown",
            "country_name": "Sudan",
            "connectivity": false
        },
        {
            "lon": 33.0641178,
            "lat": 14.7456351833333,
            "school_name": "Name unknown",
            "country_name": "Sudan",
            "connectivity": false
        },
        {
            "lon": 7.56492,
            "lat": 8.9191,
            "school_name": "Name unknown",
            "country_name": "Nigeria",
            "connectivity": false
        },
        {
            "lon": 33.38162943,
            "lat": 11.41386965,
            "school_name": "Name unknown",
            "country_name": "Sudan",
            "connectivity": false
        },
        {
            "lon": -0.8436813,
            "lat": 10.8595772,
            "school_name": "Name unknown",
            "country_name": "Ghana",
            "connectivity": false
        },
        {
            "lon": -2.4911482,
            "lat": 10.0571045,
            "school_name": "Name unknown",
            "country_name": "Ghana",
            "connectivity": false
        },
        {
            "lon": -0.0090421,
            "lat": 9.3902325,
            "school_name": "Name unknown",
            "country_name": "Ghana",
            "connectivity": false
        },
        {
            "lon": -0.8510737,
            "lat": 9.2550514,
            "school_name": "Name unknown",
            "country_name": "Ghana",
            "connectivity": false
        },
        {
            "lon": -1.8516238,
            "lat": 9.2254626,
            "school_name": "Name unknown",
            "country_name": "Ghana",
            "connectivity": false
        },
        {
            "lon": -0.9860028,
            "lat": 5.9300242,
            "school_name": "Name unknown",
            "country_name": "Ghana",
            "connectivity": false
        },
        {
            "lon": -0.1208228,
            "lat": 8.2322629,
            "school_name": "Name unknown",
            "country_name": "Ghana",
            "connectivity": false
        },
        {
            "lon": -1.6119338,
            "lat": 6.7430115,
            "school_name": "Name unknown",
            "country_name": "Ghana",
            "connectivity": false
        },
        {
            "lon": 37.76884,
            "lat": -6.77256,
            "school_name": "UHURU MUSLIM",
            "country_name": "United Republic of Tanzania",
            "connectivity": false
        },
        {
            "lon": 38.10757,
            "lat": -4.47759,
            "school_name": "KARAMBA",
            "country_name": "United Republic of Tanzania",
            "connectivity": false
        },
        {
            "lon": 33.48399,
            "lat": -8.97199,
            "school_name": "MAGANJO",
            "country_name": "United Republic of Tanzania",
            "connectivity": false
        },
        {
            "lon": 36.58361,
            "lat": -5.31099,
            "school_name": "MSENTE",
            "country_name": "United Republic of Tanzania",
            "connectivity": false
        },
        {
            "lon": 33.26506,
            "lat": -2.80318,
            "school_name": "BUKALA",
            "country_name": "United Republic of Tanzania",
            "connectivity": false
        },
        {
            "lon": 35.28677,
            "lat": -8.73492,
            "school_name": "LUGOLOFU",
            "country_name": "United Republic of Tanzania",
            "connectivity": false
        },
        {
            "lon": 31.58829,
            "lat": -1.67716,
            "school_name": "KASHOZI",
            "country_name": "United Republic of Tanzania",
            "connectivity": false
        },
        {
            "lon": -2.8547502,
            "lat": 7.278219,
            "school_name": "Name unknown",
            "country_name": "Ghana",
            "connectivity": false
        },
        {
            "lon": -2.7826846,
            "lat": 7.5977437,
            "school_name": "Name unknown",
            "country_name": "Ghana",
            "connectivity": false
        },
        {
            "lon": 39.09881,
            "lat": -10.46067,
            "school_name": "NANGOO",
            "country_name": "United Republic of Tanzania",
            "connectivity": false
        },
        {
            "lon": 1.628766,
            "lat": 6.49586,
            "school_name": "JEL LE GUIDE",
            "country_name": "Togo",
            "connectivity": false
        },
        {
            "lon": 1.552698333,
            "lat": 6.629228333,
            "school_name": "JEP AMEBOUDANOU KONDJI",
            "country_name": "Togo",
            "connectivity": false
        },
        {
            "lon": 1.268013,
            "lat": 9.756757,
            "school_name": "JEP WAZELAO",
            "country_name": "Togo",
            "connectivity": false
        },
        {
            "lon": 0.31788,
            "lat": 11.04145333,
            "school_name": "JEP KPATCHIATE",
            "country_name": "Togo",
            "connectivity": false
        },
        {
            "lon": 1.04094352,
            "lat": 6.44663443,
            "school_name": "EDIL ZOGBEKOPE",
            "country_name": "Togo",
            "connectivity": false
        },
        {
            "lon": 1.418757,
            "lat": 6.366231,
            "school_name": "EPP HAHOTOE G/C",
            "country_name": "Togo",
            "connectivity": false
        },
        {
            "lon": 1.209096667,
            "lat": 6.41829,
            "school_name": "EPP DAVIEMODJI G/C",
            "country_name": "Togo",
            "connectivity": false
        },
        {
            "lon": 1.198234,
            "lat": 6.615749,
            "school_name": "EPP BEGBE",
            "country_name": "Togo",
            "connectivity": false
        },
        {
            "lon": 0.999726,
            "lat": 8.742261,
            "school_name": "EPP LAOUTCHOBA TCHITCHAO",
            "country_name": "Togo",
            "connectivity": false
        },
        {
            "lon": 1.1941226,
            "lat": 8.424573,
            "school_name": "EPP AGOMBIO",
            "country_name": "Togo",
            "connectivity": false
        },
        {
            "lon": 1.420846,
            "lat": 9.026572,
            "school_name": "EPP TCHAMBA G/A",
            "country_name": "Togo",
            "connectivity": false
        },
        {
            "lon": 0.613495,
            "lat": 9.692856,
            "school_name": "EPP M'MENI G/A",
            "country_name": "Togo",
            "connectivity": false
        },
        {
            "lon": 0.300176,
            "lat": 10.988128,
            "school_name": "EPC TIDONTE",
            "country_name": "Togo",
            "connectivity": false
        },
        {
            "lon": 33.56979,
            "lat": -4.51622,
            "school_name": "MALAGANO",
            "country_name": "United Republic of Tanzania",
            "connectivity": false
        },
        {
            "lon": 36.7236,
            "lat": -8.68238,
            "school_name": "MAHENGE B",
            "country_name": "United Republic of Tanzania",
            "connectivity": false
        },
        {
            "lon": 32.50704,
            "lat": -3.46544,
            "school_name": "BUYAGU",
            "country_name": "United Republic of Tanzania",
            "connectivity": false
        },
        {
            "lon": 39.61633,
            "lat": -10.76551,
            "school_name": "TANDAHIMBA",
            "country_name": "United Republic of Tanzania",
            "connectivity": false
        },
        {
            "lon": 33.9160202,
            "lat": -9.942793116,
            "school_name": "Karonga CCAP",
            "country_name": "Malawi",
            "connectivity": false
        },
        {
            "lon": 33.76766139,
            "lat": -11.94427009,
            "school_name": "Thanthe",
            "country_name": "Malawi",
            "connectivity": false
        },
        {
            "lon": 35.23543073,
            "lat": -16.67869442,
            "school_name": "Chilumba",
            "country_name": "Malawi",
            "connectivity": false
        },
        {
            "lon": 34.55115374,
            "lat": -14.64893276,
            "school_name": "NJolomole Primary School",
            "country_name": "Malawi",
            "connectivity": false
        },
        {
            "lon": 35.21487587,
            "lat": -16.33680159,
            "school_name": "Namvula",
            "country_name": "Malawi",
            "connectivity": false
        },
        {
            "lon": 25.2146083,
            "lat": 0.507146977,
            "school_name": "ITI CHOLOLO",
            "country_name": "Democratic Republic of the Congo",
            "connectivity": false
        },
        {
            "lon": 21.55574189,
            "lat": -4.8530802,
            "school_name": "INST BIKAYI",
            "country_name": "Democratic Republic of the Congo",
            "connectivity": false
        },
        {
            "lon": 7.379103,
            "lat": 5.753256,
            "school_name": "Name unknown",
            "country_name": "Nigeria",
            "connectivity": false
        },
        {
            "lon": 19.53846265,
            "lat": 1.262191547,
            "school_name": "INST ETSINA NKITO",
            "country_name": "Democratic Republic of the Congo",
            "connectivity": false
        },
        {
            "lon": 24.70771434,
            "lat": -5.983297156,
            "school_name": "EP DIANGENDA",
            "country_name": "Democratic Republic of the Congo",
            "connectivity": false
        },
        {
            "lon": 27.06666693,
            "lat": -3.466666997,
            "school_name": "EP WANGOZI",
            "country_name": "Democratic Republic of the Congo",
            "connectivity": false
        },
        {
            "lon": 28.94257626,
            "lat": -2.81992116,
            "school_name": "INST LUVUNGI/LUBARIKA",
            "country_name": "Democratic Republic of the Congo",
            "connectivity": false
        },
        {
            "lon": 16.05814884,
            "lat": -5.682039112,
            "school_name": "INST   DIANGIENDA",
            "country_name": "Democratic Republic of the Congo",
            "connectivity": false
        },
        {
            "lon": 23.60980997,
            "lat": -6.1205824,
            "school_name": "INST FAMUA 2",
            "country_name": "Democratic Republic of the Congo",
            "connectivity": false
        },
        {
            "lon": -90.160306,
            "lat": 20.135131,
            "school_name": "POMUCH",
            "country_name": "Mexico",
            "connectivity": false
        },
        {
            "lon": -96.34552,
            "lat": 19.19723,
            "school_name": "TELEBACHILLERATO PUENTE JULA",
            "country_name": "Mexico",
            "connectivity": false
        },
        {
            "lon": 29.61938,
            "lat": -25.05197,
            "school_name": "Ndendeka High",
            "country_name": "South Africa",
            "connectivity": false
        },
        {
            "lon": 33.74033,
            "lat": 0.69505,
            "school_name": "LUZINGA COMMUNITY  P/S",
            "country_name": "Uganda",
            "connectivity": false
        },
        {
            "lon": 34.13368,
            "lat": 1.26125,
            "school_name": "MERIAN N/SCHOOL",
            "country_name": "Uganda",
            "connectivity": false
        },
        {
            "lon": 33.12004,
            "lat": 1.12737,
            "school_name": "KIKUBI P/SCH",
            "country_name": "Uganda",
            "connectivity": false
        },
        {
            "lon": 31.32093,
            "lat": -0.65502,
            "school_name": "KIYAMBA P/SCHOOL",
            "country_name": "Uganda",
            "connectivity": false
        },
        {
            "lon": 31.61845,
            "lat": -0.54596,
            "school_name": "ST RAPHAEL P/SCHOOL",
            "country_name": "Uganda",
            "connectivity": false
        },
        {
            "lon": 30.76683,
            "lat": 1.16653,
            "school_name": "Kinakyeitaka P.S.",
            "country_name": "Uganda",
            "connectivity": false
        },
        {
            "lon": 31.9085,
            "lat": 2.56518,
            "school_name": "Aparanga P.S-current site",
            "country_name": "Uganda",
            "connectivity": false
        },
        {
            "lon": 32.24473,
            "lat": 0.35163,
            "school_name": "Kyesengezze P.S.",
            "country_name": "Uganda",
            "connectivity": false
        },
        {
            "lon": 31.3944,
            "lat": 0.5882,
            "school_name": "Bright Sec.School",
            "country_name": "Uganda",
            "connectivity": false
        },
        {
            "lon": 31.51427,
            "lat": 0.00128,
            "school_name": "Kyamabogo C.O.U P.S.",
            "country_name": "Uganda",
            "connectivity": false
        },
        {
            "lon": 31.48868,
            "lat": -0.2637,
            "school_name": "Kayunga muslim P.S",
            "country_name": "Uganda",
            "connectivity": false
        },
        {
            "lon": 34.23871,
            "lat": 1.03632,
            "school_name": "Bunabubulo P.S.",
            "country_name": "Uganda",
            "connectivity": false
        },
        {
            "lon": 34.17944,
            "lat": 1.07359,
            "school_name": "Grace P.S",
            "country_name": "Uganda",
            "connectivity": false
        },
        {
            "lon": 30.4437,
            "lat": 0.05095,
            "school_name": "Kafunjo P.S.",
            "country_name": "Uganda",
            "connectivity": false
        },
        {
            "lon": 31.71214,
            "lat": -0.58477,
            "school_name": "Kyesiiga P.S.",
            "country_name": "Uganda",
            "connectivity": false
        },
        {
            "lon": 31.97327,
            "lat": 1.83109,
            "school_name": "Nyakibette P.S.",
            "country_name": "Uganda",
            "connectivity": false
        },
        {
            "lon": 32.9398,
            "lat": 2.45276,
            "school_name": "Ogur Central P.S.",
            "country_name": "Uganda",
            "connectivity": false
        },
        {
            "lon": 31.03035,
            "lat": -24.77516,
            "school_name": "Farel Primary School",
            "country_name": "South Africa",
            "connectivity": false
        },
        {
            "lon": 28.71189,
            "lat": -25.38613,
            "school_name": "Motoaneng Primary School",
            "country_name": "South Africa",
            "connectivity": false
        },
        {
            "lon": 25.64118,
            "lat": -26.00783,
            "school_name": "Mosenogi Primary School",
            "country_name": "South Africa",
            "connectivity": false
        },
        {
            "lon": 25.62229,
            "lat": -25.81966,
            "school_name": "Sol Plaatje Secondary School",
            "country_name": "South Africa",
            "connectivity": false
        },
        {
            "lon": 25.96687,
            "lat": -25.3787,
            "school_name": "Keobusitse Primary School",
            "country_name": "South Africa",
            "connectivity": false
        },
        {
            "lon": 26.6604,
            "lat": -26.87352,
            "school_name": "Klersdorp Toddler Kindergarden",
            "country_name": "South Africa",
            "connectivity": false
        },
        {
            "lon": 23.7648,
            "lat": -26.12843,
            "school_name": "Maiketso Primary School",
            "country_name": "South Africa",
            "connectivity": false
        },
        {
            "lon": 23.57614,
            "lat": -26.84865,
            "school_name": "Longhurst Primary School",
            "country_name": "South Africa",
            "connectivity": false
        },
        {
            "lon": 18.46937,
            "lat": -33.94335,
            "school_name": "Kumon Education SA",
            "country_name": "South Africa",
            "connectivity": false
        },
        {
            "lon": 29.0318,
            "lat": -23.44595,
            "school_name": "School",
            "country_name": "South Africa",
            "connectivity": false
        },
        {
            "lon": 18.99291,
            "lat": -33.6657,
            "school_name": "Wellington High School",
            "country_name": "South Africa",
            "connectivity": false
        },
        {
            "lon": 30.02367,
            "lat": -30.29045,
            "school_name": "Nokweja Primary School",
            "country_name": "South Africa",
            "connectivity": false
        },
        {
            "lon": 30.07419,
            "lat": -30.40051,
            "school_name": "Zamokuhle Senior Secondary School",
            "country_name": "South Africa",
            "connectivity": false
        },
        {
            "lon": 30.37896,
            "lat": -28.75392,
            "school_name": "Mhlakothi High School",
            "country_name": "South Africa",
            "connectivity": false
        },
        {
            "lon": 29.68121,
            "lat": -28.33559,
            "school_name": "Mangqasha Primary School",
            "country_name": "South Africa",
            "connectivity": false
        },
        {
            "lon": 30.70306,
            "lat": -23.30347,
            "school_name": "Muhluri",
            "country_name": "South Africa",
            "connectivity": false
        },
        {
            "lon": 30.73874,
            "lat": -30.15682,
            "school_name": "Egoli Primary School",
            "country_name": "South Africa",
            "connectivity": false
        },
        {
            "lon": 28.966,
            "lat": -24.95519,
            "school_name": "Refilwe Secondary School",
            "country_name": "South Africa",
            "connectivity": false
        },
        {
            "lon": 30.30853,
            "lat": -23.85712,
            "school_name": "Letaba Landgoed Primary School",
            "country_name": "South Africa",
            "connectivity": false
        },
        {
            "lon": 30.33121,
            "lat": -23.70382,
            "school_name": "Fobeni Secondary School",
            "country_name": "South Africa",
            "connectivity": false
        },
        {
            "lon": 30.40853,
            "lat": -29.60835,
            "school_name": "Saint Charles' College",
            "country_name": "South Africa",
            "connectivity": false
        },
        {
            "lon": 27.89407,
            "lat": -26.06751,
            "school_name": "Excelsior Learning Centre",
            "country_name": "South Africa",
            "connectivity": false
        },
        {
            "lon": 28.11664,
            "lat": -26.26863,
            "school_name": "Laerskool Generaal Alberts",
            "country_name": "South Africa",
            "connectivity": false
        },
        {
            "lon": 28.17483,
            "lat": -25.99073,
            "school_name": "Sedi Laka Primary School",
            "country_name": "South Africa",
            "connectivity": false
        },
        {
            "lon": 27.97447,
            "lat": -32.28893,
            "school_name": "Endleleni Junior Primary School",
            "country_name": "South Africa",
            "connectivity": false
        },
        {
            "lon": 27.62559,
            "lat": -28.3476,
            "school_name": "Primary School",
            "country_name": "South Africa",
            "connectivity": false
        },
        {
            "lon": 25.50433,
            "lat": -33.86717,
            "school_name": "Doctor AW Habelgaarn Primary School",
            "country_name": "South Africa",
            "connectivity": false
        },
        {
            "lon": 28.51982,
            "lat": -30.67349,
            "school_name": "Saint Thomas Junior Secondary School",
            "country_name": "South Africa",
            "connectivity": false
        },
        {
            "lon": 27.00625,
            "lat": -29.92538,
            "school_name": "Korea Intermediate Farm School",
            "country_name": "South Africa",
            "connectivity": false
        },
        {
            "lon": 28.02366,
            "lat": -28.79172,
            "school_name": "Barend Van Rensburg Primary School",
            "country_name": "South Africa",
            "connectivity": false
        },
        {
            "lon": 27.42075,
            "lat": -32.92588,
            "school_name": "Nozizwe Junior Primary School",
            "country_name": "South Africa",
            "connectivity": false
        },
        {
            "lon": 28.362,
            "lat": -32.27079,
            "school_name": "Nondwe Secondary School",
            "country_name": "South Africa",
            "connectivity": false
        },
        {
            "lon": 28.72598,
            "lat": -31.50173,
            "school_name": "Ncambele Junior Secondary School",
            "country_name": "South Africa",
            "connectivity": false
        },
        {
            "lon": 28.64842,
            "lat": -31.20047,
            "school_name": "Somerville Primary Junior School",
            "country_name": "South Africa",
            "connectivity": false
        },
        {
            "lon": -58.3095212,
            "lat": -37.8896724,
            "school_name": "ESCUELA PRIMARIA N\u00ba7 MARTIN MIGUEL DE G\u00dcEMES",
            "country_name": "Argentina",
            "connectivity": false
        },
        {
            "lon": -59.79577376,
            "lat": -37.67105638,
            "school_name": "ESCUELA SECUNDARIA N\u00ba2 JUAN JOSE BERNAL TORRES",
            "country_name": "Argentina",
            "connectivity": false
        },
        {
            "lon": -58.30739701,
            "lat": -34.69139259,
            "school_name": "CENTRO DE ADULTOS N\u00ba714/03",
            "country_name": "Argentina",
            "connectivity": false
        },
        {
            "lon": -58.57359522,
            "lat": -34.45121308,
            "school_name": "ESCUELA ASUNCION DE LA VIRGEN",
            "country_name": "Argentina",
            "connectivity": false
        },
        {
            "lon": -64.19635797,
            "lat": -31.38526095,
            "school_name": "ESCUELA ANTONIO DEL VISO",
            "country_name": "Argentina",
            "connectivity": false
        },
        {
            "lon": -58.80078883,
            "lat": -34.71643467,
            "school_name": "ESCUELA PRIMARIA N\u00ba59 PEDRO BENJAMIN PALACIOS",
            "country_name": "Argentina",
            "connectivity": false
        },
        {
            "lon": -59.09528979,
            "lat": -34.57871546,
            "school_name": "JARDIN DE INFANTES N\u00ba920",
            "country_name": "Argentina",
            "connectivity": false
        },
        {
            "lon": -58.61740472,
            "lat": -34.77093378,
            "school_name": "ESCUELA PRIMARIA N\u00ba119 BELISARIO ROLDAN",
            "country_name": "Argentina",
            "connectivity": false
        },
        {
            "lon": -61.847202,
            "lat": -34.4391246,
            "school_name": "ESCUELA PRIMARIA N\u00ba4 JOSE HERNANDEZ",
            "country_name": "Argentina",
            "connectivity": false
        },
        {
            "lon": -58.60019657,
            "lat": -34.67805374,
            "school_name": "CENTRO DE ALFABETIZACION N\u00ba55",
            "country_name": "Argentina",
            "connectivity": false
        },
        {
            "lon": -58.399846,
            "lat": -34.77684373,
            "school_name": "INSTITUTO COLEGIO GENERACION",
            "country_name": "Argentina",
            "connectivity": false
        },
        {
            "lon": -63.24645072,
            "lat": -37.16248756,
            "school_name": "CENTRO EDUCATIVO COMPLEMENTARIO N\u00ba1 PAULO FREIRE",
            "country_name": "Argentina",
            "connectivity": false
        },
        {
            "lon": -58.58475796,
            "lat": -34.49454311,
            "school_name": "ESC. SECUNDARIA BASICA N\u00ba11",
            "country_name": "Argentina",
            "connectivity": false
        },
        {
            "lon": -61.454839,
            "lat": -36.402429,
            "school_name": "ESCUELA DE EDUCACION DE ADULTOS N\u00ba705",
            "country_name": "Argentina",
            "connectivity": false
        },
        {
            "lon": -59.0986988,
            "lat": -34.2944973,
            "school_name": "CENTRO INVESTIGACION EDUCATIVA",
            "country_name": "Argentina",
            "connectivity": false
        },
        {
            "lon": -60.27800407,
            "lat": -27.04757791,
            "school_name": "JARDIN DE INFANTES N\u00ba 90-SOFIA LUQUE",
            "country_name": "Argentina",
            "connectivity": false
        },
        {
            "lon": -58.99493202,
            "lat": -27.45484094,
            "school_name": "PRIM.ADULTOS N\u00ba 36",
            "country_name": "Argentina",
            "connectivity": false
        },
        {
            "lon": -58.1200818,
            "lat": -31.38207068,
            "school_name": "ESCUELA SECUNDARIA 31",
            "country_name": "Argentina",
            "connectivity": false
        },
        {
            "lon": -58.31613073,
            "lat": -31.79225482,
            "school_name": "CENTRO EDUCATIVO INTEGRAL Y/O TERAPEUTICO 2",
            "country_name": "Argentina",
            "connectivity": false
        },
        {
            "lon": -61.1632628,
            "lat": -23.6727019,
            "school_name": "EPEP DE FRONTERA N\u00b0 4 PUERTO ARGENTINO",
            "country_name": "Argentina",
            "connectivity": false
        },
        {
            "lon": -61.55987847,
            "lat": -24.49000995,
            "school_name": "ESC.PRIV.EVANGELICA LAGUNA YACARE",
            "country_name": "Argentina",
            "connectivity": false
        },
        {
            "lon": -65.27625326,
            "lat": -24.27571413,
            "school_name": "ESCUELA N 322 INDEPENDENCIA DEL PERU",
            "country_name": "Argentina",
            "connectivity": false
        },
        {
            "lon": -54.4203778,
            "lat": -27.24022736,
            "school_name": "ESC. N\u00b0 646",
            "country_name": "Argentina",
            "connectivity": false
        },
        {
            "lon": -65.22381,
            "lat": -22.88858,
            "school_name": "AERONAUTICA ARGENTINA N\u00ba 4113 - EX N\u00b0 192",
            "country_name": "Argentina",
            "connectivity": false
        },
        {
            "lon": -61.52253765,
            "lat": -31.20350966,
            "school_name": "ESCUELA NRO 1304 VICENTE LOPEZ Y PLANES",
            "country_name": "Argentina",
            "connectivity": false
        },
        {
            "lon": -61.8445653,
            "lat": -29.1726341,
            "school_name": "C.E.R. NRO 420 GENERAL MANUEL BELGRANO",
            "country_name": "Argentina",
            "connectivity": false
        },
        {
            "lon": 6.208992,
            "lat": 5.67284,
            "school_name": "Name unknown",
            "country_name": "Nigeria",
            "connectivity": false
        },
        {
            "lon": 5.784284889,
            "lat": 5.535946541,
            "school_name": "Name unknown",
            "country_name": "Nigeria",
            "connectivity": false
        },
        {
            "lon": 7.313022,
            "lat": 5.174498,
            "school_name": "Name unknown",
            "country_name": "Nigeria",
            "connectivity": false
        },
        {
            "lon": 7.364461748,
            "lat": 5.147107426,
            "school_name": "Name unknown",
            "country_name": "Nigeria",
            "connectivity": false
        },
        {
            "lon": 7.422359,
            "lat": 5.961341,
            "school_name": "Name unknown",
            "country_name": "Nigeria",
            "connectivity": false
        },
        {
            "lon": 12.36928189,
            "lat": 10.6103426,
            "school_name": "Name unknown",
            "country_name": "Nigeria",
            "connectivity": false
        },
        {
            "lon": 8.04706,
            "lat": 6.135671667,
            "school_name": "Name unknown",
            "country_name": "Nigeria",
            "connectivity": false
        },
        {
            "lon": 8.071826667,
            "lat": 6.120983333,
            "school_name": "Name unknown",
            "country_name": "Nigeria",
            "connectivity": false
        },
        {
            "lon": 8.217665,
            "lat": 6.736603333,
            "school_name": "Name unknown",
            "country_name": "Nigeria",
            "connectivity": false
        },
        {
            "lon": 12.19123228,
            "lat": 10.50256886,
            "school_name": "Name unknown",
            "country_name": "Nigeria",
            "connectivity": false
        },
        {
            "lon": 11.92241188,
            "lat": 10.3452542,
            "school_name": "Name unknown",
            "country_name": "Nigeria",
            "connectivity": false
        },
        {
            "lon": 5.591618,
            "lat": 6.52955,
            "school_name": "Name unknown",
            "country_name": "Nigeria",
            "connectivity": false
        },
        {
            "lon": 5.480331667,
            "lat": 7.436843333,
            "school_name": "Name unknown",
            "country_name": "Nigeria",
            "connectivity": false
        },
        {
            "lon": 5.331205,
            "lat": 7.888398,
            "school_name": "Name unknown",
            "country_name": "Nigeria",
            "connectivity": false
        },
        {
            "lon": 7.24801,
            "lat": 6.353178333,
            "school_name": "Name unknown",
            "country_name": "Nigeria",
            "connectivity": false
        },
        {
            "lon": 7.3032,
            "lat": 6.431236,
            "school_name": "Name unknown",
            "country_name": "Nigeria",
            "connectivity": false
        },
        {
            "lon": 7.43618,
            "lat": 6.999998333,
            "school_name": "Name unknown",
            "country_name": "Nigeria",
            "connectivity": false
        },
        {
            "lon": 7.392975,
            "lat": 6.887663333,
            "school_name": "Name unknown",
            "country_name": "Nigeria",
            "connectivity": false
        },
        {
            "lon": 2.96171,
            "lat": 6.47309,
            "school_name": "Name unknown",
            "country_name": "Nigeria",
            "connectivity": false
        },
        {
            "lon": 2.98545,
            "lat": 6.45821,
            "school_name": "Name unknown",
            "country_name": "Nigeria",
            "connectivity": false
        },
        {
            "lon": 7.353493333,
            "lat": 6.743233333,
            "school_name": "Name unknown",
            "country_name": "Nigeria",
            "connectivity": false
        },
        {
            "lon": 7.24426,
            "lat": 6.80937,
            "school_name": "Name unknown",
            "country_name": "Nigeria",
            "connectivity": false
        },
        {
            "lon": 7.284921667,
            "lat": 6.839128333,
            "school_name": "Name unknown",
            "country_name": "Nigeria",
            "connectivity": false
        },
        {
            "lon": 11.38494,
            "lat": 9.813182,
            "school_name": "Name unknown",
            "country_name": "Nigeria",
            "connectivity": false
        },
        {
            "lon": 7.14639,
            "lat": 5.5892,
            "school_name": "Name unknown",
            "country_name": "Nigeria",
            "connectivity": false
        },
        {
            "lon": -71.2571,
            "lat": -14.2453,
            "school_name": "58",
            "country_name": "Peru",
            "connectivity": false
        },
        {
            "lon": -76.1381,
            "lat": -6.69261,
            "school_name": "759",
            "country_name": "Peru",
            "connectivity": false
        },
        {
            "lon": -76.4256,
            "lat": -6.7792,
            "school_name": "774",
            "country_name": "Peru",
            "connectivity": false
        },
        {
            "lon": -79.9339,
            "lat": -6.59883,
            "school_name": "10141 - 7 DE NOVIEMBRE",
            "country_name": "Peru",
            "connectivity": false
        },
        {
            "lon": -71.6044,
            "lat": -14.1227,
            "school_name": "1052",
            "country_name": "Peru",
            "connectivity": false
        },
        {
            "lon": -76.6993,
            "lat": -11.9421,
            "school_name": "1195 CESAR VALLEJO",
            "country_name": "Peru",
            "connectivity": false
        },
        {
            "lon": -70.2584,
            "lat": -15.6876,
            "school_name": "1271 EXALTACION-YANARICO",
            "country_name": "Peru",
            "connectivity": false
        },
        {
            "lon": -76.3477,
            "lat": -7.55584,
            "school_name": "1320",
            "country_name": "Peru",
            "connectivity": false
        },
        {
            "lon": -79.7837,
            "lat": -4.90385,
            "school_name": "14377",
            "country_name": "Peru",
            "connectivity": false
        },
        {
            "lon": -78.2702,
            "lat": -5.7959,
            "school_name": "17055",
            "country_name": "Peru",
            "connectivity": false
        },
        {
            "lon": -79.029,
            "lat": -5.53758,
            "school_name": "17532 VALENTIN PANIAGUA",
            "country_name": "Peru",
            "connectivity": false
        },
        {
            "lon": -79.1123,
            "lat": -5.00715,
            "school_name": "17672",
            "country_name": "Peru",
            "connectivity": false
        },
        {
            "lon": -78.6483,
            "lat": -7.45489,
            "school_name": "194",
            "country_name": "Peru",
            "connectivity": false
        },
        {
            "lon": -77.2912,
            "lat": -11.1328,
            "school_name": "20376",
            "country_name": "Peru",
            "connectivity": false
        },
        {
            "lon": -80.5044,
            "lat": -4.9214,
            "school_name": "20817",
            "country_name": "Peru",
            "connectivity": false
        },
        {
            "lon": -79.6994,
            "lat": -4.878,
            "school_name": "20842",
            "country_name": "Peru",
            "connectivity": false
        },
        {
            "lon": -77.1209,
            "lat": -11.994,
            "school_name": "2093 SANTA ROSA",
            "country_name": "Peru",
            "connectivity": false
        },
        {
            "lon": -71.3921,
            "lat": -13.9664,
            "school_name": "220",
            "country_name": "Peru",
            "connectivity": false
        },
        {
            "lon": -76.1599,
            "lat": -13.406,
            "school_name": "22254",
            "country_name": "Peru",
            "connectivity": false
        },
        {
            "lon": -74.9338,
            "lat": -14.8272,
            "school_name": "22402 MICAELA BASTIDAS",
            "country_name": "Peru",
            "connectivity": false
        },
        {
            "lon": -76.2028,
            "lat": -13.7042,
            "school_name": "22454 MIGUEL GRAU SEMINARIO",
            "country_name": "Peru",
            "connectivity": false
        },
        {
            "lon": -73.3499,
            "lat": -15.2288,
            "school_name": "277-28 RETO\u00d1OS DE SAN JUAN",
            "country_name": "Peru",
            "connectivity": false
        },
        {
            "lon": -74.2237,
            "lat": -8.03503,
            "school_name": "65169",
            "country_name": "Peru",
            "connectivity": false
        },
        {
            "lon": -78.2825,
            "lat": -5.74918,
            "school_name": "304",
            "country_name": "Peru",
            "connectivity": false
        },
        {
            "lon": -79.75,
            "lat": -5.18225,
            "school_name": "310",
            "country_name": "Peru",
            "connectivity": false
        },
        {
            "lon": -74.6174,
            "lat": -12.482,
            "school_name": "31276",
            "country_name": "Peru",
            "connectivity": false
        },
        {
            "lon": -75.0286,
            "lat": -11.0437,
            "school_name": "31844",
            "country_name": "Peru",
            "connectivity": false
        },
        {
            "lon": -76.718,
            "lat": -9.5914,
            "school_name": "32242 SAN MARTIN",
            "country_name": "Peru",
            "connectivity": false
        },
        {
            "lon": -74.9144,
            "lat": -12.7701,
            "school_name": "325 CAMINITOS DE JESUS",
            "country_name": "Peru",
            "connectivity": false
        },
        {
            "lon": -76.3432,
            "lat": -9.4781,
            "school_name": "32890",
            "country_name": "Peru",
            "connectivity": false
        },
        {
            "lon": -74.9326,
            "lat": -9.91087,
            "school_name": "34141",
            "country_name": "Peru",
            "connectivity": false
        },
        {
            "lon": -75.5321,
            "lat": -9.91393,
            "school_name": "34264 JORGE CHAVEZ",
            "country_name": "Peru",
            "connectivity": false
        },
        {
            "lon": -75.9458,
            "lat": -13.7257,
            "school_name": "360",
            "country_name": "Peru",
            "connectivity": false
        },
        {
            "lon": 7.99268,
            "lat": 6.1379,
            "school_name": "Name unknown",
            "country_name": "Nigeria",
            "connectivity": false
        },
        {
            "lon": -74.7433,
            "lat": -12.7825,
            "school_name": "36383",
            "country_name": "Peru",
            "connectivity": false
        },
        {
            "lon": -74.9546,
            "lat": -12.6436,
            "school_name": "36545",
            "country_name": "Peru",
            "connectivity": false
        },
        {
            "lon": -71.5573,
            "lat": -16.4411,
            "school_name": "40043 NUESTRA SE\u00d1ORA DE LA MEDALLA MILAGROSA",
            "country_name": "Peru",
            "connectivity": false
        },
        {
            "lon": -71.5686,
            "lat": -16.4011,
            "school_name": "40106 JUAN SANTOS ATAHUALPA",
            "country_name": "Peru",
            "connectivity": false
        },
        {
            "lon": -78.9342,
            "lat": -5.61853,
            "school_name": "489 MANITOS LIMPIAS",
            "country_name": "Peru",
            "connectivity": false
        },
        {
            "lon": -71.9652,
            "lat": -12.9905,
            "school_name": "501126",
            "country_name": "Peru",
            "connectivity": false
        },
        {
            "lon": -72.2324,
            "lat": -13.6269,
            "school_name": "50117 CHINCHAYPUCYO",
            "country_name": "Peru",
            "connectivity": false
        },
        {
            "lon": -72.5173,
            "lat": -12.4053,
            "school_name": "50817",
            "country_name": "Peru",
            "connectivity": false
        },
        {
            "lon": -75.0328,
            "lat": -12.5701,
            "school_name": "519",
            "country_name": "Peru",
            "connectivity": false
        },
        {
            "lon": -72.9021,
            "lat": -5.32894,
            "school_name": "6010192",
            "country_name": "Peru",
            "connectivity": false
        },
        {
            "lon": -75.7088,
            "lat": -4.51551,
            "school_name": "60997",
            "country_name": "Peru",
            "connectivity": false
        },
        {
            "lon": -75.2102,
            "lat": -8.82734,
            "school_name": "64027",
            "country_name": "Peru",
            "connectivity": false
        },
        {
            "lon": -73.0465,
            "lat": -3.50149,
            "school_name": "664",
            "country_name": "Peru",
            "connectivity": false
        },
        {
            "lon": -70.4868,
            "lat": -14.8369,
            "school_name": "70840",
            "country_name": "Peru",
            "connectivity": false
        },
        {
            "lon": -70.0642,
            "lat": -15.0448,
            "school_name": "72032",
            "country_name": "Peru",
            "connectivity": false
        },
        {
            "lon": -70.4414,
            "lat": -14.0255,
            "school_name": "72228",
            "country_name": "Peru",
            "connectivity": false
        },
        {
            "lon": -72.2905,
            "lat": -14.1491,
            "school_name": "788 QUEU\u00d1A",
            "country_name": "Peru",
            "connectivity": false
        },
        {
            "lon": -78.5183,
            "lat": -7.94349,
            "school_name": "80287",
            "country_name": "Peru",
            "connectivity": false
        },
        {
            "lon": -77.6542,
            "lat": -9.54738,
            "school_name": "86129",
            "country_name": "Peru",
            "connectivity": false
        },
        {
            "lon": -77.0274,
            "lat": -9.10734,
            "school_name": "86957",
            "country_name": "Peru",
            "connectivity": false
        },
        {
            "lon": -74.5375,
            "lat": -8.34497,
            "school_name": "CAMINANDO CON JESUS II",
            "country_name": "Peru",
            "connectivity": false
        },
        {
            "lon": -76.9973,
            "lat": -11.9386,
            "school_name": "CASA BLANCA DE JESUS",
            "country_name": "Peru",
            "connectivity": false
        },
        {
            "lon": -76.5901,
            "lat": -7.0605,
            "school_name": "CEBA - 0050 ABRAHAM CARDENAS RUIZ",
            "country_name": "Peru",
            "connectivity": false
        },
        {
            "lon": -78.3363,
            "lat": -6.82948,
            "school_name": "CEGECOM ALTO CO\u00d1ICORGUE",
            "country_name": "Peru",
            "connectivity": false
        },
        {
            "lon": -75.1886,
            "lat": -12.0379,
            "school_name": "INNOVA SCHOOLS HUANCAYO",
            "country_name": "Peru",
            "connectivity": false
        },
        {
            "lon": -75.2086,
            "lat": -12.1054,
            "school_name": "KEPLER",
            "country_name": "Peru",
            "connectivity": false
        },
        {
            "lon": -78.8512,
            "lat": -6.51783,
            "school_name": "LOS JAZMINES",
            "country_name": "Peru",
            "connectivity": false
        },
        {
            "lon": -78.5042,
            "lat": -7.18564,
            "school_name": "LOS EUCALIPTOS",
            "country_name": "Peru",
            "connectivity": false
        },
        {
            "lon": -78.1646,
            "lat": -9.07332,
            "school_name": "LUCERITOS DE JESUS",
            "country_name": "Peru",
            "connectivity": false
        },
        {
            "lon": -78.4965,
            "lat": -5.8572,
            "school_name": "MANUEL SEOANE CORRALES",
            "country_name": "Peru",
            "connectivity": false
        },
        {
            "lon": -80.6206,
            "lat": -5.20439,
            "school_name": "NUESTRA SE\u00d1ORA DEL TRANSITO",
            "country_name": "Peru",
            "connectivity": false
        },
        {
            "lon": -79.8969,
            "lat": -6.8061,
            "school_name": "PERUANO CHINO DIEZ DE OCTUBRE",
            "country_name": "Peru",
            "connectivity": false
        },
        {
            "lon": -75.7483,
            "lat": -14.0793,
            "school_name": "PERUANO CROATA",
            "country_name": "Peru",
            "connectivity": false
        },