{
    "name": "Patchwork Kingdom #192 | Teropor",
    "description": "The twin kingdoms of Teropor, separated by a digital divide. A bustling kingdom of 232 schools on top that are all connected to the internet, and 148 schools, not connected, hidden in the upside down kingdom | Created for Giga (GigaConnect.org) \u2014 connecting every school in the world \u2014 in celebration of UNICEF's 75th birthday, by Nadieh Bremer",
    "external_url": "https://dummyURL.com/patchwork_kingdoms_192",
    "image": "https://dummy-storage-url.com/patchwork_kingdoms_192.png",
    "attributes": [
        {
            "trait_type": "Color palette",
            "value": "narwal"
        },
        {
            "display_type": "number",
            "trait_type": "Schools",
            "value": 413,
            "max_value": 460
        },
        {
            "display_type": "number",
            "trait_type": "Ratio - Connected",
            "value": 0.56,
            "max_value": 1
        },
        {
            "display_type": "number",
            "trait_type": "Ratio - Unconnected",
            "value": 0.36,
            "max_value": 1
        },
        {
            "display_type": "number",
            "trait_type": "Ratio - Data unavailable",
            "value": 0.08,
            "max_value": 1
        },
        {
            "trait_type": "Countries",
            "value": "BR-CO-CR-GD-HN-KG-KZ-NA-PH-PS-RW-SL-ZW"
        },
        {
            "display_type": "number",
            "trait_type": "Symbols",
            "value": 46,
            "max_value": 51
        }
    ],
    "cluster_id": 192,
    "num_schools": 413,
    "num_schools_connected": 232,
    "num_schools_unconnected": 148,
    "num_schools_unknown": 33,
    "schools": [
        {
            "lon": -88.27758,
            "lat": 14.51516,
            "school_name": "LAS BRISAS",
            "country_name": "Honduras",
            "connectivity": true
        },
        {
            "lon": -86.90155,
            "lat": 15.74182,
            "school_name": "ESCUELA SEMILLA DE ESPERANZA",
            "country_name": "Honduras",
            "connectivity": true
        },
        {
            "lon": -88.03971,
            "lat": 14.13976,
            "school_name": "FRANCISCO EDGARDO GUEVARA",
            "country_name": "Honduras",
            "connectivity": true
        },
        {
            "lon": -85.83801,
            "lat": 14.20452,
            "school_name": "9 DE FEBRERO",
            "country_name": "Honduras",
            "connectivity": true
        },
        {
            "lon": -86.83866,
            "lat": 14.00743,
            "school_name": "MIGUEL ANTONIO CARIAS",
            "country_name": "Honduras",
            "connectivity": true
        },
        {
            "lon": -52.624443,
            "lat": -24.097414,
            "school_name": "FAROL E E DE EF",
            "country_name": "Brazil",
            "connectivity": true
        },
        {
            "lon": -87.23299,
            "lat": 15.03277,
            "school_name": "LOS PINARES",
            "country_name": "Honduras",
            "connectivity": true
        },
        {
            "lon": -88.04087,
            "lat": 14.96451,
            "school_name": "JULIO CESAR PINEDA",
            "country_name": "Honduras",
            "connectivity": true
        },
        {
            "lon": -87.18026,
            "lat": 14.07061,
            "school_name": "MARCO A NTONIO ANDINO",
            "country_name": "Honduras",
            "connectivity": true
        },
        {
            "lon": 32.71208,
            "lat": -19.87746,
            "school_name": "TIYA",
            "country_name": "Zimbabwe",
            "connectivity": true
        },
        {
            "lon": 31.13771,
            "lat": -17.02558,
            "school_name": "NYAKUDYA",
            "country_name": "Zimbabwe",
            "connectivity": true
        },
        {
            "lon": 30.79463,
            "lat": -16.32011,
            "school_name": "KASUWO",
            "country_name": "Zimbabwe",
            "connectivity": true
        },
        {
            "lon": -74.50476433,
            "lat": 5.803956046,
            "school_name": "ESC EL PESCADO",
            "country_name": "Colombia",
            "connectivity": true
        },
        {
            "lon": -52.445,
            "lat": -23.1015,
            "school_name": "MENINO DAVI C M E I",
            "country_name": "Brazil",
            "connectivity": true
        },
        {
            "lon": 29.36089,
            "lat": -2.14933,
            "school_name": "KIZIBA",
            "country_name": "Rwanda",
            "connectivity": false
        },
        {
            "lon": -84.08370034,
            "lat": 9.90786333,
            "school_name": "REPUBLICA DE HAITI",
            "country_name": "Costa Rica",
            "connectivity": true
        },
        {
            "lon": -83.66835658,
            "lat": 9.33603781,
            "school_name": "DANIEL FLORES ZAVALETA",
            "country_name": "Costa Rica",
            "connectivity": true
        },
        {
            "lon": -84.5492567,
            "lat": 9.94508418,
            "school_name": "RAMADAS",
            "country_name": "Costa Rica",
            "connectivity": true
        },
        {
            "lon": -83.68685577,
            "lat": 9.83618979,
            "school_name": "ORIENTE",
            "country_name": "Costa Rica",
            "connectivity": true
        },
        {
            "lon": -85.48069529,
            "lat": 9.96025557,
            "school_name": "CONCEPCION",
            "country_name": "Costa Rica",
            "connectivity": true
        },
        {
            "lon": -72.46089536,
            "lat": 4.317895327,
            "school_name": "SEDE PRINCIPAL - PUERTO GUADALUPE",
            "country_name": "Colombia",
            "connectivity": true
        },
        {
            "lon": -77.503056,
            "lat": 1.260278,
            "school_name": "ESCUELA RURAL MIXTA EL HATILLO",
            "country_name": "Colombia",
            "connectivity": true
        },
        {
            "lon": -83.50413039,
            "lat": 8.92272134,
            "school_name": "FINCA CINCO",
            "country_name": "Costa Rica",
            "connectivity": true
        },
        {
            "lon": 35.215358,
            "lat": 32.283693,
            "school_name": "nesf ejbail basic moktalata",
            "country_name": "Palestine",
            "connectivity": true
        },
        {
            "lon": 35.142235,
            "lat": 31.833442,
            "school_name": "almalik kazi secondary boys school",
            "country_name": "Palestine",
            "connectivity": true
        },
        {
            "lon": -74.763607,
            "lat": 8.769733,
            "school_name": "CENTRO EDUCATIVO DIVINO NI\u00d1O",
            "country_name": "Colombia",
            "connectivity": true
        },
        {
            "lon": 35.024591,
            "lat": 31.597611,
            "school_name": "\u0634\u0647\u062f\u0627\u0621 \u0628\u064a\u062a \u0627\u0648\u0644\u0627 \u0627\u0644\u0627\u0633\u0627\u0633\u064a\u0629 \u0644\u0644\u0628\u0646\u064a\u0646",
            "country_name": "Palestine",
            "connectivity": true
        },
        {
            "lon": 35.096325,
            "lat": 31.530413,
            "school_name": "Al mostaqbal  private",
            "country_name": "Palestine",
            "connectivity": true
        },
        {
            "lon": -84.73563299,
            "lat": 9.98139737,
            "school_name": "J.N. EL ROBLE",
            "country_name": "Costa Rica",
            "connectivity": true
        },
        {
            "lon": -83.64919498,
            "lat": 10.49685852,
            "school_name": "LA ILUSION DE CANTA GALLO",
            "country_name": "Costa Rica",
            "connectivity": true
        },
        {
            "lon": -46.8538,
            "lat": -23.2143,
            "school_name": "JOAO BAPTISTA NALINI PROFCENTRO MUN DE EDUC BASICA",
            "country_name": "Brazil",
            "connectivity": true
        },
        {
            "lon": 27.24499,
            "lat": -18.639,
            "school_name": "MAZWA",
            "country_name": "Zimbabwe",
            "connectivity": true
        },
        {
            "lon": 28.62268,
            "lat": -20.47118,
            "school_name": "TOHWE",
            "country_name": "Zimbabwe",
            "connectivity": true
        },
        {
            "lon": -46.5117,
            "lat": -23.5763,
            "school_name": "DUQUE DE CAXIAS",
            "country_name": "Brazil",
            "connectivity": true
        },
        {
            "lon": -41.0161,
            "lat": -19.0595,
            "school_name": "EMEI ARMEZINA DO AMARAL RAMOS",
            "country_name": "Brazil",
            "connectivity": true
        },
        {
            "lon": -75.68446242,
            "lat": 1.776342243,
            "school_name": "Name unknown",
            "country_name": "Colombia",
            "connectivity": false
        },
        {
            "lon": -51.1518,
            "lat": -29.7307,
            "school_name": "ESC EST ENS FUN PROF AUGUSTO MEYER",
            "country_name": "Brazil",
            "connectivity": true
        },
        {
            "lon": -75.93,
            "lat": 1.974166667,
            "school_name": "SANTA LUCIA",
            "country_name": "Colombia",
            "connectivity": true
        },
        {
            "lon": -74.14078007,
            "lat": 4.56191666,
            "school_name": "Name unknown",
            "country_name": "Colombia",
            "connectivity": false
        },
        {
            "lon": -74.10922438,
            "lat": 4.548603891,
            "school_name": "Name unknown",
            "country_name": "Colombia",
            "connectivity": false
        },
        {
            "lon": -74.07816653,
            "lat": 4.715728809,
            "school_name": "Name unknown",
            "country_name": "Colombia",
            "connectivity": false
        },
        {
            "lon": 17.485298,
            "lat": -17.699593,
            "school_name": "Mawila JP",
            "country_name": "Namibia",
            "connectivity": false
        },
        {
            "lon": 120.4370861,
            "lat": 17.28691944,
            "school_name": "Sabangan ES",
            "country_name": "Philippines",
            "connectivity": true
        },
        {
            "lon": 122.014674,
            "lat": 16.982484,
            "school_name": "San Mariano Central School SPED Center",
            "country_name": "Philippines",
            "connectivity": true
        },
        {
            "lon": 121.604598,
            "lat": 16.852538,
            "school_name": "Victoria ES",
            "country_name": "Philippines",
            "connectivity": true
        },
        {
            "lon": 120.94912,
            "lat": 12.648687,
            "school_name": "Malpalon National High School",
            "country_name": "Philippines",
            "connectivity": true
        },
        {
            "lon": 121.850653,
            "lat": 13.913157,
            "school_name": "Pinaninding ES",
            "country_name": "Philippines",
            "connectivity": true
        },
        {
            "lon": 122.2916913,
            "lat": 12.59168193,
            "school_name": "Guimpingan ES",
            "country_name": "Philippines",
            "connectivity": true
        },
        {
            "lon": 123.7146509,
            "lat": 13.17429876,
            "school_name": "Alcala ES",
            "country_name": "Philippines",
            "connectivity": true
        },
        {
            "lon": 122.543373,
            "lat": 10.71848,
            "school_name": "A. Mirasol ES",
            "country_name": "Philippines",
            "connectivity": true
        },
        {
            "lon": 124.270316,
            "lat": 9.787494,
            "school_name": "Bugsoc ES",
            "country_name": "Philippines",
            "connectivity": true
        },
        {
            "lon": 124.433502,
            "lat": 9.799399,
            "school_name": "Cabugan ES",
            "country_name": "Philippines",
            "connectivity": true
        },
        {
            "lon": 123.2366787,
            "lat": 10.26433664,
            "school_name": "Calabaclabacan ES",
            "country_name": "Philippines",
            "connectivity": true
        },
        {
            "lon": 124.9272347,
            "lat": 11.11899138,
            "school_name": "Canino-an ES",
            "country_name": "Philippines",
            "connectivity": true
        },
        {
            "lon": 124.692027,
            "lat": 12.075578,
            "school_name": "Curry ES",
            "country_name": "Philippines",
            "connectivity": true
        },
        {
            "lon": 124.7875094,
            "lat": 10.33404704,
            "school_name": "Dolho Elementary School",
            "country_name": "Philippines",
            "connectivity": true
        },
        {
            "lon": 123.540549,
            "lat": 8.212021,
            "school_name": "Leonardo ES",
            "country_name": "Philippines",
            "connectivity": true
        },
        {
            "lon": 125.93332,
            "lat": 7.500381,
            "school_name": "Tan-Awan ES",
            "country_name": "Philippines",
            "connectivity": true
        },
        {
            "lon": 124.2652778,
            "lat": 7.249722222,
            "school_name": "Hadji Edza Memo. ES.",
            "country_name": "Philippines",
            "connectivity": true
        },
        {
            "lon": 120.8944444,
            "lat": 16.85166667,
            "school_name": "Bebe ES",
            "country_name": "Philippines",
            "connectivity": true
        },
        {
            "lon": -43.730392,
            "lat": -19.522173,
            "school_name": "EM DEOLINDA DIAS DUARTE",
            "country_name": "Brazil",
            "connectivity": true
        },
        {
            "lon": -44.64549,
            "lat": -20.54577,
            "school_name": "EM PROFESSORA CONCEICAO RABELO DE AVELAR",
            "country_name": "Brazil",
            "connectivity": true
        },
        {
            "lon": -49.840893,
            "lat": -18.931276,
            "school_name": "EM JOAO BORGES DE CASTRO",
            "country_name": "Brazil",
            "connectivity": true
        },
        {
            "lon": -49.4745,
            "lat": -18.9966,
            "school_name": "EM NADIME DERZE JORGE",
            "country_name": "Brazil",
            "connectivity": true
        },
        {
            "lon": -87.44198,
            "lat": 15.02397,
            "school_name": "CARLOS ROBERTO FLORES",
            "country_name": "Honduras",
            "connectivity": true
        },
        {
            "lon": -85.61261,
            "lat": 15.77527,
            "school_name": "14 DE SEPTIEMBRE",
            "country_name": "Honduras",
            "connectivity": true
        },
        {
            "lon": 123.0583593,
            "lat": 13.10664347,
            "school_name": "Cueva ES",
            "country_name": "Philippines",
            "connectivity": true
        },
        {
            "lon": -70.041267,
            "lat": -4.102542,
            "school_name": "INSTITUCION EDUCATIVA INDIGENA MARIA AUXILIADORA",
            "country_name": "Colombia",
            "connectivity": true
        },
        {
            "lon": -72.50583333,
            "lat": 7.933333333,
            "school_name": "INST EDUC COL MUNICIPAL AEROPUERTO",
            "country_name": "Colombia",
            "connectivity": true
        },
        {
            "lon": -72.162778,
            "lat": 5.830556,
            "school_name": "SAGRADO CORAZON",
            "country_name": "Colombia",
            "connectivity": true
        },
        {
            "lon": -72.50966667,
            "lat": 8.27536111,
            "school_name": "CENT EDUC MONTEVERDE",
            "country_name": "Colombia",
            "connectivity": true
        },
        {
            "lon": -72.42183273,
            "lat": 11.74268651,
            "school_name": "ESCUELA RURAL IND\u00cdGENA SHORSHIMANA",
            "country_name": "Colombia",
            "connectivity": true
        },
        {
            "lon": -72.74649361,
            "lat": 7.462015581,
            "school_name": "SEDE SAN MIGUEL BAJO",
            "country_name": "Colombia",
            "connectivity": true
        },
        {
            "lon": -73.04,
            "lat": 6.295833333,
            "school_name": "ESCUELA RURAL EL ANZUELO",
            "country_name": "Colombia",
            "connectivity": true
        },
        {
            "lon": -73.0728175,
            "lat": 7.621123686,
            "school_name": "SEDE MARAVILLAS",
            "country_name": "Colombia",
            "connectivity": true
        },
        {
            "lon": -73.17,
            "lat": 6.63,
            "school_name": "ESCUELA RURAL EL SALITRE",
            "country_name": "Colombia",
            "connectivity": true
        },
        {
            "lon": -73.20944444,
            "lat": 5.51027777,
            "school_name": "SAN JUAN BOSCO",
            "country_name": "Colombia",
            "connectivity": true
        },
        {
            "lon": -73.6217978,
            "lat": 4.147881764,
            "school_name": "SAN LUIS DE BOYACA",
            "country_name": "Colombia",
            "connectivity": true
        },
        {
            "lon": -73.42707752,
            "lat": 8.479138389,
            "school_name": "SEDE SAN FRANCISCO",
            "country_name": "Colombia",
            "connectivity": true
        },
        {
            "lon": -74.23194444,
            "lat": 9.195,
            "school_name": "ERM PETRONA RANGEL",
            "country_name": "Colombia",
            "connectivity": true
        },
        {
            "lon": -74.994722,
            "lat": 6.871944,
            "school_name": "I. E. R. CARLOS SANTAMARIA ARANGO",
            "country_name": "Colombia",
            "connectivity": true
        },
        {
            "lon": -74.81428647,
            "lat": 10.94949896,
            "school_name": "INST. EDUC. DIST. TIERRA SANTA (ANT. C.E.B. # 163)",
            "country_name": "Colombia",
            "connectivity": true
        },
        {
            "lon": -75.27511111,
            "lat": 0.732477778,
            "school_name": "INDIGENA EL DIAMANTE",
            "country_name": "Colombia",
            "connectivity": true
        },
        {
            "lon": -75.188056,
            "lat": 6.485278,
            "school_name": "C. E. R. PLAYAS",
            "country_name": "Colombia",
            "connectivity": true
        },
        {
            "lon": -75.166119,
            "lat": 5.387214,
            "school_name": "INSTITUCI\u00d3N EDUCATIVA SANTA RITA - SEDE PRINCIPAL",
            "country_name": "Colombia",
            "connectivity": true
        },
        {
            "lon": -75.210648,
            "lat": 4.477472,
            "school_name": "SEDE 2 ANDRES LOPEZ DE GALARZA",
            "country_name": "Colombia",
            "connectivity": true
        },
        {
            "lon": -75.28381417,
            "lat": 2.940867489,
            "school_name": "MARTHA TELLO",
            "country_name": "Colombia",
            "connectivity": true
        },
        {
            "lon": -75.11555556,
            "lat": 7.75777777,
            "school_name": "E. R. AGUA LINDA",
            "country_name": "Colombia",
            "connectivity": true
        },
        {
            "lon": -75.275807,
            "lat": 7.004089,
            "school_name": "C. E. R.  NINFA AGUDELO",
            "country_name": "Colombia",
            "connectivity": true
        },
        {
            "lon": -75.501667,
            "lat": 5.244722,
            "school_name": "ESCUELA RURAL SANTA CECILIA",
            "country_name": "Colombia",
            "connectivity": true
        },
        {
            "lon": -75.916396,
            "lat": 5.148041,
            "school_name": "SE GUARNE",
            "country_name": "Colombia",
            "connectivity": true
        },
        {
            "lon": -76.16801966,
            "lat": 4.1773385,
            "school_name": "SIMON BOLIVAR",
            "country_name": "Colombia",
            "connectivity": true
        },
        {
            "lon": -76.265,
            "lat": 6.806667,
            "school_name": "C. E. R. LA CAMPI\u00d1A",
            "country_name": "Colombia",
            "connectivity": true
        },
        {
            "lon": -76.3346736,
            "lat": 5.289968677,
            "school_name": "SEDE PLAYA DE ORO",
            "country_name": "Colombia",
            "connectivity": true
        },
        {
            "lon": -76.3,
            "lat": 2.62,
            "school_name": "CENTRO DOCENTE RURAL MIXTO EL PUEBLITO",
            "country_name": "Colombia",
            "connectivity": true
        },
        {
            "lon": -76.50159835,
            "lat": 3.446199025,
            "school_name": "SANTISIMA TRINIDAD",
            "country_name": "Colombia",
            "connectivity": true
        },
        {
            "lon": -76.45306403,
            "lat": 4.989064677,
            "school_name": "SEDE SAN JUAN DE IRABUBU",
            "country_name": "Colombia",
            "connectivity": true
        },
        {
            "lon": -76.49721111,
            "lat": 4.400447222,
            "school_name": "CACIQUE CORTES",
            "country_name": "Colombia",
            "connectivity": true
        },
        {
            "lon": -77.298847,
            "lat": 1.1657,
            "school_name": "I.E.M. SANTA TERESITA - SEDE PRINCIPAL",
            "country_name": "Colombia",
            "connectivity": true
        },
        {
            "lon": -77.45872763,
            "lat": 2.707903461,
            "school_name": "SANTA ROSA (sede principal)",
            "country_name": "Colombia",
            "connectivity": true
        },
        {
            "lon": -34.9238,
            "lat": -8.1979,
            "school_name": "ESCOLA MUNICIPAL UBALDINO FIGUEIROA",
            "country_name": "Brazil",
            "connectivity": true
        },
        {
            "lon": -77.59066545,
            "lat": 1.861842038,
            "school_name": "CENTRO EDUCATIVO NUEVA ESPERANZA - SEDE PRINCIPAL",
            "country_name": "Colombia",
            "connectivity": true
        },
        {
            "lon": -78.90569644,
            "lat": 1.59375092,
            "school_name": "SEDE # 1 BAJO MIRA Y FRONTERA",
            "country_name": "Colombia",
            "connectivity": true
        },
        {
            "lon": -40.5753,
            "lat": -20.764,
            "school_name": "EMEIEF PROFESSORA MARIA LUIZA FLORES",
            "country_name": "Brazil",
            "connectivity": true
        },
        {
            "lon": -61.3798,
            "lat": -11.4796,
            "school_name": "IFRO - CAMPUS CACOAL",
            "country_name": "Brazil",
            "connectivity": true
        },
        {
            "lon": -60.0028,
            "lat": -3.1129,
            "school_name": "ESCOLA ESTADUAL PADRE AGOSTINHO MARTIN",
            "country_name": "Brazil",
            "connectivity": true
        },
        {
            "lon": -57.4853,
            "lat": -3.0344,
            "school_name": "ESC MUNICIPAL SAO MIGUEL",
            "country_name": "Brazil",
            "connectivity": false
        },
        {
            "lon": -49.9261,
            "lat": -0.618,
            "school_name": "E M E F EUCLIDES VILHENA",
            "country_name": "Brazil",
            "connectivity": false
        },
        {
            "lon": -50.4793,
            "lat": -1.6749,
            "school_name": "E M E I PINGO DE GENTE",
            "country_name": "Brazil",
            "connectivity": true
        },
        {
            "lon": -43.6268,
            "lat": -4.9841,
            "school_name": "UIM LOURDES ITAPARY MOREIRA",
            "country_name": "Brazil",
            "connectivity": true
        },
        {
            "lon": -50.2111,
            "lat": -1.5119,
            "school_name": "E M E I F LIVRAMENTO",
            "country_name": "Brazil",
            "connectivity": false
        },
        {
            "lon": -48.2534,
            "lat": -1.3582,
            "school_name": "EEEFM PROF DEUSARINA NASCIMENTO SOUZA",
            "country_name": "Brazil",
            "connectivity": true
        },
        {
            "lon": -47.8216,
            "lat": -0.9255,
            "school_name": "E M E I F DE BOA FE",
            "country_name": "Brazil",
            "connectivity": false
        },
        {
            "lon": -47.7103,
            "lat": -1.745,
            "school_name": "E M E F NOVA ESPERANCA",
            "country_name": "Brazil",
            "connectivity": false
        },
        {
            "lon": -50.237,
            "lat": -0.3146,
            "school_name": "E M E F JOAQUIM FRANCA",
            "country_name": "Brazil",
            "connectivity": false
        },
        {
            "lon": -53.6558,
            "lat": -3.8901,
            "school_name": "E M E F PARAISO",
            "country_name": "Brazil",
            "connectivity": false
        },
        {
            "lon": -50.011,
            "lat": -3.3625,
            "school_name": "E M E F BOM FUTURO",
            "country_name": "Brazil",
            "connectivity": true
        },
        {
            "lon": -43.8663,
            "lat": -16.7183,
            "school_name": "EE CARLOS VERSIANI",
            "country_name": "Brazil",
            "connectivity": true
        },
        {
            "lon": -50.9393,
            "lat": -0.9121,
            "school_name": "E M E F SANTA TEREZINHA RIO ITUQUARA",
            "country_name": "Brazil",
            "connectivity": false
        },
        {
            "lon": -49.0178,
            "lat": -5.8692,
            "school_name": "E M E F ANDORINHA",
            "country_name": "Brazil",
            "connectivity": false
        },
        {
            "lon": -49.7294,
            "lat": -18.2258,
            "school_name": "ESCOLA MUNICIPALIZADA OLINA CASTANHEIRA",
            "country_name": "Brazil",
            "connectivity": true
        },
        {
            "lon": -47.9661,
            "lat": -1.4438,
            "school_name": "E M E F ALZIRA LUZ",
            "country_name": "Brazil",
            "connectivity": false
        },
        {
            "lon": -48.2201,
            "lat": -7.3286,
            "school_name": "ESCOLA MUNICIPAL NPA NUCLEO DE PROD AGRICOLA DE ARAGUAINA",
            "country_name": "Brazil",
            "connectivity": false
        },
        {
            "lon": -44.0814,
            "lat": -2.5499,
            "school_name": "EM JOSE GREGORIO BOTAO",
            "country_name": "Brazil",
            "connectivity": true
        },
        {
            "lon": -45.4106,
            "lat": -2.5472,
            "school_name": "EM FIRMO DE JESUS",
            "country_name": "Brazil",
            "connectivity": false
        },
        {
            "lon": -43.8979,
            "lat": -3.6916,
            "school_name": "EMEB PROFESSOR SOLANO",
            "country_name": "Brazil",
            "connectivity": false
        },
        {
            "lon": -45.6053,
            "lat": -1.4854,
            "school_name": "UI ARTEMISA PAZ ALMEIDA",
            "country_name": "Brazil",
            "connectivity": true
        },
        {
            "lon": -45.6527,
            "lat": -3.2774,
            "school_name": "EM PRINCESA ISABEL",
            "country_name": "Brazil",
            "connectivity": false
        },
        {
            "lon": -45.0459,
            "lat": -4.4789,
            "school_name": "UNIDADE ESCOLAR VAGNO VIEIRA MELO",
            "country_name": "Brazil",
            "connectivity": true
        },
        {
            "lon": -44.5378,
            "lat": -4.1177,
            "school_name": "UEF SAGRADO CORACAO DE JESUS",
            "country_name": "Brazil",
            "connectivity": false
        },
        {
            "lon": -45.6152,
            "lat": -5.17,
            "school_name": "UE SAO PEDRO",
            "country_name": "Brazil",
            "connectivity": false
        },
        {
            "lon": -43.2045,
            "lat": -4.4449,
            "school_name": "ESC SAO FRANCISCO DE ASSIS",
            "country_name": "Brazil",
            "connectivity": false
        },
        {
            "lon": -44.4602,
            "lat": -5.9911,
            "school_name": "UE ISABEL CAFETEIRA",
            "country_name": "Brazil",
            "connectivity": false
        },
        {
            "lon": -47.4255,
            "lat": -6.5622,
            "school_name": "EM JOANA DARC",
            "country_name": "Brazil",
            "connectivity": true
        },
        {
            "lon": -43.5798,
            "lat": -6.4562,
            "school_name": "EM EDILEUSA FERREIRA DA SILVA",
            "country_name": "Brazil",
            "connectivity": false
        },
        {
            "lon": -45.8968,
            "lat": -1.3264,
            "school_name": "UI AUREMAR TEIXEIRA RIBEIRO",
            "country_name": "Brazil",
            "connectivity": true
        },
        {
            "lon": -46.4715,
            "lat": -4.1989,
            "school_name": "EM VIEIRA LIMA",
            "country_name": "Brazil",
            "connectivity": false
        },
        {
            "lon": -45.054,
            "lat": -4.6036,
            "school_name": "CRECHE VOVO CACILDA LEDA",
            "country_name": "Brazil",
            "connectivity": false
        },
        {
            "lon": -44.8409,
            "lat": -2.6972,
            "school_name": "ESCOLINHA MENINO JESUS",
            "country_name": "Brazil",
            "connectivity": false
        },
        {
            "lon": -42.3738,
            "lat": -3.4576,
            "school_name": "U E LUIS TEIXEIRA",
            "country_name": "Brazil",
            "connectivity": true
        },
        {
            "lon": -47.4638,
            "lat": -5.5031,
            "school_name": "CRECHE MORANGUINHO",
            "country_name": "Brazil",
            "connectivity": false
        },
        {
            "lon": -42.6814,
            "lat": -5.3528,
            "school_name": "ESC MUN TIA MARGARIDA",
            "country_name": "Brazil",
            "connectivity": true
        },
        {
            "lon": -42.8277,
            "lat": -5.0026,
            "school_name": "ESCOLA MUNICIPAL CLIDENOR DE FREITAS SANTOS",
            "country_name": "Brazil",
            "connectivity": true
        },
        {
            "lon": -40.8648,
            "lat": -2.8961,
            "school_name": "IDELZUITE TAVARES CARNEIRO EEF",
            "country_name": "Brazil",
            "connectivity": true
        },
        {
            "lon": -39.0066,
            "lat": -7.6885,
            "school_name": "PADRE MANOEL ALVES FEITOSA EMEIF",
            "country_name": "Brazil",
            "connectivity": true
        },
        {
            "lon": -40.8431,
            "lat": -2.9018,
            "school_name": "MURILO AGUIAR FILHO CEI",
            "country_name": "Brazil",
            "connectivity": false
        },
        {
            "lon": -39.2972,
            "lat": -5.1926,
            "school_name": "PE JOSE VAN ESCH EEF",
            "country_name": "Brazil",
            "connectivity": true
        },
        {
            "lon": -38.964,
            "lat": -6.7562,
            "school_name": "PAPA PAULO VI CENTRO DE EDUCACAO INFANTIL",
            "country_name": "Brazil",
            "connectivity": true
        },
        {
            "lon": -35.4739,
            "lat": -5.3119,
            "school_name": "EM DE 1",
            "country_name": "Brazil",
            "connectivity": true
        },
        {
            "lon": -36.0482,
            "lat": -5.0632,
            "school_name": "CRECHE CRIANCA FELIZ",
            "country_name": "Brazil",
            "connectivity": false
        },
        {
            "lon": -37.0613,
            "lat": -7.5673,
            "school_name": "ESCOLA M DE EDUCACAO BASICA ILDEFONSO ANSELMO DA SILVA",
            "country_name": "Brazil",
            "connectivity": true
        },
        {
            "lon": -36.3581,
            "lat": -7.2581,
            "school_name": "ESCOLA MUNICIPAL JOSE BELO CORREIA",
            "country_name": "Brazil",
            "connectivity": false
        },
        {
            "lon": -35.6602,
            "lat": -7.1868,
            "school_name": "GR ESC FREI BENJAMIM",
            "country_name": "Brazil",
            "connectivity": false
        },
        {
            "lon": -35.229,
            "lat": -7.0931,
            "school_name": "ECI MONSENHOR ODILON ALVES PEDROSA",
            "country_name": "Brazil",
            "connectivity": true
        },
        {
            "lon": -34.8377,
            "lat": -7.0202,
            "school_name": "ESC MUL ADJUTO CARLOS DE MORAIS",
            "country_name": "Brazil",
            "connectivity": true
        },
        {
            "lon": -35.0208,
            "lat": -6.7697,
            "school_name": "ESCOLA MUNICIPAL INFANTIL SEVERINA DAS DORES ALVES",
            "country_name": "Brazil",
            "connectivity": true
        },
        {
            "lon": -37.6452,
            "lat": -7.602,
            "school_name": "ESC MUNICIPAL JOSE GONCALVES DO NASCIMENTO",
            "country_name": "Brazil",
            "connectivity": true
        },
        {
            "lon": -37.2858,
            "lat": -7.4701,
            "school_name": "EMEI DR ANTONIO BITU",
            "country_name": "Brazil",
            "connectivity": true
        },
        {
            "lon": -36.849,
            "lat": -8.5818,
            "school_name": "ESCOLA MUL MARIANO HERCULANO DA SILVA",
            "country_name": "Brazil",
            "connectivity": false
        },
        {
            "lon": -47.0577,
            "lat": -1.75,
            "school_name": "EEEFM ANTONIO VALDENIR ARAUJO DE LIMA",
            "country_name": "Brazil",
            "connectivity": true
        },
        {
            "lon": -35.1619,
            "lat": -8.7224,
            "school_name": "ESCOLA JOSE FERREIRA BARROS",
            "country_name": "Brazil",
            "connectivity": true
        },
        {
            "lon": -35.1179,
            "lat": -8.5925,
            "school_name": "ESCOLA MUNICIPAL LEONEL NILO DA SILVA",
            "country_name": "Brazil",
            "connectivity": false
        },
        {
            "lon": -36.9434,
            "lat": -8.4984,
            "school_name": "ESCOLA MUNICIPAL JUCILEIDE DE BRITO FAUSTINO",
            "country_name": "Brazil",
            "connectivity": true
        },
        {
            "lon": -36.5683,
            "lat": -9.027,
            "school_name": "CRECHE ELIZABETE FIRMA DE SANTANA",
            "country_name": "Brazil",
            "connectivity": true
        },
        {
            "lon": -35.296,
            "lat": -8.0035,
            "school_name": "ESCOLA DJALMA SOUTO MAIOR PAES",
            "country_name": "Brazil",
            "connectivity": true
        },
        {
            "lon": -36.8006,
            "lat": -9.8077,
            "school_name": "ESCOLA MUNICIPAL DE EDUCACAO BASICA SANTA CLARA",
            "country_name": "Brazil",
            "connectivity": true
        },
        {
            "lon": -37.226,
            "lat": -10.7309,
            "school_name": "ESCOLA CENTRAL",
            "country_name": "Brazil",
            "connectivity": true
        },
        {
            "lon": -37.092,
            "lat": -10.8954,
            "school_name": "ESCOLA ESTADUAL DESEMBARGADOR JOAO BOSCO DE ANDRADE LIMA",
            "country_name": "Brazil",
            "connectivity": true
        },
        {
            "lon": -41.2647,
            "lat": -9.1793,
            "school_name": "ESCOLA NOSSA SENHORA DAS GROTAS",
            "country_name": "Brazil",
            "connectivity": false
        },
        {
            "lon": -40.192,
            "lat": -9.3054,
            "school_name": "ESCOLA MUNICIPAL FAMILIA UNIDA",
            "country_name": "Brazil",
            "connectivity": false
        },
        {
            "lon": -40.7967,
            "lat": -20.6972,
            "school_name": "EMEIEF ALTO JOEBA",
            "country_name": "Brazil",
            "connectivity": true
        },
        {
            "lon": -38.2211,
            "lat": -11.9118,
            "school_name": "CENTRO EDUCACIONAL DE BAIXA GRANDE",
            "country_name": "Brazil",
            "connectivity": true
        },
        {
            "lon": -42.1325,
            "lat": -12.8258,
            "school_name": "ESC AMELIA ALVES",
            "country_name": "Brazil",
            "connectivity": false
        },
        {
            "lon": -38.4864,
            "lat": -12.9617,
            "school_name": "ESCOLA MUNICIPAL CARDEAL DA SILVA",
            "country_name": "Brazil",
            "connectivity": true
        },
        {
            "lon": -39.6517,
            "lat": -13.1524,
            "school_name": "ESCOLA MUNICIPAL JOANA DE SOUZA CAMPOS",
            "country_name": "Brazil",
            "connectivity": false
        },
        {
            "lon": -39.1658,
            "lat": -13.4544,
            "school_name": "ESCOLA MUNICIPAL JOSE ALBERTINO DOS SANTOS",
            "country_name": "Brazil",
            "connectivity": false
        },
        {
            "lon": -39.3985,
            "lat": -13.7982,
            "school_name": "ESCOLA CASTRO ALVES",
            "country_name": "Brazil",
            "connectivity": false
        },
        {
            "lon": -39.4787,
            "lat": -13.6859,
            "school_name": "ESCOLA MUNICIPAL JORGE AMADO",
            "country_name": "Brazil",
            "connectivity": true
        },
        {
            "lon": -44.1618,
            "lat": -14.2648,
            "school_name": "EE CORONEL ALMEIDA",
            "country_name": "Brazil",
            "connectivity": true
        },
        {
            "lon": -43.0855,
            "lat": -19.2927,
            "school_name": "EM FELICISSIMO MARTINS QUINTAO",
            "country_name": "Brazil",
            "connectivity": true
        },
        {
            "lon": -44.4045,
            "lat": -19.2726,
            "school_name": "EE PADRE AUGUSTO HORTA",
            "country_name": "Brazil",
            "connectivity": true
        },
        {
            "lon": -45.2188,
            "lat": -21.4585,
            "school_name": "ESCOLA MUNICIPAL DOUTOR MOACIR REZENDE",
            "country_name": "Brazil",
            "connectivity": true
        },
        {
            "lon": -44.4202,
            "lat": -18.7486,
            "school_name": "ESCOLA MUNICIPAL ANTONINO DINIZ COUTO",
            "country_name": "Brazil",
            "connectivity": true
        },
        {
            "lon": -43.8151,
            "lat": -21.8473,
            "school_name": "ESCOLA MUNICIPAL ALZIRA DE PAULA DELGADO",
            "country_name": "Brazil",
            "connectivity": true
        },
        {
            "lon": -49.348,
            "lat": -20.8378,
            "school_name": "AGOSTINHO BRANDI PROF EM",
            "country_name": "Brazil",
            "connectivity": true
        },
        {
            "lon": -41.9808,
            "lat": -20.247,
            "school_name": "EM INFANTIL CIRANDA DAS LETRAS",
            "country_name": "Brazil",
            "connectivity": true
        },
        {
            "lon": -42.6704,
            "lat": -21.4096,
            "school_name": "EM MUNDO ENCANTADO",
            "country_name": "Brazil",
            "connectivity": true
        },
        {
            "lon": -46.5913,
            "lat": -21.7831,
            "school_name": "CEI MUNICIPAL PROFESSOR MILLO CARLI MANTOVANI",
            "country_name": "Brazil",
            "connectivity": true
        },
        {
            "lon": -37.77,
            "lat": -9.5996,
            "school_name": "ESCOLA MUNICIPAL DE EDUCACAO BASICA PROFESSOR IVAN FERNANDES LIMA",
            "country_name": "Brazil",
            "connectivity": true
        },
        {
            "lon": -37.227,
            "lat": -10.3788,
            "school_name": "ESCOLA MUNICIPAL MARIA ENEZILDE VIEIRA SANTOS",
            "country_name": "Brazil",
            "connectivity": true
        },
        {
            "lon": -41.0321,
            "lat": -19.0317,
            "school_name": "EPMEIEF CORREGO SAO PAULO",
            "country_name": "Brazil",
            "connectivity": false
        },
        {
            "lon": -40.4214,
            "lat": -19.8081,
            "school_name": "EEEF FRANCISCO SANTOS",
            "country_name": "Brazil",
            "connectivity": false
        },
        {
            "lon": -40.4209,
            "lat": -20.2038,
            "school_name": "EMPEF TRES PONTES",
            "country_name": "Brazil",
            "connectivity": false
        },
        {
            "lon": -40.9317,
            "lat": -20.8641,
            "school_name": "EMEF BODART JUNIOR",
            "country_name": "Brazil",
            "connectivity": true
        },
        {
            "lon": -40.4042,
            "lat": -18.7011,
            "school_name": "CMEITI ANTONIO BARBOSA SENA JUNIOR",
            "country_name": "Brazil",
            "connectivity": true
        },
        {
            "lon": -51.8302,
            "lat": -30.7934,
            "school_name": "EMEF SYLVIO LUIZ",
            "country_name": "Brazil",
            "connectivity": true
        },
        {
            "lon": -40.5218,
            "lat": -20.6387,
            "school_name": "EMEIEF PROFESSORA MARIA MARTA DALLA HUARCAYA",
            "country_name": "Brazil",
            "connectivity": true
        },
        {
            "lon": -42.988,
            "lat": -22.0356,
            "school_name": "CEMA - PROF",
            "country_name": "Brazil",
            "connectivity": true
        },
        {
            "lon": -42.8048,
            "lat": -22.5391,
            "school_name": "E M VECCHI",
            "country_name": "Brazil",
            "connectivity": false
        },
        {
            "lon": -43.3865,
            "lat": -22.7159,
            "school_name": "CIEP 377 CARMEM DA SILVA",
            "country_name": "Brazil",
            "connectivity": true
        },
        {
            "lon": -43.3612,
            "lat": -22.734,
            "school_name": "ESC MUN JULIO CESAR DE ANDRADE GONCALVES",
            "country_name": "Brazil",
            "connectivity": true
        },
        {
            "lon": -46.9607,
            "lat": -22.4387,
            "school_name": "NORA MONSENHOR",
            "country_name": "Brazil",
            "connectivity": true
        },
        {
            "lon": -48.0662,
            "lat": -23.5867,
            "school_name": "APPARECIDA MYRTHES DE MELLO MORAES EMEF",
            "country_name": "Brazil",
            "connectivity": true
        },
        {
            "lon": -46.6662,
            "lat": -24.1134,
            "school_name": "PINGO DE GENTE EMEI",
            "country_name": "Brazil",
            "connectivity": true
        },
        {
            "lon": -47.7979,
            "lat": -21.1511,
            "school_name": "EMILIO JARBINET PADRE EMEI",
            "country_name": "Brazil",
            "connectivity": true
        },
        {
            "lon": -46.7093,
            "lat": -23.7283,
            "school_name": "EMEI LUIS TRAVASSOS",
            "country_name": "Brazil",
            "connectivity": true
        },
        {
            "lon": -46.6262,
            "lat": -23.6794,
            "school_name": "MARIETA DE FREITAS MARTINS EMEB",
            "country_name": "Brazil",
            "connectivity": true
        },
        {
            "lon": -47.0954,
            "lat": -22.9473,
            "school_name": "GUILHERME DE ALMEIDA CEI",
            "country_name": "Brazil",
            "connectivity": true
        },
        {
            "lon": -47.2173,
            "lat": -22.6005,
            "school_name": "ANTONIO PEGORARI EMEB",
            "country_name": "Brazil",
            "connectivity": true
        },
        {
            "lon": -46.3378,
            "lat": -23.5211,
            "school_name": "ANTONIA OBESSO ROSAL EMEB",
            "country_name": "Brazil",
            "connectivity": true
        },
        {
            "lon": -47.4211,
            "lat": -22.0784,
            "school_name": "MARIA APARECIDA DE CARLI FELIPE EMEF R",
            "country_name": "Brazil",
            "connectivity": true
        },
        {
            "lon": -47.8834,
            "lat": -23.5286,
            "school_name": "JOSE GRACA EMEIEF",
            "country_name": "Brazil",
            "connectivity": true
        },
        {
            "lon": -47.2077,
            "lat": -22.8502,
            "school_name": "JARDIM NOSSA SENHORA AUXILIADORA EMEI",
            "country_name": "Brazil",
            "connectivity": true
        },
        {
            "lon": -46.7942,
            "lat": -23.6861,
            "school_name": "CEU CEI YOLANDA DE SOUZA SANTALUCIA PROFA",
            "country_name": "Brazil",
            "connectivity": true
        },
        {
            "lon": -48.4936,
            "lat": -21.2607,
            "school_name": "LAR DO PEQUENO MONTEALTENSE EMEB",
            "country_name": "Brazil",
            "connectivity": true
        },
        {
            "lon": -46.7539,
            "lat": -22.3924,
            "school_name": "MARIANA DO CARMO DE ALMEIDA CINTRA PROFA EMEB",
            "country_name": "Brazil",
            "connectivity": true
        },
        {
            "lon": -48.2362,
            "lat": -23.5467,
            "school_name": "EMEI PROFESSORA ESTHER BARSANTI",
            "country_name": "Brazil",
            "connectivity": true
        },
        {
            "lon": -45.9257,
            "lat": -22.5537,
            "school_name": "EM JOAQUIM MARQUES DE OLIVEIRA",
            "country_name": "Brazil",
            "connectivity": true
        },
        {
            "lon": -51.8282,
            "lat": -23.1985,
            "school_name": "VAMOS CRESCER JUNTOS C M E I",
            "country_name": "Brazil",
            "connectivity": true
        },
        {
            "lon": -38.1466,
            "lat": -11.5186,
            "school_name": "EE - COLEGIO ESTADUAL PRESIDENTE MEDICI",
            "country_name": "Brazil",
            "connectivity": true
        },
        {
            "lon": -49.1623,
            "lat": -26.5114,
            "school_name": "CMEI WALDIR EDSON THEILACKER",
            "country_name": "Brazil",
            "connectivity": true
        },
        {
            "lon": -49.5306,
            "lat": -24.7101,
            "school_name": "CARAGUATA E M C EI EF",
            "country_name": "Brazil",
            "connectivity": false
        },
        {
            "lon": -52.5707,
            "lat": -26.0054,
            "school_name": "SAO CRISTOVAO E M EI EF",
            "country_name": "Brazil",
            "connectivity": true
        },
        {
            "lon": -48.5525,
            "lat": -25.5607,
            "school_name": "NAYA CASTILHO E M TEMPO INT PROFA EI EF",
            "country_name": "Brazil",
            "connectivity": true
        },
        {
            "lon": -51.9253,
            "lat": -23.4211,
            "school_name": "NOEMIA MAIA KOTSIFAS C M E I PION",
            "country_name": "Brazil",
            "connectivity": true
        },
        {
            "lon": -43.9524,
            "lat": -19.9285,
            "school_name": "EE MAESTRO VILLA LOBOS",
            "country_name": "Brazil",
            "connectivity": true
        },
        {
            "lon": -53.6717,
            "lat": -26.4876,
            "school_name": "ESC MUN 1 GRAU NOVO SARANDI",
            "country_name": "Brazil",
            "connectivity": true
        },
        {
            "lon": -51.0541,
            "lat": -29.9448,
            "school_name": "EMEF BOM JESUS",
            "country_name": "Brazil",
            "connectivity": true
        },
        {
            "lon": -51.1441,
            "lat": -30.1509,
            "school_name": "EMEF PROF LARRY JOSE RIBEIRO ALVES",
            "country_name": "Brazil",
            "connectivity": true
        },
        {
            "lon": -50.9828,
            "lat": -30.0952,
            "school_name": "EETECDE AGRI LEONEL DE MOURA BRIZOLA",
            "country_name": "Brazil",
            "connectivity": true
        },
        {
            "lon": -54.5959,
            "lat": -20.5195,
            "school_name": "EE JOSE BARBOSA RODRIGUES",
            "country_name": "Brazil",
            "connectivity": true
        },
        {
            "lon": -54.6246,
            "lat": -20.4959,
            "school_name": "EMEI - IBER GOMES DE SA",
            "country_name": "Brazil",
            "connectivity": true
        },
        {
            "lon": -44.2739,
            "lat": -21.1431,
            "school_name": "EE PROFESSOR IAGO PIMENTEL",
            "country_name": "Brazil",
            "connectivity": true
        },
        {
            "lon": -48.3302,
            "lat": -14.9465,
            "school_name": "ESC MUL BONITO II",
            "country_name": "Brazil",
            "connectivity": false
        },
        {
            "lon": -48.5966,
            "lat": -5.0471,
            "school_name": "EEEFM PROFA MARIA SYLVIA DOS SANTOS SEDE",
            "country_name": "Brazil",
            "connectivity": true
        },
        {
            "lon": -47.1321,
            "lat": -23.5162,
            "school_name": "PAULO RICARDO DA SILVEIRA SANTOS EMEF",
            "country_name": "Brazil",
            "connectivity": true
        },
        {
            "lon": -52.4555,
            "lat": -23.0744,
            "school_name": "MARINS A DE CAMARGO C E DR EF M PROFIS",
            "country_name": "Brazil",
            "connectivity": true
        },
        {
            "lon": -49.5304,
            "lat": -11.8012,
            "school_name": "COLEGIO ESTADUAL TIRADENTES",
            "country_name": "Brazil",
            "connectivity": true
        },
        {
            "lon": -44.6381,
            "lat": -5.08,
            "school_name": "EM WASHINGTON LUIS BARBOSA",
            "country_name": "Brazil",
            "connectivity": true
        },
        {
            "lon": -43.3765,
            "lat": -4.8849,
            "school_name": "CENTRO DE EDUCACAO INFANTIL PREFEITO ALUIZIO LOBO",
            "country_name": "Brazil",
            "connectivity": true
        },
        {
            "lon": -53.7499,
            "lat": -23.3667,
            "school_name": "PORTO CAMARGO E E C DE EF",
            "country_name": "Brazil",
            "connectivity": true
        },
        {
            "lon": -45.187,
            "lat": -3.6437,
            "school_name": "ESCOLA MUNICIPAL PAULO FREIRE",
            "country_name": "Brazil",
            "connectivity": true
        },
        {
            "lon": -63.8243,
            "lat": -8.7714,
            "school_name": "EEEFM MARIANA",
            "country_name": "Brazil",
            "connectivity": true
        },
        {
            "lon": -63.8879,
            "lat": -8.7642,
            "school_name": "EEEFM RIO BRANCO",
            "country_name": "Brazil",
            "connectivity": true
        },
        {
            "lon": -52.5191,
            "lat": -30.538,
            "school_name": "ESC EST ENS FUN BARAO DO QUARAI",
            "country_name": "Brazil",
            "connectivity": true
        },
        {
            "lon": -46.8559,
            "lat": -23.6526,
            "school_name": "EULALIA MALTA PROFESSORA",
            "country_name": "Brazil",
            "connectivity": true
        },
        {
            "lon": -42.6335,
            "lat": -19.4888,
            "school_name": "CMEI - CENTRO MUNICIPAL DE EDUCACAO INFANTIL JOSE PINTO DOS SANTOS",
            "country_name": "Brazil",
            "connectivity": true
        },
        {
            "lon": -43.9624,
            "lat": -19.6969,
            "school_name": "EM MARIA DE LOURDES P DOS SANTOS",
            "country_name": "Brazil",
            "connectivity": true
        },
        {
            "lon": -48.9575,
            "lat": -16.2748,
            "school_name": "ESCOLA MUNICIPAL PROFESSOR ERNST HEEGER",
            "country_name": "Brazil",
            "connectivity": true
        },
        {
            "lon": -37.3376,
            "lat": -5.1779,
            "school_name": "UNIDADE DE EDUCACAO INFANTIL IZABEL MACEDO BARRETO",
            "country_name": "Brazil",
            "connectivity": true
        },
        {
            "lon": -35.1027,
            "lat": -8.0354,
            "school_name": "ESCOLA ESTADUAL DE MATRIZ DA LUZ",
            "country_name": "Brazil",
            "connectivity": true
        },
        {
            "lon": -35.324,
            "lat": -6.3893,
            "school_name": "ESC MUL ELVIRA MARTINS DE ARAUJO",
            "country_name": "Brazil",
            "connectivity": true
        },
        {
            "lon": -35.7572,
            "lat": -6.859,
            "school_name": "EMEIF JOSE FERREIRA DE MELO",
            "country_name": "Brazil",
            "connectivity": true
        },
        {
            "lon": -37.4826,
            "lat": -8.984,
            "school_name": "ESCOLA FREI JOAO PEREIRA DE SOUZA",
            "country_name": "Brazil",
            "connectivity": true
        }
    ],
    "num_countries": 13,
    "countries": [
        "Brazil",
        "Colombia",
        "Costa Rica",
        "Grenada",
        "Honduras",
        "Kazakhstan",
        "Kyrgyzstan",
        "Namibia",
        "Palestine",
        "Philippines",
        "Rwanda",
        "Sierra Leone",
        "Zimbabwe"
    ],
    "schools_no_data": [
        {
            "lon": 10.8385822,
            "lat": 6.5158251,
            "school_name": "Government School Mangi",
            "country_name": "Cameroon",
            "connectivity": false
        },
        {
            "lon": -58.36259819,
            "lat": -34.80257097,
            "school_name": "ESCUELA DE ADULTOS N\u00ba706",
            "country_name": "Argentina",
            "connectivity": false
        },
        {
            "lon": 32.5576089,
            "lat": 18.50268915,
            "school_name": "Name unknown",
            "country_name": "Sudan",
            "connectivity": false
        },
        {
            "lon": 33.93786867,
            "lat": 17.55523135,
            "school_name": "Name unknown",
            "country_name": "Sudan",
            "connectivity": false
        },
        {
            "lon": 35.86625218,
            "lat": 14.39590162,
            "school_name": "Name unknown",
            "country_name": "Sudan",
            "connectivity": false
        },
        {
            "lon": -0.4658286,
            "lat": 5.4411323,
            "school_name": "Name unknown",
            "country_name": "Ghana",
            "connectivity": false
        },
        {
            "lon": 22.48352051,
            "lat": 43.03677586,
            "school_name": "\u0414\u0435\u0441\u043f\u043e\u0442 \u0421\u0442\u0435\u0444\u0430\u043d \u041b\u0430\u0437\u0430\u0440\u0435\u0432\u0438\u045b",
            "country_name": "Serbia",
            "connectivity": false
        },
        {
            "lon": 32.75887035,
            "lat": 13.6716410333333,
            "school_name": "Name unknown",
            "country_name": "Sudan",
            "connectivity": false
        },
        {
            "lon": 34.35475468,
            "lat": 11.82268165,
            "school_name": "Name unknown",
            "country_name": "Sudan",
            "connectivity": false
        },
        {
            "lon": 24.0254296,
            "lat": 10.68795135,
            "school_name": "Name unknown",
            "country_name": "Sudan",
            "connectivity": false
        },
        {
            "lon": -1.7548308,
            "lat": 4.890691,
            "school_name": "Name unknown",
            "country_name": "Ghana",
            "connectivity": false
        },
        {
            "lon": -1.5715036,
            "lat": 6.7102838,
            "school_name": "Name unknown",
            "country_name": "Ghana",
            "connectivity": false
        },
        {
            "lon": 36.7986811,
            "lat": -1.3185087,
            "school_name": "ACK Emmanuel Primary School",
            "country_name": "Kenya",
            "connectivity": false
        },
        {
            "lon": -2.5211692,
            "lat": 6.7934896,
            "school_name": "Name unknown",
            "country_name": "Ghana",
            "connectivity": false
        },
        {
            "lon": -0.6327234,
            "lat": 5.3582729,
            "school_name": "Name unknown",
            "country_name": "Ghana",
            "connectivity": false
        },
        {
            "lon": -0.623721,
            "lat": 5.3427332,
            "school_name": "Name unknown",
            "country_name": "Ghana",
            "connectivity": false
        },
        {
            "lon": -1.4179042,
            "lat": 6.285194,
            "school_name": "Name unknown",
            "country_name": "Ghana",
            "connectivity": false
        },
        {
            "lon": -1.4691451,
            "lat": 6.7175028,
            "school_name": "Name unknown",
            "country_name": "Ghana",
            "connectivity": false
        },
        {
            "lon": 37.60367,
            "lat": -3.15764,
            "school_name": "KIRWA ROMBO",
            "country_name": "United Republic of Tanzania",
            "connectivity": false
        },
        {
            "lon": 39.18167,
            "lat": -7.42919,
            "school_name": "MPIMIO",
            "country_name": "United Republic of Tanzania",
            "connectivity": false
        },
        {
            "lon": 32.93705,
            "lat": -3.06162,
            "school_name": "NYALUGEMBE",
            "country_name": "United Republic of Tanzania",
            "connectivity": false
        },
        {
            "lon": 35.29722,
            "lat": -9.39306,
            "school_name": "LWANZALI",
            "country_name": "United Republic of Tanzania",
            "connectivity": false
        },
        {
            "lon": 36.50308,
            "lat": -6.84604,
            "school_name": "GOMHUNGILE",
            "country_name": "United Republic of Tanzania",
            "connectivity": false
        },
        {
            "lon": 38.77764,
            "lat": -10.40603,
            "school_name": "SONGAMBELE",
            "country_name": "United Republic of Tanzania",
            "connectivity": false
        },
        {
            "lon": 35.94397,
            "lat": -5.86775,
            "school_name": "MASEYA",
            "country_name": "United Republic of Tanzania",
            "connectivity": false
        },
        {
            "lon": 32.73393,
            "lat": -3.39369,
            "school_name": "MABOGO",
            "country_name": "United Republic of Tanzania",
            "connectivity": false
        },
        {
            "lon": 31.75587,
            "lat": -1.0311,
            "school_name": "KASHENYE",
            "country_name": "United Republic of Tanzania",
            "connectivity": false
        },
        {
            "lon": 34.52727,
            "lat": -4.03581,
            "school_name": "LUGONGO",
            "country_name": "United Republic of Tanzania",
            "connectivity": false
        },
        {
            "lon": 32.92208,
            "lat": -4.14959,
            "school_name": "ISHINDE",
            "country_name": "United Republic of Tanzania",
            "connectivity": false
        },
        {
            "lon": -0.3150479,
            "lat": 5.5617478,
            "school_name": "Name unknown",
            "country_name": "Ghana",
            "connectivity": false
        },
        {
            "lon": -2.2195869,
            "lat": 9.2310431,
            "school_name": "Name unknown",
            "country_name": "Ghana",
            "connectivity": false
        },
        {
            "lon": 1.534289,
            "lat": 6.332847,
            "school_name": "JEC NDA VOGAN",
            "country_name": "Togo",
            "connectivity": false
        },
        {
            "lon": 0.853889,
            "lat": 7.569364,
            "school_name": "JEP OKOU G/B",
            "country_name": "Togo",
            "connectivity": false
        },
        {
            "lon": 0.141735,
            "lat": 10.659556,
            "school_name": "JEP NAGOU",
            "country_name": "Togo",
            "connectivity": false
        },
        {
            "lon": 1.398655,
            "lat": 6.201215,
            "school_name": "EPL COMPLEXE SCOLAIRE LE BON",
            "country_name": "Togo",
            "connectivity": false
        },
        {
            "lon": 1.014,
            "lat": 7.571133,
            "school_name": "EDIL IWLOBO",
            "country_name": "Togo",
            "connectivity": false
        },
        {
            "lon": 1.562017,
            "lat": 8.17779,
            "school_name": "EPP KONADABO",
            "country_name": "Togo",
            "connectivity": false
        },
        {
            "lon": 0.517363333,
            "lat": 10.610065,
            "school_name": "EPP TANGBANE",
            "country_name": "Togo",
            "connectivity": false
        },
        {
            "lon": 0.202125,
            "lat": 10.875052,
            "school_name": "EPP BODJOPAL G/A",
            "country_name": "Togo",
            "connectivity": false
        },
        {
            "lon": 1.755672,
            "lat": 6.394563,
            "school_name": "CEG AVEVE",
            "country_name": "Togo",
            "connectivity": false
        },
        {
            "lon": 31.44258,
            "lat": -1.9657,
            "school_name": "KIKAGATE",
            "country_name": "United Republic of Tanzania",
            "connectivity": false
        },
        {
            "lon": 34.07507,
            "lat": -1.18806,
            "school_name": "KYARIKO",
            "country_name": "United Republic of Tanzania",
            "connectivity": false
        },
        {
            "lon": 33.22999,
            "lat": -4.75538,
            "school_name": "KAMPALA",
            "country_name": "United Republic of Tanzania",
            "connectivity": false
        },
        {
            "lon": 33.31188,
            "lat": -3.50615,
            "school_name": "NG'WAMADILANHA",
            "country_name": "United Republic of Tanzania",
            "connectivity": false
        },
        {
            "lon": 37.57909,
            "lat": -5.43876,
            "school_name": "MAKASINI",
            "country_name": "United Republic of Tanzania",
            "connectivity": false
        },
        {
            "lon": 30.85169,
            "lat": -2.49297,
            "school_name": "NJIAPANDA",
            "country_name": "United Republic of Tanzania",
            "connectivity": false
        },
        {
            "lon": 0.798,
            "lat": 7.2619,
            "school_name": "LYCEE KPELE NORD",
            "country_name": "Togo",
            "connectivity": false
        },
        {
            "lon": 1.222665,
            "lat": 6.134076667,
            "school_name": "LPL GEORGES CLEMENCEAU",
            "country_name": "Togo",
            "connectivity": false
        },
        {
            "lon": 0.794521,
            "lat": 7.732553,
            "school_name": "LYCEE DJON",
            "country_name": "Togo",
            "connectivity": false
        },
        {
            "lon": 33.93517835,
            "lat": -13.52337921,
            "school_name": "Msambaimfa Primary School",
            "country_name": "Malawi",
            "connectivity": false
        },
        {
            "lon": 35.0235439,
            "lat": -15.5168644,
            "school_name": "Lirangwe Open",
            "country_name": "Malawi",
            "connectivity": false
        },
        {
            "lon": 33.5897116,
            "lat": -12.00063516,
            "school_name": "Cham'ngulube",
            "country_name": "Malawi",
            "connectivity": false
        },
        {
            "lon": 34.09872276,
            "lat": -13.28409911,
            "school_name": "Kanjiwa J.P School",
            "country_name": "Malawi",
            "connectivity": false
        },
        {
            "lon": 34.96453476,
            "lat": -16.69540093,
            "school_name": "Kaloga",
            "country_name": "Malawi",
            "connectivity": false
        },
        {
            "lon": 34.68194912,
            "lat": -14.50921523,
            "school_name": "Khola Primary School",
            "country_name": "Malawi",
            "connectivity": false
        },
        {
            "lon": 35.29949193,
            "lat": -15.17649401,
            "school_name": "Machinga_LEA",
            "country_name": "Malawi",
            "connectivity": false
        },
        {
            "lon": 25.79917359,
            "lat": -9.42680392,
            "school_name": "EP KALEKA",
            "country_name": "Democratic Republic of the Congo",
            "connectivity": false
        },
        {
            "lon": 24.89625759,
            "lat": -7.709961313,
            "school_name": "EP NGOY MWANA",
            "country_name": "Democratic Republic of the Congo",
            "connectivity": false
        },
        {
            "lon": 27.35782263,
            "lat": 2.421099821,
            "school_name": "INST ABETEZA",
            "country_name": "Democratic Republic of the Congo",
            "connectivity": false
        },
        {
            "lon": 24.36965415,
            "lat": -6.735956619,
            "school_name": "INST MUFUNDA",
            "country_name": "Democratic Republic of the Congo",
            "connectivity": false
        },
        {
            "lon": 27.42448011,
            "lat": -11.69454416,
            "school_name": "CS DU II JANVIER SAINT BENOIT",
            "country_name": "Democratic Republic of the Congo",
            "connectivity": false
        },
        {
            "lon": 20.90276571,
            "lat": 2.918155877,
            "school_name": "EP NZONDO MALEBO",
            "country_name": "Democratic Republic of the Congo",
            "connectivity": false
        },
        {
            "lon": 22.56821934,
            "lat": 3.628684662,
            "school_name": "INST GBAMO",
            "country_name": "Democratic Republic of the Congo",
            "connectivity": false
        },
        {
            "lon": 13.4287205,
            "lat": -5.5671738,
            "school_name": "COLLEGE MAMAN VELA",
            "country_name": "Democratic Republic of the Congo",
            "connectivity": false
        },
        {
            "lon": 13.47016425,
            "lat": -5.81722488,
            "school_name": "INST BITUKU",
            "country_name": "Democratic Republic of the Congo",
            "connectivity": false
        },
        {
            "lon": -100.209776,
            "lat": 25.65616,
            "school_name": "CENTRO DE ESTUDIOS TECNOLOGICOS INDUSTRIAL Y DE SERVICIOS NUM. 101",
            "country_name": "Mexico",
            "connectivity": false
        },
        {
            "lon": -15.95316,
            "lat": 18.05713,
            "school_name": "EZEMAN",
            "country_name": "Mauritania",
            "connectivity": false
        },
        {
            "lon": -15.93401,
            "lat": 18.14651,
            "school_name": "ECOLE TALHA IBN OUBEIDILAH",
            "country_name": "Mauritania",
            "connectivity": false
        },
        {
            "lon": 30.36072,
            "lat": -0.4875,
            "school_name": "Kyabahija P.S.",
            "country_name": "Uganda",
            "connectivity": false
        },
        {
            "lon": 33.20651,
            "lat": 0.57533,
            "school_name": "MUTAI PRIMARY SCHOOL",
            "country_name": "Uganda",
            "connectivity": false
        },
        {
            "lon": 32.96953,
            "lat": 0.34392,
            "school_name": "BUGOMBA C.O.U PRIMARY SCHOOL",
            "country_name": "Uganda",
            "connectivity": false
        },
        {
            "lon": 37.91653,
            "lat": -10.41314,
            "school_name": "KIEGEI",
            "country_name": "United Republic of Tanzania",
            "connectivity": false
        },
        {
            "lon": 33.7491,
            "lat": 0.56793,
            "school_name": "HINDOCHA",
            "country_name": "Uganda",
            "connectivity": false
        },
        {
            "lon": 30.49876,
            "lat": 0.33191,
            "school_name": "Kiyagara P.S.",
            "country_name": "Uganda",
            "connectivity": false
        },
        {
            "lon": 32.4647,
            "lat": 0.07595,
            "school_name": "Joy  P.S",
            "country_name": "Uganda",
            "connectivity": false
        },
        {
            "lon": 30.11086,
            "lat": 0.72193,
            "school_name": "Bunguha P.S.",
            "country_name": "Uganda",
            "connectivity": false
        },
        {
            "lon": 34.03923,
            "lat": 0.85591,
            "school_name": "Atapara P.S.",
            "country_name": "Uganda",
            "connectivity": false
        },
        {
            "lon": 30.67018,
            "lat": -0.90618,
            "school_name": "Rwacece P.S",
            "country_name": "Uganda",
            "connectivity": false
        },
        {
            "lon": 30.78064,
            "lat": 0.82359,
            "school_name": "Kisansa P.S",
            "country_name": "Uganda",
            "connectivity": false
        },
        {
            "lon": 33.83261,
            "lat": 0.85172,
            "school_name": "Mulanga P.S.",
            "country_name": "Uganda",
            "connectivity": false
        },
        {
            "lon": -64.749378,
            "lat": -21.514921,
            "school_name": "LIBERTAD",
            "country_name": "Bolivia (Plurinational State of)",
            "connectivity": false
        },
        {
            "lon": 29.6708,
            "lat": -26.44711,
            "school_name": "Davel Combined School",
            "country_name": "South Africa",
            "connectivity": false
        },
        {
            "lon": 28.69527,
            "lat": -26.09182,
            "school_name": "Vezimfundo Primary School",
            "country_name": "South Africa",
            "connectivity": false
        },
        {
            "lon": 24.84919,
            "lat": -28.12621,
            "school_name": "Tswelepepe Cr?\u0192?\u00a8che",
            "country_name": "South Africa",
            "connectivity": false
        },
        {
            "lon": 18.53073,
            "lat": -32.48302,
            "school_name": "Redelinghuys Primary School",
            "country_name": "South Africa",
            "connectivity": false
        },
        {
            "lon": 17.9381,
            "lat": -33.01145,
            "school_name": "Saint Andrew's Primary School",
            "country_name": "South Africa",
            "connectivity": false
        },
        {
            "lon": 30.0657,
            "lat": -23.15113,
            "school_name": "Mahonisi Learning Centre",
            "country_name": "South Africa",
            "connectivity": false
        },
        {
            "lon": 29.03152,
            "lat": -23.87098,
            "school_name": "Malopeng Primary",
            "country_name": "South Africa",
            "connectivity": false
        },
        {
            "lon": 29.36742,
            "lat": -28.85403,
            "school_name": "Mlimeleni Primary School",
            "country_name": "South Africa",
            "connectivity": false
        },
        {
            "lon": 30.63019,
            "lat": -29.65525,
            "school_name": "Asizenzele Primary School",
            "country_name": "South Africa",
            "connectivity": false
        },
        {
            "lon": 30.68537,
            "lat": -29.56927,
            "school_name": "Moyamuhle Primary School",
            "country_name": "South Africa",
            "connectivity": false
        },
        {
            "lon": 30.7021,
            "lat": -22.99888,
            "school_name": "Xihlovo Primary School",
            "country_name": "South Africa",
            "connectivity": false
        },
        {
            "lon": 30.23641,
            "lat": -28.16236,
            "school_name": "Mabuya T And Associates",
            "country_name": "South Africa",
            "connectivity": false
        },
        {
            "lon": 28.7926,
            "lat": -31.5654,
            "school_name": "James Kobi Junior Secondary School",
            "country_name": "South Africa",
            "connectivity": false
        },
        {
            "lon": 30.93855,
            "lat": -29.71263,
            "school_name": "Mzomusha Primary School",
            "country_name": "South Africa",
            "connectivity": false
        },
        {
            "lon": 27.85674,
            "lat": -26.26835,
            "school_name": "Enkanyezini Higher Primary School",
            "country_name": "South Africa",
            "connectivity": false
        },
        {
            "lon": 27.88123,
            "lat": -26.23616,
            "school_name": "Risuna Primary School",
            "country_name": "South Africa",
            "connectivity": false
        },
        {
            "lon": 28.10795,
            "lat": -26.18938,
            "school_name": "Emeritus College",
            "country_name": "South Africa",
            "connectivity": false
        },
        {
            "lon": 28.16309,
            "lat": -25.6651,
            "school_name": "Dikalakala Training & Skills Development",
            "country_name": "South Africa",
            "connectivity": false
        },
        {
            "lon": 27.87178,
            "lat": -26.22533,
            "school_name": "Margaret Gwele Primary School",
            "country_name": "South Africa",
            "connectivity": false
        },
        {
            "lon": 28.38777,
            "lat": -26.34464,
            "school_name": "Michael Zulu Primary School",
            "country_name": "South Africa",
            "connectivity": false
        },
        {
            "lon": 28.23003,
            "lat": -26.10158,
            "school_name": "Figures Models SA",
            "country_name": "South Africa",
            "connectivity": false
        },
        {
            "lon": 28.05617,
            "lat": -26.09528,
            "school_name": "Master Maths",
            "country_name": "South Africa",
            "connectivity": false
        },
        {
            "lon": 27.90751,
            "lat": -33.00305,
            "school_name": "CCS IT Training",
            "country_name": "South Africa",
            "connectivity": false
        },
        {
            "lon": 28.10659,
            "lat": -26.20252,
            "school_name": "Qhubekela Phambili Driving School",
            "country_name": "South Africa",
            "connectivity": false
        },
        {
            "lon": 26.63234,
            "lat": -32.26325,
            "school_name": "Sinethemba Junior Secondary School",
            "country_name": "South Africa",
            "connectivity": false
        },
        {
            "lon": 27.17566,
            "lat": -31.73918,
            "school_name": "Zwelixolile Primary School",
            "country_name": "South Africa",
            "connectivity": false
        },
        {
            "lon": 27.28389,
            "lat": -27.8649,
            "school_name": "Vogelstruisfontein Primary School",
            "country_name": "South Africa",
            "connectivity": false
        },
        {
            "lon": 25.59121,
            "lat": -33.95535,
            "school_name": "Tech College - Sport Grounds",
            "country_name": "South Africa",
            "connectivity": false
        },
        {
            "lon": 27.82208,
            "lat": -32.02575,
            "school_name": "Louisa Mngqibisa Junior Primary School",
            "country_name": "South Africa",
            "connectivity": false
        },
        {
            "lon": 28.41978,
            "lat": -31.94904,
            "school_name": "Candu Junior Secondary School",
            "country_name": "South Africa",
            "connectivity": false
        },
        {
            "lon": 29.30111,
            "lat": -30.98542,
            "school_name": "Ndakeni Junior Secondary School",
            "country_name": "South Africa",
            "connectivity": false
        },
        {
            "lon": 29.06091,
            "lat": -32.07794,
            "school_name": "Lumkwana Primary School",
            "country_name": "South Africa",
            "connectivity": false
        },
        {
            "lon": -61.8502533,
            "lat": -37.00779819,
            "school_name": "ESCUELA PRIMARIA N\u00ba19 9 DE JULIO",
            "country_name": "Argentina",
            "connectivity": false
        },
        {
            "lon": -58.36939928,
            "lat": -34.76941042,
            "school_name": "JARDIN DE INFANTES N\u00ba924",
            "country_name": "Argentina",
            "connectivity": false
        },
        {
            "lon": -65.17819,
            "lat": -28.64432,
            "school_name": "ESCUELA N\u00b0 471",
            "country_name": "Argentina",
            "connectivity": false
        },
        {
            "lon": -58.31544094,
            "lat": -34.74215447,
            "school_name": "ESCUELA PRIMARIA N\u00ba37 ROSARIO VERA PE\u00d1ALOZA",
            "country_name": "Argentina",
            "connectivity": false
        },
        {
            "lon": -58.9402965,
            "lat": -34.18923861,
            "school_name": "JARDIN DE INFANTES N\u00ba903 MANUEL IGLESIAS",
            "country_name": "Argentina",
            "connectivity": false
        },
        {
            "lon": -57.297616,
            "lat": -35.350566,
            "school_name": "ESCUELA TECNICA N\u00ba1 \\ARSENAL AERONAVAL PUNTA INDIO\\",
            "country_name": "Argentina",
            "connectivity": false
        },
        {
            "lon": -74.9224,
            "lat": -10.1757,
            "school_name": "34646",
            "country_name": "Peru",
            "connectivity": false
        },
        {
            "lon": -58.52577441,
            "lat": -34.5287472,
            "school_name": "INSTITUTO DE EDUCACION INTEGRAL DE MUNRO",
            "country_name": "Argentina",
            "connectivity": false
        },
        {
            "lon": -58.56200333,
            "lat": -34.6668953,
            "school_name": "ESCUELA PRIMARIA N\u00ba42 FRAGATA SARMIENTO",
            "country_name": "Argentina",
            "connectivity": false
        },
        {
            "lon": -60.94387131,
            "lat": -34.59151544,
            "school_name": "JARDIN DE INF. LA STA.UNION DE LOS SAGR.CORAZONES",
            "country_name": "Argentina",
            "connectivity": false
        },
        {
            "lon": -60.69143526,
            "lat": -31.63959125,
            "school_name": "E.E.S. ORIENTADA NRO 263 ALFONSO GRILLI",
            "country_name": "Argentina",
            "connectivity": false
        },
        {
            "lon": -60.9443763,
            "lat": -34.57286972,
            "school_name": "CENTRO EDUCATIVO COMPLEMENTARIO N\u00ba2 20 DE NOVIEMBRE",
            "country_name": "Argentina",
            "connectivity": false
        },
        {
            "lon": -62.29696274,
            "lat": -38.70390516,
            "school_name": "ESC. SECUNDARIA BASICA N\u00ba25",
            "country_name": "Argentina",
            "connectivity": false
        },
        {
            "lon": -58.41961932,
            "lat": -34.67767141,
            "school_name": "ESC. SECUNDARIA BASICA N\u00ba21",
            "country_name": "Argentina",
            "connectivity": false
        },
        {
            "lon": -58.38753721,
            "lat": -34.84354328,
            "school_name": "ESC. SECUNDARIA BASICA N\u00ba65",
            "country_name": "Argentina",
            "connectivity": false
        },
        {
            "lon": 6.93499,
            "lat": 5.656278333,
            "school_name": "Name unknown",
            "country_name": "Nigeria",
            "connectivity": false
        },
        {
            "lon": -65.77858181,
            "lat": -28.48774251,
            "school_name": "ESCUELA PARA ADULTO NO.36",
            "country_name": "Argentina",
            "connectivity": false
        },
        {
            "lon": -65.85820401,
            "lat": -28.62059503,
            "school_name": "ESCUELA N\u00b032 GRAL.JUAN JOSE VALLE",
            "country_name": "Argentina",
            "connectivity": false
        },
        {
            "lon": -60.22120231,
            "lat": -26.95159558,
            "school_name": "JARDIN DE INFANTES N\u00ba 87-LADIZ ESTHER FORTINI",
            "country_name": "Argentina",
            "connectivity": false
        },
        {
            "lon": -58.38938441,
            "lat": -34.61240775,
            "school_name": "INSTITUTO SUPERIOR PERITO MORENO",
            "country_name": "Argentina",
            "connectivity": false
        },
        {
            "lon": -63.53723522,
            "lat": -32.9223884,
            "school_name": "DEAN GREGORIO FUNES",
            "country_name": "Argentina",
            "connectivity": false
        },
        {
            "lon": -64.5999,
            "lat": -33.63329999,
            "school_name": "C.E.N.M.A. N\u00ba 243",
            "country_name": "Argentina",
            "connectivity": false
        },
        {
            "lon": -77.0119,
            "lat": -11.9934,
            "school_name": "0155 JOSE ANTONIO ENCINAS FRANCO",
            "country_name": "Peru",
            "connectivity": false
        },
        {
            "lon": -58.19376602,
            "lat": -26.16949197,
            "school_name": "NEP Y FP N\u00ba15 - EPEP N\u00ba434",
            "country_name": "Argentina",
            "connectivity": false
        },
        {
            "lon": -65.68645138,
            "lat": -23.20401413,
            "school_name": "ESCUELA N 339 JUAN IGNACIO GORRITI",
            "country_name": "Argentina",
            "connectivity": false
        },
        {
            "lon": -54.38866371,
            "lat": -26.93694982,
            "school_name": "ESC. N\u00b0 9 HUMBERTO T. PEREZ",
            "country_name": "Argentina",
            "connectivity": false
        },
        {
            "lon": -65.40524247,
            "lat": -24.77171826,
            "school_name": "COLEGIO SAN RAFAEL ARCANGEL EX N\u00b0 109 BIS",
            "country_name": "Argentina",
            "connectivity": false
        },
        {
            "lon": -65.42445324,
            "lat": -24.79976739,
            "school_name": "ARMADA NACIONAL EX N\u00b076",
            "country_name": "Argentina",
            "connectivity": false
        },
        {
            "lon": -65.41330983,
            "lat": -24.775187,
            "school_name": "BERNARDINO RIVADAVIA EX N\u00b031",
            "country_name": "Argentina",
            "connectivity": false
        },
        {
            "lon": -61.05137555,
            "lat": -31.01979321,
            "school_name": "ESCUELA NRO 943 NICOLAS RODRIGUEZ PE\u00d1A",
            "country_name": "Argentina",
            "connectivity": false
        },
        {
            "lon": -61.16723324,
            "lat": -33.04665034,
            "school_name": "E.E.S. ORIENTADA NRO 417 COLONIA CANDELARIA",
            "country_name": "Argentina",
            "connectivity": false
        },
        {
            "lon": -63.78066961,
            "lat": -25.88743109,
            "school_name": "ESCUELA N\u00b0 602",
            "country_name": "Argentina",
            "connectivity": false
        },
        {
            "lon": -63.33466823,
            "lat": -28.08144587,
            "school_name": "ESCUELA N\u00b0 65 JOSE C SALVATIERRA",
            "country_name": "Argentina",
            "connectivity": false
        },
        {
            "lon": -64.44626756,
            "lat": -28.5123036,
            "school_name": "ESCUELA N\u00b0 758",
            "country_name": "Argentina",
            "connectivity": false
        },
        {
            "lon": 7.892561552,
            "lat": 5.385204214,
            "school_name": "Name unknown",
            "country_name": "Nigeria",
            "connectivity": false
        },
        {
            "lon": 7.448856185,
            "lat": 5.383939815,
            "school_name": "Name unknown",
            "country_name": "Nigeria",
            "connectivity": false
        },
        {
            "lon": 7.467602366,
            "lat": 5.760246846,
            "school_name": "Name unknown",
            "country_name": "Nigeria",
            "connectivity": false
        },
        {
            "lon": 7.417908333,
            "lat": 5.11288,
            "school_name": "Name unknown",
            "country_name": "Nigeria",
            "connectivity": false
        },
        {
            "lon": 7.401233052,
            "lat": 5.102116089,
            "school_name": "Name unknown",
            "country_name": "Nigeria",
            "connectivity": false
        },
        {
            "lon": 12.38079333,
            "lat": 11.23449831,
            "school_name": "Name unknown",
            "country_name": "Nigeria",
            "connectivity": false
        },
        {
            "lon": 7.958597,
            "lat": 6.149946,
            "school_name": "Name unknown",
            "country_name": "Nigeria",
            "connectivity": false
        },
        {
            "lon": 6.136251,
            "lat": 6.760086,
            "school_name": "Name unknown",
            "country_name": "Nigeria",
            "connectivity": false
        },
        {
            "lon": 5.832002,
            "lat": 6.313389,
            "school_name": "Name unknown",
            "country_name": "Nigeria",
            "connectivity": false
        },
        {
            "lon": 5.217718,
            "lat": 7.629379,
            "school_name": "Name unknown",
            "country_name": "Nigeria",
            "connectivity": false
        },
        {
            "lon": 4.960613333,
            "lat": 7.794943333,
            "school_name": "Name unknown",
            "country_name": "Nigeria",
            "connectivity": false
        },
        {
            "lon": 5.144217,
            "lat": 7.920166,
            "school_name": "Name unknown",
            "country_name": "Nigeria",
            "connectivity": false
        },
        {
            "lon": 5.213346667,
            "lat": 7.498018333,
            "school_name": "Name unknown",
            "country_name": "Nigeria",
            "connectivity": false
        },
        {
            "lon": 7.478838875,
            "lat": 6.919127254,
            "school_name": "Name unknown",
            "country_name": "Nigeria",
            "connectivity": false
        },
        {
            "lon": 7.409864,
            "lat": 6.483167,
            "school_name": "Name unknown",
            "country_name": "Nigeria",
            "connectivity": false
        },
        {
            "lon": 7.37416,
            "lat": 6.441523333,
            "school_name": "Name unknown",
            "country_name": "Nigeria",
            "connectivity": false
        },
        {
            "lon": 7.3292,
            "lat": 8.83007,
            "school_name": "Name unknown",
            "country_name": "Nigeria",
            "connectivity": false
        },
        {
            "lon": 7.466285,
            "lat": 9.025967,
            "school_name": "Name unknown",
            "country_name": "Nigeria",
            "connectivity": false
        },
        {
            "lon": 7.240943333,
            "lat": 5.428325,
            "school_name": "Name unknown",
            "country_name": "Nigeria",
            "connectivity": false
        },
        {
            "lon": 6.980758,
            "lat": 5.619643,
            "school_name": "Name unknown",
            "country_name": "Nigeria",
            "connectivity": false
        },
        {
            "lon": -77.1093,
            "lat": -11.8352,
            "school_name": "5167 VICTOR RAUL HAYA DE LA TORRE",
            "country_name": "Peru",
            "connectivity": false
        },
        {
            "lon": -76.1007,
            "lat": -7.12133,
            "school_name": "726",
            "country_name": "Peru",
            "connectivity": false
        },
        {
            "lon": -77.0815,
            "lat": -12.0538,
            "school_name": "09 SANTA LUCIA",
            "country_name": "Peru",
            "connectivity": false
        },
        {
            "lon": -79.7192,
            "lat": -5.0974,
            "school_name": "1001",
            "country_name": "Peru",
            "connectivity": false
        },
        {
            "lon": -78.4267,
            "lat": -6.60609,
            "school_name": "101065",
            "country_name": "Peru",
            "connectivity": false
        },
        {
            "lon": -74.8168,
            "lat": -13.2527,
            "school_name": "1050",
            "country_name": "Peru",
            "connectivity": false
        },
        {
            "lon": -79.0628,
            "lat": -8.06528,
            "school_name": "110",
            "country_name": "Peru",
            "connectivity": false
        },
        {
            "lon": -71.3206,
            "lat": -14.1914,
            "school_name": "112",
            "country_name": "Peru",
            "connectivity": false
        },
        {
            "lon": -69.8474,
            "lat": -15.6024,
            "school_name": "1200 SEMILLITAS DEL SABER",
            "country_name": "Peru",
            "connectivity": false
        },
        {
            "lon": -80.6568,
            "lat": -4.95891,
            "school_name": "1510",
            "country_name": "Peru",
            "connectivity": false
        },
        {
            "lon": -79.573,
            "lat": -5.45789,
            "school_name": "15310",
            "country_name": "Peru",
            "connectivity": false
        },
        {
            "lon": -70.4367,
            "lat": -14.6223,
            "school_name": "1555",
            "country_name": "Peru",
            "connectivity": false
        },
        {
            "lon": -78.5589,
            "lat": -6.10274,
            "school_name": "16401",
            "country_name": "Peru",
            "connectivity": false
        },
        {
            "lon": -76.414,
            "lat": -10.2692,
            "school_name": "166",
            "country_name": "Peru",
            "connectivity": false
        },
        {
            "lon": -79.2682,
            "lat": -5.74718,
            "school_name": "16833",
            "country_name": "Peru",
            "connectivity": false
        },
        {
            "lon": -69.8315,
            "lat": -15.6421,
            "school_name": "201",
            "country_name": "Peru",
            "connectivity": false
        },
        {
            "lon": -75.219,
            "lat": -14.0221,
            "school_name": "22180",
            "country_name": "Peru",
            "connectivity": false
        },
        {
            "lon": -75.7457,
            "lat": -14.005,
            "school_name": "22343",
            "country_name": "Peru",
            "connectivity": false
        },
        {
            "lon": -73.1517,
            "lat": -14.8129,
            "school_name": "25505",
            "country_name": "Peru",
            "connectivity": false
        },
        {
            "lon": -74.5572,
            "lat": -8.36345,
            "school_name": "65099",
            "country_name": "Peru",
            "connectivity": false
        },
        {
            "lon": -75.1994,
            "lat": -12.0687,
            "school_name": "30127 SAN FRANCISCO DE ASIS",
            "country_name": "Peru",
            "connectivity": false
        },
        {
            "lon": -78.5641,
            "lat": -9.10058,
            "school_name": "304",
            "country_name": "Peru",
            "connectivity": false
        },
        {
            "lon": -75.7583,
            "lat": -11.4408,
            "school_name": "30713 MIGUEL GRAU SEMINARIO",
            "country_name": "Peru",
            "connectivity": false
        },
        {
            "lon": -78.958,
            "lat": -6.28133,
            "school_name": "317",
            "country_name": "Peru",
            "connectivity": false
        },
        {
            "lon": -71.9066,
            "lat": -13.5409,
            "school_name": "326",
            "country_name": "Peru",
            "connectivity": false
        },
        {
            "lon": -76.1357,
            "lat": -8.94181,
            "school_name": "32838",
            "country_name": "Peru",
            "connectivity": false
        },
        {
            "lon": -76.0037,
            "lat": -9.77738,
            "school_name": "33105",
            "country_name": "Peru",
            "connectivity": false
        },
        {
            "lon": -75.4857,
            "lat": -11.7907,
            "school_name": "338 HUELLITAS FRANCISCANAS",
            "country_name": "Peru",
            "connectivity": false
        },
        {
            "lon": -74.921,
            "lat": -12.8064,
            "school_name": "36065",
            "country_name": "Peru",
            "connectivity": false
        },
        {
            "lon": -75.0927,
            "lat": -12.4121,
            "school_name": "36324",
            "country_name": "Peru",
            "connectivity": false
        },
        {
            "lon": -74.7652,
            "lat": -12.0784,
            "school_name": "36429",
            "country_name": "Peru",
            "connectivity": false
        },
        {
            "lon": -73.8507,
            "lat": -13.09,
            "school_name": "38368",
            "country_name": "Peru",
            "connectivity": false
        },
        {
            "lon": -78.7891,
            "lat": -5.93379,
            "school_name": "388",
            "country_name": "Peru",
            "connectivity": false
        },
        {
            "lon": -78.7638,
            "lat": -6.93791,
            "school_name": "392",
            "country_name": "Peru",
            "connectivity": false
        },
        {
            "lon": -72.496,
            "lat": -15.362,
            "school_name": "40501",
            "country_name": "Peru",
            "connectivity": false
        },
        {
            "lon": -72.2062,
            "lat": -16.2724,
            "school_name": "40693",
            "country_name": "Peru",
            "connectivity": false
        },
        {
            "lon": -77.8788,
            "lat": -3.35268,
            "school_name": "409",
            "country_name": "Peru",
            "connectivity": false
        },
        {
            "lon": -74.3604,
            "lat": -13.8324,
            "school_name": "427-5",
            "country_name": "Peru",
            "connectivity": false
        },
        {
            "lon": -72.4371,
            "lat": -13.9768,
            "school_name": "50644 MIGUEL GRAU SEMINARIO",
            "country_name": "Peru",
            "connectivity": false
        },
        {
            "lon": -72.765,
            "lat": -9.61191,
            "school_name": "527-B",
            "country_name": "Peru",
            "connectivity": false
        },
        {
            "lon": -72.8521,
            "lat": -13.6499,
            "school_name": "54042",
            "country_name": "Peru",
            "connectivity": false
        },
        {
            "lon": -74.5458,
            "lat": -5.84218,
            "school_name": "601434",
            "country_name": "Peru",
            "connectivity": false
        },
        {
            "lon": -74.8333,
            "lat": -12.7843,
            "school_name": "605",
            "country_name": "Peru",
            "connectivity": false
        },
        {
            "lon": -76.3539,
            "lat": -5.80782,
            "school_name": "62082",
            "country_name": "Peru",
            "connectivity": false
        },
        {
            "lon": -70.9069,
            "lat": -14.7719,
            "school_name": "70494",
            "country_name": "Peru",
            "connectivity": false
        },
        {
            "lon": -69.4047,
            "lat": -16.2321,
            "school_name": "70664",
            "country_name": "Peru",
            "connectivity": false
        },
        {
            "lon": -69.3678,
            "lat": -15.4363,
            "school_name": "72563",
            "country_name": "Peru",
            "connectivity": false
        },
        {
            "lon": -78.2109,
            "lat": -7.8844,
            "school_name": "80146 MANUEL GONZALES PRADA",
            "country_name": "Peru",
            "connectivity": false
        },
        {
            "lon": -78.4192,
            "lat": -7.81729,
            "school_name": "80272 TEOFILO BENITES GIL",
            "country_name": "Peru",
            "connectivity": false
        },
        {
            "lon": -77.709,
            "lat": -7.99623,
            "school_name": "80540",
            "country_name": "Peru",
            "connectivity": false
        },