{
    "name": "Patchwork Kingdom #194 | Rilgaros",
    "description": "The twin kingdoms of Rilgaros, separated by a digital divide. A bustling kingdom of 173 schools on top that are all connected to the internet, and 116 schools, not connected, hidden in the upside down kingdom | Created for Giga (GigaConnect.org) \u2014 connecting every school in the world \u2014 in celebration of UNICEF's 75th birthday, by Nadieh Bremer",
    "external_url": "https://dummyURL.com/patchwork_kingdoms_194",
    "image": "https://dummy-storage-url.com/patchwork_kingdoms_194.png",
    "attributes": [
        {
            "trait_type": "Color palette",
            "value": "kaleidoscope"
        },
        {
            "display_type": "number",
            "trait_type": "Schools",
            "value": 318,
            "max_value": 460
        },
        {
            "display_type": "number",
            "trait_type": "Ratio - Connected",
            "value": 0.54,
            "max_value": 1
        },
        {
            "display_type": "number",
            "trait_type": "Ratio - Unconnected",
            "value": 0.36,
            "max_value": 1
        },
        {
            "display_type": "number",
            "trait_type": "Ratio - Data unavailable",
            "value": 0.09,
            "max_value": 1
        },
        {
            "trait_type": "Countries",
            "value": "BR-CO-CR-HN-KG-KZ-NA-PH-PS-RW-SL-ZW"
        },
        {
            "display_type": "number",
            "trait_type": "Symbols",
            "value": 45,
            "max_value": 51
        }
    ],
    "cluster_id": 194,
    "num_schools": 318,
    "num_schools_connected": 173,
    "num_schools_unconnected": 116,
    "num_schools_unknown": 29,
    "schools": [
        {
            "lon": -87.63125,
            "lat": 13.97935,
            "school_name": "JUAN LINDO",
            "country_name": "Honduras",
            "connectivity": true
        },
        {
            "lon": -88.59989,
            "lat": 14.04652,
            "school_name": "GRACIAS A DIOS",
            "country_name": "Honduras",
            "connectivity": true
        },
        {
            "lon": -88.47953,
            "lat": 14.74085,
            "school_name": "MANUEL BONILLA",
            "country_name": "Honduras",
            "connectivity": true
        },
        {
            "lon": -88.6757,
            "lat": 14.66209,
            "school_name": "ELIAS PEREZ",
            "country_name": "Honduras",
            "connectivity": true
        },
        {
            "lon": -88.59537,
            "lat": 14.80857,
            "school_name": "NUESTRO FUTURO",
            "country_name": "Honduras",
            "connectivity": true
        },
        {
            "lon": -88.51442,
            "lat": 14.09588,
            "school_name": "JORGE ALBERTO CALIX ORELLANA",
            "country_name": "Honduras",
            "connectivity": true
        },
        {
            "lon": -88.41228,
            "lat": 14.95058,
            "school_name": "JOSE ORLANDO LEIVA",
            "country_name": "Honduras",
            "connectivity": true
        },
        {
            "lon": -88.45267,
            "lat": 15.21764,
            "school_name": "DIONISIO DE HERRERA",
            "country_name": "Honduras",
            "connectivity": true
        },
        {
            "lon": -52.2609,
            "lat": -27.9153,
            "school_name": "ESC MUN ED INF ANJINHO DA GUARDA",
            "country_name": "Brazil",
            "connectivity": true
        },
        {
            "lon": -52.4323,
            "lat": -29.7075,
            "school_name": "NUCLEO MUNICIPAL DE EDUCACAO DE JOVENS E ADULTOS CEMEJA",
            "country_name": "Brazil",
            "connectivity": true
        },
        {
            "lon": -87.42374,
            "lat": 15.37728,
            "school_name": "PORFIRIO MARTINEZ CRUZ",
            "country_name": "Honduras",
            "connectivity": true
        },
        {
            "lon": -87.79129,
            "lat": 15.38254,
            "school_name": "DRA HELENA KULHMAN",
            "country_name": "Honduras",
            "connectivity": true
        },
        {
            "lon": -86.35377,
            "lat": 15.45988,
            "school_name": "RAMON AMAYA AMADOR",
            "country_name": "Honduras",
            "connectivity": true
        },
        {
            "lon": -49.1452,
            "lat": -26.5035,
            "school_name": "CMEI ONELIA MULLER ERSCHING",
            "country_name": "Brazil",
            "connectivity": true
        },
        {
            "lon": -48.5787,
            "lat": -25.8849,
            "school_name": "RAIO DE SOL C M E I",
            "country_name": "Brazil",
            "connectivity": true
        },
        {
            "lon": -88.80231,
            "lat": 14.66993,
            "school_name": "ESC.RURAL MIXTA HONDURAS",
            "country_name": "Honduras",
            "connectivity": true
        },
        {
            "lon": -87.3053,
            "lat": 13.22922,
            "school_name": "RAMON ROSA",
            "country_name": "Honduras",
            "connectivity": true
        },
        {
            "lon": -87.13131,
            "lat": 13.34523,
            "school_name": "CEB INTERNACIONAL RICARDO SORIANO",
            "country_name": "Honduras",
            "connectivity": true
        },
        {
            "lon": -84.3531,
            "lat": 15.48,
            "school_name": "RAFAEL HELIODORO VALLE",
            "country_name": "Honduras",
            "connectivity": true
        },
        {
            "lon": 32.14351,
            "lat": -18.13861,
            "school_name": "SHERENJE",
            "country_name": "Zimbabwe",
            "connectivity": true
        },
        {
            "lon": -41.7953,
            "lat": -22.3718,
            "school_name": "EMEI ELEA TATAGIBA DE AZEVEDO",
            "country_name": "Brazil",
            "connectivity": true
        },
        {
            "lon": -43.166,
            "lat": -22.1738,
            "school_name": "E E MUNICIPALIZADA EDUARDO DUVIVIER",
            "country_name": "Brazil",
            "connectivity": true
        },
        {
            "lon": -53.6078,
            "lat": -28.6288,
            "school_name": "ESC EST ENS MED DOM ANTONIO REIS",
            "country_name": "Brazil",
            "connectivity": true
        },
        {
            "lon": 30.09327778,
            "lat": -1.455083333,
            "school_name": "COLLEGE DE RUSHAKI",
            "country_name": "Rwanda",
            "connectivity": true
        },
        {
            "lon": -83.0812647,
            "lat": 9.9996932,
            "school_name": "MOIN",
            "country_name": "Costa Rica",
            "connectivity": true
        },
        {
            "lon": 35.265963,
            "lat": 32.215814,
            "school_name": "ibnhazm basic for boys",
            "country_name": "Palestine",
            "connectivity": true
        },
        {
            "lon": 35.244553,
            "lat": 32.234238,
            "school_name": "Modern English coed Basic",
            "country_name": "Palestine",
            "connectivity": true
        },
        {
            "lon": -78.082778,
            "lat": 2.2925,
            "school_name": "Name unknown",
            "country_name": "Colombia",
            "connectivity": false
        },
        {
            "lon": 29.27855,
            "lat": -16.92144,
            "school_name": "MASHUMA",
            "country_name": "Zimbabwe",
            "connectivity": true
        },
        {
            "lon": 31.61882,
            "lat": -21.41517,
            "school_name": "CHINGELE PRIMARY",
            "country_name": "Zimbabwe",
            "connectivity": true
        },
        {
            "lon": 29.29336,
            "lat": -20.82931,
            "school_name": "MBOKODO",
            "country_name": "Zimbabwe",
            "connectivity": true
        },
        {
            "lon": 28.48655,
            "lat": -21.36776,
            "school_name": "TSHELANYEMBA",
            "country_name": "Zimbabwe",
            "connectivity": true
        },
        {
            "lon": -36.5553,
            "lat": -8.3597,
            "school_name": "ESCOLA MUNICIPAL PROFESSORA NILZA LEITE AVELINO",
            "country_name": "Brazil",
            "connectivity": true
        },
        {
            "lon": 28.86053,
            "lat": -17.84741,
            "school_name": "MHUMHA",
            "country_name": "Zimbabwe",
            "connectivity": true
        },
        {
            "lon": -74.32596301,
            "lat": 5.387670455,
            "school_name": "INSTITUCION EDUCATIVA DE PAPATAS",
            "country_name": "Colombia",
            "connectivity": true
        },
        {
            "lon": -75.59551501,
            "lat": 6.240751285,
            "school_name": "Name unknown",
            "country_name": "Colombia",
            "connectivity": false
        },
        {
            "lon": -74.18861111,
            "lat": 4.586388889,
            "school_name": "Name unknown",
            "country_name": "Colombia",
            "connectivity": false
        },
        {
            "lon": 18.794722,
            "lat": -24.861111,
            "school_name": "P.I. Groenewald JS",
            "country_name": "Namibia",
            "connectivity": true
        },
        {
            "lon": 20.556667,
            "lat": -18.017222,
            "school_name": "Kamundema JP",
            "country_name": "Namibia",
            "connectivity": false
        },
        {
            "lon": 15.00472,
            "lat": -18.175,
            "school_name": "Iitapa PS",
            "country_name": "Namibia",
            "connectivity": false
        },
        {
            "lon": 120.5680988,
            "lat": 15.1388736,
            "school_name": "Apung Guidang Nepo ES",
            "country_name": "Philippines",
            "connectivity": true
        },
        {
            "lon": 120.529217,
            "lat": 15.625685,
            "school_name": "Sta. Lucia ES",
            "country_name": "Philippines",
            "connectivity": true
        },
        {
            "lon": 121.0213889,
            "lat": 13.86944444,
            "school_name": "Pinagkurusan Elementary School",
            "country_name": "Philippines",
            "connectivity": true
        },
        {
            "lon": 122.106087,
            "lat": 13.389703,
            "school_name": "Matuyatuya ES",
            "country_name": "Philippines",
            "connectivity": true
        },
        {
            "lon": 122.077922,
            "lat": 11.13906631,
            "school_name": "Tigunhao PS",
            "country_name": "Philippines",
            "connectivity": true
        },
        {
            "lon": 125.401299,
            "lat": 8.910765,
            "school_name": "Sangay ES",
            "country_name": "Philippines",
            "connectivity": true
        },
        {
            "lon": 125.607376,
            "lat": 10.088192,
            "school_name": "Sto. Nino ES",
            "country_name": "Philippines",
            "connectivity": true
        },
        {
            "lon": 125.939041,
            "lat": 9.612397,
            "school_name": "Sudlon ES",
            "country_name": "Philippines",
            "connectivity": true
        },
        {
            "lon": 124.41037,
            "lat": 9.983896,
            "school_name": "Bulilis High School",
            "country_name": "Philippines",
            "connectivity": true
        },
        {
            "lon": -48.101353,
            "lat": -21.717155,
            "school_name": "CAROLINA OMETTO PAVAN CER",
            "country_name": "Brazil",
            "connectivity": false
        },
        {
            "lon": -87.27023,
            "lat": 15.07593,
            "school_name": "ROBERTO MICHELETTI BAIN",
            "country_name": "Honduras",
            "connectivity": true
        },
        {
            "lon": -88.50438,
            "lat": 14.06228,
            "school_name": "SONRISAS INFANTILES",
            "country_name": "Honduras",
            "connectivity": true
        },
        {
            "lon": 120.6206766,
            "lat": 14.81710082,
            "school_name": "Batang II ES",
            "country_name": "Philippines",
            "connectivity": true
        },
        {
            "lon": -56.8311,
            "lat": -13.5518,
            "school_name": "EE DOMINGOS BRIANTE",
            "country_name": "Brazil",
            "connectivity": true
        },
        {
            "lon": -87.65249,
            "lat": 15.75368,
            "school_name": "ROMULO E DURON",
            "country_name": "Honduras",
            "connectivity": true
        },
        {
            "lon": -87.85294,
            "lat": 15.57562,
            "school_name": "RAMON MONTOYA",
            "country_name": "Honduras",
            "connectivity": true
        },
        {
            "lon": -72.333056,
            "lat": 5.437222,
            "school_name": "VILLA DEL CARMEN",
            "country_name": "Colombia",
            "connectivity": true
        },
        {
            "lon": -72.76014694,
            "lat": 5.757936037,
            "school_name": "I.E. TUNJUELO - SEDE PRINCIPAL",
            "country_name": "Colombia",
            "connectivity": true
        },
        {
            "lon": -72.58254131,
            "lat": 6.378148033,
            "school_name": "ESC EL CASCAJAL",
            "country_name": "Colombia",
            "connectivity": true
        },
        {
            "lon": -72.36526246,
            "lat": 11.31218301,
            "school_name": "SEDE ATZAULIA",
            "country_name": "Colombia",
            "connectivity": true
        },
        {
            "lon": -72.89357994,
            "lat": 8.994690895,
            "school_name": "CONC DE DESARROLLO RUR LA GABARRA",
            "country_name": "Colombia",
            "connectivity": true
        },
        {
            "lon": -73.10151473,
            "lat": 5.163706001,
            "school_name": "ESC CHAPACIA",
            "country_name": "Colombia",
            "connectivity": true
        },
        {
            "lon": -73.11094654,
            "lat": 5.772472421,
            "school_name": "I.E. EL ROSARIO - SEDE PRINCIPAL",
            "country_name": "Colombia",
            "connectivity": true
        },
        {
            "lon": -73.20333333,
            "lat": 7.47,
            "school_name": "ESCUELA RURAL BRISAS DE CACHIRICITO",
            "country_name": "Colombia",
            "connectivity": true
        },
        {
            "lon": -73.2,
            "lat": 7.29,
            "school_name": "ESCUELA RURAL EL DIAMANTE",
            "country_name": "Colombia",
            "connectivity": true
        },
        {
            "lon": -73.851922,
            "lat": 6.213126901,
            "school_name": "ESCUELA RURAL AGUACHICA",
            "country_name": "Colombia",
            "connectivity": true
        },
        {
            "lon": -74.21572791,
            "lat": 5.284134093,
            "school_name": "ESCUELA  RURAL SAN JERONIMO",
            "country_name": "Colombia",
            "connectivity": true
        },
        {
            "lon": -75.16138225,
            "lat": 5.860546657,
            "school_name": "C. E. R. EL CEDRO",
            "country_name": "Colombia",
            "connectivity": true
        },
        {
            "lon": -75.1304522,
            "lat": 8.665386909,
            "school_name": "SEDE MONSE\u00d1OR SANTOS",
            "country_name": "Colombia",
            "connectivity": true
        },
        {
            "lon": -76.2275268,
            "lat": 3.408478213,
            "school_name": "ELENA ROMERO DE MART\u00cdNEZ",
            "country_name": "Colombia",
            "connectivity": true
        },
        {
            "lon": -76.2956211,
            "lat": 3.912920378,
            "school_name": "MARIA LUISA DE LA ESPADA",
            "country_name": "Colombia",
            "connectivity": true
        },
        {
            "lon": -76.33957035,
            "lat": 2.909970907,
            "school_name": "CENTRO DOCENTE RURAL MIXTO EL TRAPICHE LA MARIA",
            "country_name": "Colombia",
            "connectivity": true
        },
        {
            "lon": -76.39139491,
            "lat": 2.624778324,
            "school_name": "ESCUELA RURAL MIXTA SAGRADO CORAZON",
            "country_name": "Colombia",
            "connectivity": true
        },
        {
            "lon": -76.23475714,
            "lat": 9.060481387,
            "school_name": "QUEBRADA DE YUCA",
            "country_name": "Colombia",
            "connectivity": true
        },
        {
            "lon": -76.66402321,
            "lat": 6.002035048,
            "school_name": "SEDE  EL LIMON",
            "country_name": "Colombia",
            "connectivity": true
        },
        {
            "lon": -76.7206802,
            "lat": 7.379380596,
            "school_name": "IE LA UNION DE BAJIRA - SEDE PRINCIPAL",
            "country_name": "Colombia",
            "connectivity": true
        },
        {
            "lon": -76.95143951,
            "lat": 6.115029559,
            "school_name": "SEDE IND\u00cdGENA COCALITO AURO BUEY",
            "country_name": "Colombia",
            "connectivity": true
        },
        {
            "lon": -77.32,
            "lat": 3.44,
            "school_name": "EL ENCANTO DEL SABER",
            "country_name": "Colombia",
            "connectivity": true
        },
        {
            "lon": -77.10984718,
            "lat": 1.473662579,
            "school_name": "CENTRO EDUCATIVO TIERRAS BLANCAS",
            "country_name": "Colombia",
            "connectivity": true
        },
        {
            "lon": -77.28734592,
            "lat": 1.212230803,
            "school_name": "I.E.M. NORMAL SUPERIOR DE PASTO - SEDE PRINCIPAL",
            "country_name": "Colombia",
            "connectivity": true
        },
        {
            "lon": -77.6141979,
            "lat": 0.929545277,
            "school_name": "CENTRO EDUCATIVO SAN MARCOS",
            "country_name": "Colombia",
            "connectivity": true
        },
        {
            "lon": -47.360344,
            "lat": -2.9963136,
            "school_name": "ASSOC JOSE PEREIRA DE FARIAS",
            "country_name": "Brazil",
            "connectivity": true
        },
        {
            "lon": -77.590278,
            "lat": 1.392222,
            "school_name": "CENTRO EDUCATIVO EL NARANJAL",
            "country_name": "Colombia",
            "connectivity": true
        },
        {
            "lon": -78.04675494,
            "lat": 1.668577926,
            "school_name": "CENTRO EDUCATIVO CHALCHAL",
            "country_name": "Colombia",
            "connectivity": true
        },
        {
            "lon": -61.9159,
            "lat": -12.458,
            "school_name": "EMEF FERNANDO SABINO",
            "country_name": "Brazil",
            "connectivity": true
        },
        {
            "lon": -63.3215,
            "lat": -8.1521,
            "school_name": "EEEFM PROFESSOR FRANCISCO DESMOREST PASSOS",
            "country_name": "Brazil",
            "connectivity": true
        },
        {
            "lon": -67.8577,
            "lat": -9.9511,
            "school_name": "ESC MARIA OLIVIA SA DE MESQUITA",
            "country_name": "Brazil",
            "connectivity": true
        },
        {
            "lon": -59.8549,
            "lat": -7.3281,
            "school_name": "ESCOLA MUNICIPAL ALTA UNIAO",
            "country_name": "Brazil",
            "connectivity": false
        },
        {
            "lon": -60.4146,
            "lat": 3.8937,
            "school_name": "ESC MUN IND INDIA KOKO OTILIA",
            "country_name": "Brazil",
            "connectivity": false
        },
        {
            "lon": -48.4518,
            "lat": -1.4243,
            "school_name": "EEEFM MAL CORDEIRO DE FARIAS",
            "country_name": "Brazil",
            "connectivity": true
        },
        {
            "lon": -41.6731,
            "lat": -21.1337,
            "school_name": "IE EBER TEIXEIRA DE FIGUEIREDO",
            "country_name": "Brazil",
            "connectivity": true
        },
        {
            "lon": -49.1109,
            "lat": -1.7919,
            "school_name": "E M E I F N SRA DO PERPETUO SOCORRO",
            "country_name": "Brazil",
            "connectivity": true
        },
        {
            "lon": -51.9015,
            "lat": 0.611,
            "school_name": "ESC MUL ELILUCIA DE SOUZA SANTOS",
            "country_name": "Brazil",
            "connectivity": false
        },
        {
            "lon": -47.7339,
            "lat": -8.4182,
            "school_name": "ESCOLA MUNICIPAL INDIGENA 19 DE ABRIL",
            "country_name": "Brazil",
            "connectivity": true
        },
        {
            "lon": -44.8196,
            "lat": -2.4274,
            "school_name": "ESCOLA MUNICIPAL BEIRA CAMPOS",
            "country_name": "Brazil",
            "connectivity": true
        },
        {
            "lon": -44.2377,
            "lat": -2.9944,
            "school_name": "UNIDADE INTEGRADA JORGE HENRIQUE ROCHA",
            "country_name": "Brazil",
            "connectivity": false
        },
        {
            "lon": -46.7339,
            "lat": -4.5747,
            "school_name": "EM BOM JESUS DAS SELVAS VI",
            "country_name": "Brazil",
            "connectivity": false
        },
        {
            "lon": -43.5443,
            "lat": -3.327,
            "school_name": "U I THOMAZ DE AQUINO",
            "country_name": "Brazil",
            "connectivity": false
        },
        {
            "lon": -43.9269,
            "lat": -6.4933,
            "school_name": "UE PROF JOSEFINA DE CASTRO",
            "country_name": "Brazil",
            "connectivity": false
        },
        {
            "lon": -44.9439,
            "lat": -7.1691,
            "school_name": "EM NSA SRA DE FATIMA",
            "country_name": "Brazil",
            "connectivity": false
        },
        {
            "lon": -43.1998,
            "lat": -5.522,
            "school_name": "UE RODRIGO DE OLIVEIRA ANEXO II",
            "country_name": "Brazil",
            "connectivity": false
        },
        {
            "lon": -42.563,
            "lat": -3.496,
            "school_name": "EM RAIMUNDO NONATO PIMENTEL",
            "country_name": "Brazil",
            "connectivity": false
        },
        {
            "lon": -45.8975,
            "lat": -2.1343,
            "school_name": "COMPLEXO EDUCACIONAL PROFESSOR HAMILTON WERNECK",
            "country_name": "Brazil",
            "connectivity": false
        },
        {
            "lon": -47.3681,
            "lat": -5.7457,
            "school_name": "IEMA - INSTITUTO ESTADUAL DE EDUCACAO CIENCIA E TECNOLOGIA DO MA UNIDADE VOCACIONAL - RIBEIRAOZINHO",
            "country_name": "Brazil",
            "connectivity": true
        },
        {
            "lon": -42.5111,
            "lat": -5.0975,
            "school_name": "UNIDADE ESCOLAR DEPUTADO PRADO JUNIOR",
            "country_name": "Brazil",
            "connectivity": true
        },
        {
            "lon": -44.4566,
            "lat": -9.233,
            "school_name": "ESCOLA MUNICIPAL JAIME RIBEIRO SOARES",
            "country_name": "Brazil",
            "connectivity": true
        },
        {
            "lon": -41.2553,
            "lat": -7.8934,
            "school_name": "ESC MUL CHICO BELO",
            "country_name": "Brazil",
            "connectivity": false
        },
        {
            "lon": -40.1596,
            "lat": -3.2856,
            "school_name": "FRANCISCO LOPES MARCAL EMEF",
            "country_name": "Brazil",
            "connectivity": true
        },
        {
            "lon": -40.195,
            "lat": -3.5495,
            "school_name": "ESCOLA DE ENSINO FUNDAMENTAL DOUTOR CHAGAS FEIJAO EEF",
            "country_name": "Brazil",
            "connectivity": false
        },
        {
            "lon": -39.5781,
            "lat": -3.2777,
            "school_name": "FRANCISCO BENTO EEB",
            "country_name": "Brazil",
            "connectivity": true
        },
        {
            "lon": -38.6573,
            "lat": -3.7166,
            "school_name": "EEM EDSON CORREA",
            "country_name": "Brazil",
            "connectivity": true
        },
        {
            "lon": -40.2194,
            "lat": -5.8101,
            "school_name": "FRANCISCO BARBOSA EEIF",
            "country_name": "Brazil",
            "connectivity": false
        },
        {
            "lon": -36.9602,
            "lat": -4.9302,
            "school_name": "ESCOLA MUNICIPAL MARIA NORONHA FILGUEIRA",
            "country_name": "Brazil",
            "connectivity": true
        },
        {
            "lon": -35.2405,
            "lat": -5.8319,
            "school_name": "CMEI PROFA MARIA ITACIRA BENTO",
            "country_name": "Brazil",
            "connectivity": true
        },
        {
            "lon": -38.5646,
            "lat": -6.4522,
            "school_name": "EMEF AUGUSTO EGIDIO DOS SANTOS",
            "country_name": "Brazil",
            "connectivity": true
        },
        {
            "lon": -37.2206,
            "lat": -7.2317,
            "school_name": "EMEF ANICETA NUNES LEITE",
            "country_name": "Brazil",
            "connectivity": false
        },
        {
            "lon": -35.7621,
            "lat": -6.8218,
            "school_name": "EMEIF MARIA JOSE DE ALBUQUERQUE",
            "country_name": "Brazil",
            "connectivity": true
        },
        {
            "lon": -35.4899,
            "lat": -6.8651,
            "school_name": "EMEIF AMALIA FREIRE DE PONTES",
            "country_name": "Brazil",
            "connectivity": true
        },
        {
            "lon": -34.8573,
            "lat": -7.1753,
            "school_name": "EMEF EM TEMPO INTEGRAL RADEGUNDES FEITOSA NUNES",
            "country_name": "Brazil",
            "connectivity": true
        },
        {
            "lon": -49.1313,
            "lat": -5.3844,
            "school_name": "EMEF HELOISA DE SOUZA CASTRO",
            "country_name": "Brazil",
            "connectivity": true
        },
        {
            "lon": -39.8481,
            "lat": -7.4957,
            "school_name": "GRUPO MUNICIPAL JOAO BARBOSA DAMACENO",
            "country_name": "Brazil",
            "connectivity": false
        },
        {
            "lon": -36.5798,
            "lat": -8.7498,
            "school_name": "ESCOLA JOAQUIM DO NASCIMENTO",
            "country_name": "Brazil",
            "connectivity": false
        },
        {
            "lon": -35.7069,
            "lat": -8.0561,
            "school_name": "GRUPO ESCOLAR JOAQUINA BARBOSA MEDEIROS",
            "country_name": "Brazil",
            "connectivity": false
        },
        {
            "lon": -36.3259,
            "lat": -8.9163,
            "school_name": "ESCOLA MUNICIPAL JOAO HONORIO APOLONIO",
            "country_name": "Brazil",
            "connectivity": false
        },
        {
            "lon": -36.6305,
            "lat": -5.1161,
            "school_name": "ESCOLA ESTADUAL PROFESSOR JOSE OLAVO DO VALE",
            "country_name": "Brazil",
            "connectivity": true
        },
        {
            "lon": -38.0253,
            "lat": -9.2233,
            "school_name": "ESCOLA MUNICIPAL DE EDUCACAO BASICA MONSENHOR SEBASTIAO ALVES BEZERRA",
            "country_name": "Brazil",
            "connectivity": true
        },
        {
            "lon": -37.5686,
            "lat": -10.7689,
            "school_name": "ESC MUL JOSE MARCIANO DE MENEZES",
            "country_name": "Brazil",
            "connectivity": false
        },
        {
            "lon": -37.1602,
            "lat": -10.7618,
            "school_name": "ESCOLA MUNICIPAL LEONIDIO LEITE",
            "country_name": "Brazil",
            "connectivity": true
        },
        {
            "lon": -44.9956,
            "lat": -12.1462,
            "school_name": "EE - COLEGIO ESTADUAL ANTONIO GERALDO",
            "country_name": "Brazil",
            "connectivity": true
        },
        {
            "lon": -43.0539,
            "lat": -12.5764,
            "school_name": "ESC MUNICIPAL FIRMINO ARCANJO",
            "country_name": "Brazil",
            "connectivity": false
        },
        {
            "lon": -40.1128,
            "lat": -11.8753,
            "school_name": "ESCOLA MUNICIPAL JOSE MURITIBA",
            "country_name": "Brazil",
            "connectivity": false
        },
        {
            "lon": -38.4805,
            "lat": -11.2412,
            "school_name": "ESCOLA PROF ROMULO GALVAO DE CARVALHO",
            "country_name": "Brazil",
            "connectivity": true
        },
        {
            "lon": -39.0753,
            "lat": -13.4098,
            "school_name": "ESCOLA MUNICIPAL DR ROMULO GALVAO DE QUEIROZ",
            "country_name": "Brazil",
            "connectivity": true
        },
        {
            "lon": -39.6089,
            "lat": -13.6018,
            "school_name": "CENTRO DE EDUCACAO INFANTIL VOVO JUSTINA PINHEIRO DE ANDRADE",
            "country_name": "Brazil",
            "connectivity": false
        },
        {
            "lon": -39.3825,
            "lat": -15.8545,
            "school_name": "ESCOLA MUNICIPAL DEUS ME DEU",
            "country_name": "Brazil",
            "connectivity": false
        },
        {
            "lon": -39.7355,
            "lat": -13.0313,
            "school_name": "SEMED-ESCOLA MUNICIPAL MARIA CONSTANCIA",
            "country_name": "Brazil",
            "connectivity": true
        },
        {
            "lon": -48.288,
            "lat": -17.2976,
            "school_name": "ESCOLA MUNICIPALIZADA CORONEL LINO TEIXEIRA SAMPAIO",
            "country_name": "Brazil",
            "connectivity": true
        },
        {
            "lon": -45.7901,
            "lat": -22.7907,
            "school_name": "EM PRES DUTRA",
            "country_name": "Brazil",
            "connectivity": true
        },
        {
            "lon": -41.9376,
            "lat": -20.43,
            "school_name": "PECON DE ALTO JEQUITIBA",
            "country_name": "Brazil",
            "connectivity": false
        },
        {
            "lon": -42.527,
            "lat": -20.1753,
            "school_name": "EM PROFESSORA MARIA CAMPOS SETTE",
            "country_name": "Brazil",
            "connectivity": true
        },
        {
            "lon": -42.8338,
            "lat": -20.9251,
            "school_name": "EE PROFESSOR ORMINDO DE SOUZA LIMA",
            "country_name": "Brazil",
            "connectivity": true
        },
        {
            "lon": -44.7392,
            "lat": -20.6613,
            "school_name": "E M PROFESSORA SALETE APARECIDA DE CASTRO SILVA",
            "country_name": "Brazil",
            "connectivity": false
        },
        {
            "lon": -43.3288,
            "lat": -16.935,
            "school_name": "EM CABECEIRA DE CONGONHAS L",
            "country_name": "Brazil",
            "connectivity": false
        },
        {
            "lon": -42.814,
            "lat": -14.927,
            "school_name": "ESCOLA MUNICIPAL PEQUENO PRINCIPE",
            "country_name": "Brazil",
            "connectivity": true
        },
        {
            "lon": -44.1634,
            "lat": -17.763,
            "school_name": "CENTRO MUNICIPAL DE EDUCACAO INFANTIL MESTRA LEONOR",
            "country_name": "Brazil",
            "connectivity": true
        },
        {
            "lon": -43.3667,
            "lat": -4.8713,
            "school_name": "CENTRO DE EDUCACAO INFANTIL ROSINA",
            "country_name": "Brazil",
            "connectivity": true
        },
        {
            "lon": -46.1903,
            "lat": -6.4501,
            "school_name": "CENTRO DE ENSINO ANTONIO SIRLEY DE ARRUDA LIMA",
            "country_name": "Brazil",
            "connectivity": true
        },
        {
            "lon": -45.6145,
            "lat": -21.9025,
            "school_name": "CEMEI PROFESSORA ANA CRISTINA ARANTES LUIS",
            "country_name": "Brazil",
            "connectivity": true
        },
        {
            "lon": -43.1649,
            "lat": -21.9503,
            "school_name": "EE DYRCE JOSE DA SILVA E SOUZA",
            "country_name": "Brazil",
            "connectivity": true
        },
        {
            "lon": -37.2694,
            "lat": -9.9204,
            "school_name": "ESCOLA MUNICIPAL TOMAZ BERMUDES",
            "country_name": "Brazil",
            "connectivity": true
        },
        {
            "lon": -47.2959,
            "lat": -23.2025,
            "school_name": "ODILO DELLA PASCHOA PROF CEMUS IV DE SALTO",
            "country_name": "Brazil",
            "connectivity": true
        },
        {
            "lon": -40.525,
            "lat": -20.0991,
            "school_name": "CEMEI ANTONIETA PORTES AMARANTE",
            "country_name": "Brazil",
            "connectivity": true
        },
        {
            "lon": -37.1273,
            "lat": -10.8537,
            "school_name": "ESCOLA MUNICIPAL PROFESSORA MARIA SAO PEDRO VASCONCELOS",
            "country_name": "Brazil",
            "connectivity": true
        },
        {
            "lon": -40.3682,
            "lat": -19.4079,
            "school_name": "EMPEI SAO CRISTOVAO",
            "country_name": "Brazil",
            "connectivity": false
        },
        {
            "lon": -42.2223,
            "lat": -21.9184,
            "school_name": "E M VICTOR BOQUIMPANI",
            "country_name": "Brazil",
            "connectivity": false
        },
        {
            "lon": -36.3891,
            "lat": -6.9375,
            "school_name": "ESCOLA MUNICIPAL ALZIRA XAVIER DAS NEVES",
            "country_name": "Brazil",
            "connectivity": true
        },
        {
            "lon": -42.5617,
            "lat": -22.9288,
            "school_name": "ESCOLA MUNICIPAL PROFESSORA OSIRIS PALMIER DA VEIGA",
            "country_name": "Brazil",
            "connectivity": true
        },
        {
            "lon": -37.812,
            "lat": -11.1411,
            "school_name": "ESCOLA MUNICIPAL JOAO BERNARDO DOS SANTOS",
            "country_name": "Brazil",
            "connectivity": true
        },
        {
            "lon": -43.6077,
            "lat": -22.8276,
            "school_name": "CIEP 167 JARDIM PARAISO",
            "country_name": "Brazil",
            "connectivity": true
        },
        {
            "lon": -46.7711,
            "lat": -23.2273,
            "school_name": "CRECHE VILA CHACRINHA",
            "country_name": "Brazil",
            "connectivity": true
        },
        {
            "lon": -43.0827,
            "lat": -22.8829,
            "school_name": "E M PAULO FREIRE",
            "country_name": "Brazil",
            "connectivity": true
        },
        {
            "lon": -43.2898,
            "lat": -22.6819,
            "school_name": "CRECHE E PRE ESCOLA MUNICIPAL PROFESSORA MARIA LUCIA ANDRADE RIBEIRO",
            "country_name": "Brazil",
            "connectivity": true
        },
        {
            "lon": -46.7098,
            "lat": -23.4798,
            "school_name": "JOAQUIM SILVADO DOUTOR",
            "country_name": "Brazil",
            "connectivity": true
        },
        {
            "lon": -38.4522,
            "lat": -10.7727,
            "school_name": "ESCOLA MUNICIPAL JOAO VICENTE DE SANTANA",
            "country_name": "Brazil",
            "connectivity": true
        },
        {
            "lon": -43.5403,
            "lat": -22.7208,
            "school_name": "E M TIRADENTES",
            "country_name": "Brazil",
            "connectivity": true
        },
        {
            "lon": -46.9497,
            "lat": -22.34,
            "school_name": "JOAO VERIDIANO FRANCO VEREADOR EMEI",
            "country_name": "Brazil",
            "connectivity": true
        },
        {
            "lon": -46.5027,
            "lat": -23.5886,
            "school_name": "EMEI JARDIM IMPERADOR",
            "country_name": "Brazil",
            "connectivity": true
        },
        {
            "lon": -47.3082,
            "lat": -22.759,
            "school_name": "CUNHATHAI EMEI",
            "country_name": "Brazil",
            "connectivity": true
        },
        {
            "lon": -47.4625,
            "lat": -22.5908,
            "school_name": "ISAURA GAIZA DO AMARAL PENTEADO PROFA EMEIEF",
            "country_name": "Brazil",
            "connectivity": false
        },
        {
            "lon": -47.247,
            "lat": -23.1212,
            "school_name": "LUIZ CARLOS BATISTA DE MOURA PROFESSOR EMEB",
            "country_name": "Brazil",
            "connectivity": true
        },
        {
            "lon": -47.9579,
            "lat": -21.5503,
            "school_name": "GUIOMAR APPARECIDA MILUZZI DE OLIVEIRA PROFA EMEF",
            "country_name": "Brazil",
            "connectivity": true
        },
        {
            "lon": -46.4881,
            "lat": -23.489,
            "school_name": "CEI DIRET JARDIM VERONIA",
            "country_name": "Brazil",
            "connectivity": true
        },
        {
            "lon": -48.4358,
            "lat": -1.332,
            "school_name": "EEEFM MARIA GABRIELA RAMOS DE OLIVEIRA",
            "country_name": "Brazil",
            "connectivity": true
        },
        {
            "lon": -46.9025,
            "lat": -23.6067,
            "school_name": "PORTAL DA PRIMAVERA EM",
            "country_name": "Brazil",
            "connectivity": true
        },
        {
            "lon": -48.9575,
            "lat": -21.128,
            "school_name": "JOSE D OLIVEIRA BARRETO PROFESSOR EMEF",
            "country_name": "Brazil",
            "connectivity": true
        },
        {
            "lon": -47.0048,
            "lat": -23.0403,
            "school_name": "EDUARDO VON ZUBEN CENTRO INTEGRADO DE CIDADANIA",
            "country_name": "Brazil",
            "connectivity": true
        },
        {
            "lon": -51.1594,
            "lat": -29.6775,
            "school_name": "ESC EST ENS FUN JAIR HENRIQUE FOSCARINI",
            "country_name": "Brazil",
            "connectivity": true
        },
        {
            "lon": -41.5488,
            "lat": -7.6784,
            "school_name": "ESCOLA MUNICIPAL SAO DOMINGOS",
            "country_name": "Brazil",
            "connectivity": true
        },
        {
            "lon": -46.7126,
            "lat": -23.4635,
            "school_name": "PAULISTANO ETEC",
            "country_name": "Brazil",
            "connectivity": true
        },
        {
            "lon": -45.891,
            "lat": -23.2582,
            "school_name": "ZILAH FERREIRA VIAGI PASSARELLI DE CAMPOS PROFESSORA",
            "country_name": "Brazil",
            "connectivity": true
        },
        {
            "lon": -46.5042,
            "lat": -23.6055,
            "school_name": "SHIRO KYONO DEPUTADO",
            "country_name": "Brazil",
            "connectivity": true
        },
        {
            "lon": -34.9344,
            "lat": -8.1721,
            "school_name": "ESCOLA DE REFERENCIA EM ENSINO MEDIO DESPORTISTA RUBEM RODRIGUES MOREIRA",
            "country_name": "Brazil",
            "connectivity": true
        },
        {
            "lon": -43.2522,
            "lat": -13.2786,
            "school_name": "ESCOLA MUNICIPAL PROFESSORA ZELIA NASCIMENTO MAGALHAES COSTA",
            "country_name": "Brazil",
            "connectivity": true
        },
        {
            "lon": -49.2078,
            "lat": -25.3449,
            "school_name": "FAVO DE MEL C M E I",
            "country_name": "Brazil",
            "connectivity": true
        },
        {
            "lon": -49.4103,
            "lat": -28.7018,
            "school_name": "CEDUP ABILIO PAULO",
            "country_name": "Brazil",
            "connectivity": true
        },
        {
            "lon": -40.6577,
            "lat": -19.5212,
            "school_name": "EMEIEF AMELIO FORECHI",
            "country_name": "Brazil",
            "connectivity": true
        },
        {
            "lon": -52.8427,
            "lat": -25.7342,
            "school_name": "SANT ANA E M EI EF",
            "country_name": "Brazil",
            "connectivity": true
        },
        {
            "lon": -50.6516,
            "lat": -27.5977,
            "school_name": "EMEF SALTO DOS ESMERIOS",
            "country_name": "Brazil",
            "connectivity": true
        },
        {
            "lon": -50.7589,
            "lat": -27.9006,
            "school_name": "ESCOLA MULTISSERIADA MUNICIPAL MORRO DO CHAPEU",
            "country_name": "Brazil",
            "connectivity": false
        },
        {
            "lon": -53.501,
            "lat": -26.8223,
            "school_name": "EEB EVERARDO BACKHEUSER",
            "country_name": "Brazil",
            "connectivity": true
        },
        {
            "lon": -50.3677,
            "lat": -27.5912,
            "school_name": "CEI PINGO DE GENTE",
            "country_name": "Brazil",
            "connectivity": true
        },
        {
            "lon": -49.4277,
            "lat": -28.6989,
            "school_name": "EMEF PROF",
            "country_name": "Brazil",
            "connectivity": true
        },
        {
            "lon": -49.2471,
            "lat": -28.5977,
            "school_name": "EEBM BIAZIO MARAGNO",
            "country_name": "Brazil",
            "connectivity": true
        },
        {
            "lon": -49.4181,
            "lat": -25.4084,
            "school_name": "PEDRO II C E D EF M",
            "country_name": "Brazil",
            "connectivity": true
        },
        {
            "lon": -50.6823,
            "lat": -29.6419,
            "school_name": "EMEF DIONYSIO PIRES DE MELLO",
            "country_name": "Brazil",
            "connectivity": true
        },
        {
            "lon": -50.046,
            "lat": -29.7689,
            "school_name": "EMEI LOBINHO GUARA",
            "country_name": "Brazil",
            "connectivity": true
        },
        {
            "lon": -51.7424,
            "lat": -19.1059,
            "school_name": "CMEI - JURACY LUCAS",
            "country_name": "Brazil",
            "connectivity": true
        },
        {
            "lon": -36.6772,
            "lat": -9.9,
            "school_name": "ESCOLA ESTADUAL MANOEL LEANDRO DE LIRA",
            "country_name": "Brazil",
            "connectivity": true
        },
        {
            "lon": -49.241,
            "lat": -25.7498,
            "school_name": "SAGRADO CORACAO DE MARIA E R M EF",
            "country_name": "Brazil",
            "connectivity": true
        },
        {
            "lon": -46.5299,
            "lat": -23.4259,
            "school_name": "PEDRO ROBERTO VAGHI",
            "country_name": "Brazil",
            "connectivity": true
        },
        {
            "lon": -52.6706,
            "lat": -27.0982,
            "school_name": "CEIM PEQUENOS HEROIS",
            "country_name": "Brazil",
            "connectivity": true
        },
        {
            "lon": -43.6702,
            "lat": -22.9761,
            "school_name": "1026028 ESCOLA MUNICIPAL PROFESSOR JORGE LUIZ ITABORAI DE ALMEIDA",
            "country_name": "Brazil",
            "connectivity": true
        },
        {
            "lon": -41.3151,
            "lat": -21.7648,
            "school_name": "EM PEQUENO JORNALEIRO",
            "country_name": "Brazil",
            "connectivity": true
        },
        {
            "lon": -51.6424,
            "lat": -21.333,
            "school_name": "CRIANCA ESPERANCA EM",
            "country_name": "Brazil",
            "connectivity": true
        },
        {
            "lon": -50.0542,
            "lat": -28.9718,
            "school_name": "EMEI ANJINHO SAPECA",
            "country_name": "Brazil",
            "connectivity": true
        },
        {
            "lon": -47.8824,
            "lat": -15.8104,
            "school_name": "CEJA E EDUC PROFISSIONAL A DISTANCIA DE BRASILIA",
            "country_name": "Brazil",
            "connectivity": true
        },
        {
            "lon": -52.1656,
            "lat": -22.9603,
            "school_name": "FLAVIO SARRAO E M PROF EI EF",
            "country_name": "Brazil",
            "connectivity": true
        },
        {
            "lon": -42.8354,
            "lat": -14.9911,
            "school_name": "EE MANOEL DOS SANTOS",
            "country_name": "Brazil",
            "connectivity": true
        },
        {
            "lon": -52.5944,
            "lat": -23.6698,
            "school_name": "BOSCO C E D EF M",
            "country_name": "Brazil",
            "connectivity": true
        },
        {
            "lon": -47.7628,
            "lat": -23.5343,
            "school_name": "ADELINO DOS SANTOS CENTRO MUNICIPAL DE EDUCACAO INFANTIL",
            "country_name": "Brazil",
            "connectivity": true
        },
        {
            "lon": -51.8782,
            "lat": -23.4284,
            "school_name": "JARDIM PANORAMA C E EF M",
            "country_name": "Brazil",
            "connectivity": true
        },
        {
            "lon": -61.781,
            "lat": -11.9026,
            "school_name": "CEEJA DOMINGOS VONA",
            "country_name": "Brazil",
            "connectivity": true
        },
        {
            "lon": -46.4151,
            "lat": -18.423,
            "school_name": "CENTRO MUNICIPAL DE EDUCACAO CASA DA CRIANCA DE PRESIDENTE OLEGARIO",
            "country_name": "Brazil",
            "connectivity": true
        },
        {
            "lon": -45.9213,
            "lat": -21.6866,
            "school_name": "CEMEAI - CENTRO MUNICIPAL DE EDUCACAO E AMPARO A INFANCIA PROFESSOR CLEUTON PEREIRA GONCALVES",
            "country_name": "Brazil",
            "connectivity": true
        },
        {
            "lon": -49.8171,
            "lat": -26.1776,
            "school_name": "EEB JOVINO LIMA",
            "country_name": "Brazil",
            "connectivity": true
        },
        {
            "lon": -40.3101,
            "lat": -2.8927,
            "school_name": "LUIS ALBANO DA SILVEIRA EEF",
            "country_name": "Brazil",
            "connectivity": true
        },
        {
            "lon": -63.3943,
            "lat": -9.6493,
            "school_name": "ESCOLA SANTA MARCELINA - SUBSEDE I",
            "country_name": "Brazil",
            "connectivity": true
        },
        {
            "lon": -44.0432,
            "lat": -19.6213,
            "school_name": "EE SAO JOSE",
            "country_name": "Brazil",
            "connectivity": true
        },
        {
            "lon": -44.2699,
            "lat": -20.0459,
            "school_name": "EE PROFESSORA GERALDA EUGENIA DA SILVA",
            "country_name": "Brazil",
            "connectivity": true
        },
        {
            "lon": -45.9858,
            "lat": -16.5656,
            "school_name": "CESEC ESMERIA MARIA DO CARMO",
            "country_name": "Brazil",
            "connectivity": true
        }
    ],
    "num_countries": 12,
    "countries": [
        "Brazil",
        "Colombia",
        "Costa Rica",
        "Honduras",
        "Kazakhstan",
        "Kyrgyzstan",
        "Namibia",
        "Palestine",
        "Philippines",
        "Rwanda",
        "Sierra Leone",
        "Zimbabwe"
    ],
    "schools_no_data": [
        {
            "lon": 2.1013201,
            "lat": 13.5637811,
            "school_name": "Name unknown",
            "country_name": "Niger",
            "connectivity": false
        },
        {
            "lon": -11.257792,
            "lat": 7.038476,
            "school_name": "Boima Govii Public School",
            "country_name": "Liberia",
            "connectivity": false
        },
        {
            "lon": -0.204563,
            "lat": 5.5534222,
            "school_name": "Name unknown",
            "country_name": "Ghana",
            "connectivity": false
        },
        {
            "lon": 32.9474684833333,
            "lat": 15.0233013166667,
            "school_name": "Name unknown",
            "country_name": "Sudan",
            "connectivity": false
        },
        {
            "lon": 32.63607618,
            "lat": 13.14498823,
            "school_name": "Name unknown",
            "country_name": "Sudan",
            "connectivity": false
        },
        {
            "lon": 32.71740505,
            "lat": 12.97224075,
            "school_name": "Name unknown",
            "country_name": "Sudan",
            "connectivity": false
        },
        {
            "lon": 32.57831373,
            "lat": 13.6769762,
            "school_name": "Name unknown",
            "country_name": "Sudan",
            "connectivity": false
        },
        {
            "lon": 23.38124427,
            "lat": 12.58474142,
            "school_name": "Name unknown",
            "country_name": "Sudan",
            "connectivity": false
        },
        {
            "lon": 0.043313,
            "lat": 6.1580133,
            "school_name": "Name unknown",
            "country_name": "Ghana",
            "connectivity": false
        },
        {
            "lon": -2.1733621,
            "lat": 7.4878149,
            "school_name": "Name unknown",
            "country_name": "Ghana",
            "connectivity": false
        },
        {
            "lon": 0.0627893,
            "lat": 8.8209227,
            "school_name": "Name unknown",
            "country_name": "Ghana",
            "connectivity": false
        },
        {
            "lon": -2.7905788,
            "lat": 6.624233,
            "school_name": "Name unknown",
            "country_name": "Ghana",
            "connectivity": false
        },
        {
            "lon": -0.8343988,
            "lat": 9.5640702,
            "school_name": "Name unknown",
            "country_name": "Ghana",
            "connectivity": false
        },
        {
            "lon": -0.8782311,
            "lat": 9.4119632,
            "school_name": "Name unknown",
            "country_name": "Ghana",
            "connectivity": false
        },
        {
            "lon": 39.73128,
            "lat": -7.97429,
            "school_name": "KIEGEANI",
            "country_name": "United Republic of Tanzania",
            "connectivity": false
        },
        {
            "lon": 37.47831,
            "lat": -3.27728,
            "school_name": "MAKAMI CHINI",
            "country_name": "United Republic of Tanzania",
            "connectivity": false
        },
        {
            "lon": 39.118,
            "lat": -5.0747,
            "school_name": "SAHARE E.M",
            "country_name": "United Republic of Tanzania",
            "connectivity": false
        },
        {
            "lon": 37.67931,
            "lat": -3.64685,
            "school_name": "MASUMBENI",
            "country_name": "United Republic of Tanzania",
            "connectivity": false
        },
        {
            "lon": 36.74722,
            "lat": -5.86425,
            "school_name": "ENGUSEROSIDAN",
            "country_name": "United Republic of Tanzania",
            "connectivity": false
        },
        {
            "lon": 39.27342,
            "lat": -6.93133,
            "school_name": "DAY SPRING",
            "country_name": "United Republic of Tanzania",
            "connectivity": false
        },
        {
            "lon": 31.64611,
            "lat": -1.88499,
            "school_name": "KITUNTU",
            "country_name": "United Republic of Tanzania",
            "connectivity": false
        },
        {
            "lon": 32.09118,
            "lat": -3.08944,
            "school_name": "KILOMBERO",
            "country_name": "United Republic of Tanzania",
            "connectivity": false
        },
        {
            "lon": 31.09055,
            "lat": -1.38914,
            "school_name": "KINYINYA",
            "country_name": "United Republic of Tanzania",
            "connectivity": false
        },
        {
            "lon": 31.51799,
            "lat": -1.60394,
            "school_name": "NYAKAJU",
            "country_name": "United Republic of Tanzania",
            "connectivity": false
        },
        {
            "lon": 33.03776,
            "lat": -9.0031,
            "school_name": "MAHENJE",
            "country_name": "United Republic of Tanzania",
            "connectivity": false
        },
        {
            "lon": 20.42495728,
            "lat": 45.37530235,
            "school_name": "\u0416\u0430\u0440\u043a\u043e \u0417\u0440\u0435\u045a\u0430\u043d\u0438\u043d",
            "country_name": "Serbia",
            "connectivity": false
        },
        {
            "lon": 1.231768333,
            "lat": 6.137373333,
            "school_name": "JEPL AKOFA",
            "country_name": "Togo",
            "connectivity": false
        },
        {
            "lon": 0.140496,
            "lat": 10.93001,
            "school_name": "JEP BEGOU NAGUE",
            "country_name": "Togo",
            "connectivity": false
        },
        {
            "lon": 0.040138333,
            "lat": 10.76835833,
            "school_name": "JEP BAGOU",
            "country_name": "Togo",
            "connectivity": false
        },
        {
            "lon": 1.157776,
            "lat": 6.303567,
            "school_name": "EPP AGOSSITO",
            "country_name": "Togo",
            "connectivity": false
        },
        {
            "lon": 39.63168,
            "lat": -10.84851,
            "school_name": "ZAMBIA",
            "country_name": "United Republic of Tanzania",
            "connectivity": false
        },
        {
            "lon": 36.14408,
            "lat": -4.89229,
            "school_name": "KWADELO B",
            "country_name": "United Republic of Tanzania",
            "connectivity": false
        },
        {
            "lon": 34.43332379,
            "lat": -15.74306642,
            "school_name": "Malowa",
            "country_name": "Malawi",
            "connectivity": false
        },
        {
            "lon": 34.84745568,
            "lat": -15.20389432,
            "school_name": "Matchereza Primary School",
            "country_name": "Malawi",
            "connectivity": false
        },
        {
            "lon": 35.29974955,
            "lat": -15.68874991,
            "school_name": "Makuwa",
            "country_name": "Malawi",
            "connectivity": false
        },
        {
            "lon": 34.24356275,
            "lat": -11.66209452,
            "school_name": "Limphasa",
            "country_name": "Malawi",
            "connectivity": false
        },
        {
            "lon": 33.97436899,
            "lat": -11.52256347,
            "school_name": "Lukalazi",
            "country_name": "Malawi",
            "connectivity": false
        },
        {
            "lon": 34.99461022,
            "lat": -15.97584676,
            "school_name": "Mankhamba 1",
            "country_name": "Malawi",
            "connectivity": false
        },
        {
            "lon": 21.15760803,
            "lat": 44.02590269,
            "school_name": "17. \u043e\u043a\u0442\u043e\u0431\u0430\u0440",
            "country_name": "Serbia",
            "connectivity": false
        },
        {
            "lon": 26.26310309,
            "lat": -8.40643171,
            "school_name": "INST PALABA",
            "country_name": "Democratic Republic of the Congo",
            "connectivity": false
        },
        {
            "lon": 15.27431598,
            "lat": -4.337306612,
            "school_name": "LYCEE MONTAIGNE",
            "country_name": "Democratic Republic of the Congo",
            "connectivity": false
        },
        {
            "lon": 30.54620006,
            "lat": 3.342041779,
            "school_name": "EP ARA",
            "country_name": "Democratic Republic of the Congo",
            "connectivity": false
        },
        {
            "lon": 19.98371413,
            "lat": -6.105063218,
            "school_name": "INST1 MUANGU - MAKER",
            "country_name": "Democratic Republic of the Congo",
            "connectivity": false
        },
        {
            "lon": 19.20559896,
            "lat": 0.089905746,
            "school_name": "INST BAKAKO",
            "country_name": "Democratic Republic of the Congo",
            "connectivity": false
        },
        {
            "lon": 22.30506753,
            "lat": -6.244211325,
            "school_name": "EP KABUE",
            "country_name": "Democratic Republic of the Congo",
            "connectivity": false
        },
        {
            "lon": 25.11271066,
            "lat": -6.124719014,
            "school_name": "INST DECKA",
            "country_name": "Democratic Republic of the Congo",
            "connectivity": false
        },
        {
            "lon": 23.27667122,
            "lat": -6.657688053,
            "school_name": "EP BULOBA",
            "country_name": "Democratic Republic of the Congo",
            "connectivity": false
        },
        {
            "lon": 27.49673804,
            "lat": -11.75651631,
            "school_name": "CS PIGEON VERT",
            "country_name": "Democratic Republic of the Congo",
            "connectivity": false
        },
        {
            "lon": 21.01706028,
            "lat": 43.64014381,
            "school_name": "\u0416\u0438\u0432\u0430\u0434\u0438\u043d \u0410\u043f\u043e\u0441\u0442\u043e\u043b\u043e\u0432\u0438\u045b",
            "country_name": "Serbia",
            "connectivity": false
        },
        {
            "lon": 13.58731517,
            "lat": -5.515902803,
            "school_name": "ITP INGA",
            "country_name": "Democratic Republic of the Congo",
            "connectivity": false
        },
        {
            "lon": -103.507533,
            "lat": 25.559641,
            "school_name": "INSTITUTO DE LA LUZ DE LA CRUZ ROJA MEXICANA DELEGACION GOMEZ PALACIO DGO",
            "country_name": "Mexico",
            "connectivity": false
        },
        {
            "lon": -97.54989,
            "lat": 21.4252,
            "school_name": "TELEBACHILLERATO SALADERO",
            "country_name": "Mexico",
            "connectivity": false
        },
        {
            "lon": -96.9997,
            "lat": 18.89757,
            "school_name": "INSTITUTO EDUCATIVO SERRADELL A.C.",
            "country_name": "Mexico",
            "connectivity": false
        },
        {
            "lon": -10.15203,
            "lat": 16.08684,
            "school_name": "\u0645\u062f\u0631\u0633\u0629\u0645\u0646\u0649\u0627\u0647\u0644\u0627\u0644\u062d\u0633\u064a\u0646",
            "country_name": "Mauritania",
            "connectivity": false
        },
        {
            "lon": -12.33739,
            "lat": 15.56662,
            "school_name": "\u0627\u0643\u0648\u064a\u0646\u064a\u062a1",
            "country_name": "Mauritania",
            "connectivity": false
        },
        {
            "lon": 31.29692,
            "lat": -0.31414,
            "school_name": "NYANTUNGO PRIM SCHOOL",
            "country_name": "Uganda",
            "connectivity": false
        },
        {
            "lon": 33.86121,
            "lat": 0.19332,
            "school_name": "Busiro High",
            "country_name": "Uganda",
            "connectivity": false
        },
        {
            "lon": 33.98541,
            "lat": 0.69151,
            "school_name": "James Ochola Mem. S.S.",
            "country_name": "Uganda",
            "connectivity": false
        },
        {
            "lon": 33.93504,
            "lat": 1.11542,
            "school_name": "Bulangira P.S.",
            "country_name": "Uganda",
            "connectivity": false
        },
        {
            "lon": -58.58162586,
            "lat": -34.55769226,
            "school_name": "ESC. SECUNDARIA BASICA N\u00ba44",
            "country_name": "Argentina",
            "connectivity": false
        },
        {
            "lon": -58.22511195,
            "lat": -34.74007283,
            "school_name": "ESC. SECUNDARIA BASICA N\u00ba66",
            "country_name": "Argentina",
            "connectivity": false
        },
        {
            "lon": 34.21583,
            "lat": 1.12905,
            "school_name": "Nankusi P.S.",
            "country_name": "Uganda",
            "connectivity": false
        },
        {
            "lon": 31.44445,
            "lat": -0.54098,
            "school_name": "Kitambuza P.S.",
            "country_name": "Uganda",
            "connectivity": false
        },
        {
            "lon": 31.80395,
            "lat": 0.10238,
            "school_name": "Kiribedda P.S",
            "country_name": "Uganda",
            "connectivity": false
        },
        {
            "lon": 29.10816,
            "lat": -25.84933,
            "school_name": "Blackhill Schoongezight Primary School",
            "country_name": "South Africa",
            "connectivity": false
        },
        {
            "lon": 28.61071,
            "lat": -26.64878,
            "school_name": "Qalabocha Primary School",
            "country_name": "South Africa",
            "connectivity": false
        },
        {
            "lon": 26.58749,
            "lat": -26.88833,
            "school_name": "Matlosane Senior Secondary School",
            "country_name": "South Africa",
            "connectivity": false
        },
        {
            "lon": 25.41499,
            "lat": -25.78298,
            "school_name": "Mmasutlhe Primary School",
            "country_name": "South Africa",
            "connectivity": false
        },
        {
            "lon": 31.16118,
            "lat": -25.3149,
            "school_name": "Mthayiza Primary School",
            "country_name": "South Africa",
            "connectivity": false
        },
        {
            "lon": 25.30996,
            "lat": -26.28363,
            "school_name": "Aaron Letsapa Primary School",
            "country_name": "South Africa",
            "connectivity": false
        },
        {
            "lon": 18.64103,
            "lat": -33.89246,
            "school_name": "Bellville-Noord Primary School",
            "country_name": "South Africa",
            "connectivity": false
        },
        {
            "lon": 30.04157,
            "lat": -23.32776,
            "school_name": "Saint Scholastica Primary",
            "country_name": "South Africa",
            "connectivity": false
        },
        {
            "lon": 30.19459,
            "lat": -30.96193,
            "school_name": "Enkoneni Primary School",
            "country_name": "South Africa",
            "connectivity": false
        },
        {
            "lon": 30.39065,
            "lat": -29.56586,
            "school_name": "Northlands Primary School",
            "country_name": "South Africa",
            "connectivity": false
        },
        {
            "lon": 29.36848,
            "lat": -28.82066,
            "school_name": "Ezwelethu Primary School",
            "country_name": "South Africa",
            "connectivity": false
        },
        {
            "lon": 29.40627,
            "lat": -28.64491,
            "school_name": "Acton Homes Primary School",
            "country_name": "South Africa",
            "connectivity": false
        },
        {
            "lon": 30.3534,
            "lat": -30.7337,
            "school_name": "Murchison Primary School",
            "country_name": "South Africa",
            "connectivity": false
        },
        {
            "lon": 30.76598,
            "lat": -30.17208,
            "school_name": "Magabeni Junior Primary School",
            "country_name": "South Africa",
            "connectivity": false
        },
        {
            "lon": 30.76651,
            "lat": -30.16728,
            "school_name": "Sheshisa Senior Primary School",
            "country_name": "South Africa",
            "connectivity": false
        },
        {
            "lon": 30.78559,
            "lat": -29.99942,
            "school_name": "Sawpits Primary School",
            "country_name": "South Africa",
            "connectivity": false
        },
        {
            "lon": 30.98177,
            "lat": -29.9209,
            "school_name": "Samsons School Of Welding",
            "country_name": "South Africa",
            "connectivity": false
        },
        {
            "lon": 23.96516,
            "lat": -33.98167,
            "school_name": "Bluelilies Bush Public Primary School",
            "country_name": "South Africa",
            "connectivity": false
        },
        {
            "lon": 30.36156,
            "lat": -23.381,
            "school_name": "Nwamavimbi Secondary",
            "country_name": "South Africa",
            "connectivity": false
        },
        {
            "lon": 31.89656,
            "lat": -28.77782,
            "school_name": "Easy Way Driving School",
            "country_name": "South Africa",
            "connectivity": false
        },
        {
            "lon": 31.38642,
            "lat": -29.32195,
            "school_name": "Lubisana Primary School",
            "country_name": "South Africa",
            "connectivity": false
        },
        {
            "lon": 30.59183,
            "lat": -29.06396,
            "school_name": "Veyana Driving School",
            "country_name": "South Africa",
            "connectivity": false
        },
        {
            "lon": 30.91802,
            "lat": -29.90449,
            "school_name": "Apollo Secondary School",
            "country_name": "South Africa",
            "connectivity": false
        },
        {
            "lon": 28.05046,
            "lat": -26.13061,
            "school_name": "Ceed Learning",
            "country_name": "South Africa",
            "connectivity": false
        },
        {
            "lon": 28.20087,
            "lat": -25.74262,
            "school_name": "S A College Private School",
            "country_name": "South Africa",
            "connectivity": false
        },
        {
            "lon": 27.4625,
            "lat": -32.93004,
            "school_name": "Nosizwe High School",
            "country_name": "South Africa",
            "connectivity": false
        },
        {
            "lon": 26.72939,
            "lat": -27.95747,
            "school_name": "FET College - Goldfields",
            "country_name": "South Africa",
            "connectivity": false
        },
        {
            "lon": 26.22253,
            "lat": -29.15036,
            "school_name": "Headstart High School",
            "country_name": "South Africa",
            "connectivity": false
        },
        {
            "lon": 29.62496,
            "lat": -31.11215,
            "school_name": "Ekupumleni Junior Secondary School",
            "country_name": "South Africa",
            "connectivity": false
        },
        {
            "lon": -88.893764,
            "lat": 20.596369,
            "school_name": "TELEBACHILLERATO COMUNITARIO DE TABI",
            "country_name": "Mexico",
            "connectivity": false
        },
        {
            "lon": -60.24448286,
            "lat": -34.29746684,
            "school_name": "ESCUELA PRIMARIA N\u00ba27 MIGUEL DE AZCUENAGA",
            "country_name": "Argentina",
            "connectivity": false
        },
        {
            "lon": -59.07444809,
            "lat": -34.49612062,
            "school_name": "JARDIN DE INFANTES N\u00ba907 MANUEL BELGRANO",
            "country_name": "Argentina",
            "connectivity": false
        },
        {
            "lon": -62.34247,
            "lat": -38.69188,
            "school_name": "ESCUELA PRIMARIA N\u00ba28 CORNELIO SAAVEDRA",
            "country_name": "Argentina",
            "connectivity": false
        },
        {
            "lon": -58.01184351,
            "lat": -35.57149734,
            "school_name": "INSTITUTO SUPERIOR DE FORMACION DOCENTE Y TECNICA N\u00ba57",
            "country_name": "Argentina",
            "connectivity": false
        },
        {
            "lon": -59.82150596,
            "lat": -34.37418791,
            "school_name": "ESCUELA PRIMARIA N\u00ba1 GENERAL JOSE DE SAN MARTIN",
            "country_name": "Argentina",
            "connectivity": false
        },
        {
            "lon": -59.105712,
            "lat": -37.1314536,
            "school_name": "ESCUELA PRIMARIA N\u00ba15 MARTIN MIGUEL DE G\u00dcEMES",
            "country_name": "Argentina",
            "connectivity": false
        },
        {
            "lon": -61.89443785,
            "lat": -35.81551947,
            "school_name": "JARDIN DE INFANTES N\u00ba908 ALFONSINA STORNI",
            "country_name": "Argentina",
            "connectivity": false
        },
        {
            "lon": -58.58859861,
            "lat": -34.6865728,
            "school_name": "CENTRO DE ALFABETIZACION N\u00ba67",
            "country_name": "Argentina",
            "connectivity": false
        },
        {
            "lon": -58.2640205,
            "lat": -34.77743211,
            "school_name": "COLEGIO SAN JUSTINO",
            "country_name": "Argentina",
            "connectivity": false
        },
        {
            "lon": -59.65101792,
            "lat": -35.07776961,
            "school_name": "JARDIN DE INFANTES RURAL N\u00ba5",
            "country_name": "Argentina",
            "connectivity": false
        },
        {
            "lon": -58.73547686,
            "lat": -34.63142184,
            "school_name": "UN MUNDO EN MI LUGAR",
            "country_name": "Argentina",
            "connectivity": false
        },
        {
            "lon": -64.437442,
            "lat": -31.72278428,
            "school_name": "ESCUELA DOMINGO FAUSTINO SARMIENTO",
            "country_name": "Argentina",
            "connectivity": false
        },
        {
            "lon": -62.77812962,
            "lat": -31.44287498,
            "school_name": "ELISEO GARCIA",
            "country_name": "Argentina",
            "connectivity": false
        },
        {
            "lon": -57.63022409,
            "lat": -30.2526705,
            "school_name": "INSTITUTO DE BELLEZA G.I.R E P 89",
            "country_name": "Argentina",
            "connectivity": false
        },
        {
            "lon": -60.31206027,
            "lat": -32.03751909,
            "school_name": "ESCUELA SECUNDARIA 74 ARGENTINA SOBERANA",
            "country_name": "Argentina",
            "connectivity": false
        },
        {
            "lon": -65.21485359,
            "lat": -24.26881412,
            "school_name": "ESCUELA N 411 MAYOR ENRIQUE CARLOS LUTTERAL",
            "country_name": "Argentina",
            "connectivity": false
        },
        {
            "lon": -67.50456147,
            "lat": -29.30013937,
            "school_name": "ESCUELA PROVINCIAL DE COMERCIO DE NONOGASTA",
            "country_name": "Argentina",
            "connectivity": false
        },
        {
            "lon": -66.8494273,
            "lat": -29.42500142,
            "school_name": "JARDIN DE INFANTES N\u00b004 OVIDIO DECROLY",
            "country_name": "Argentina",
            "connectivity": false
        },
        {
            "lon": -66.81037061,
            "lat": -31.35603336,
            "school_name": "ESC.N\u00b0113",
            "country_name": "Argentina",
            "connectivity": false
        },
        {
            "lon": -68.63902474,
            "lat": -33.16289348,
            "school_name": "SEGUNDO CORREAS",
            "country_name": "Argentina",
            "connectivity": false
        },
        {
            "lon": -68.86420181,
            "lat": -32.94841184,
            "school_name": "ESCUELA N\u00b0 6-061 CENTRO DE CAPACITACION PARA EL TRABAJO (63 1179)",
            "country_name": "Argentina",
            "connectivity": false
        },
        {
            "lon": -67.55830193,
            "lat": -39.03017605,
            "school_name": "CENTRO EDUCATIVO DE NIVEL SECUNDARIO NRO.11",
            "country_name": "Argentina",
            "connectivity": false
        },
        {
            "lon": -69.24650548,
            "lat": -51.63660672,
            "school_name": "JARDIN DE INFANTES N\u00ba 41 CHEELKENEU",
            "country_name": "Argentina",
            "connectivity": false
        },
        {
            "lon": -75.5027,
            "lat": -11.7785,
            "school_name": "353 MADRE TERESA DE CALCUTA",
            "country_name": "Peru",
            "connectivity": false
        },
        {
            "lon": -60.70003528,
            "lat": -32.86047628,
            "school_name": "A.E.S. ORIENTADA NRO 1422",
            "country_name": "Argentina",
            "connectivity": false
        },
        {
            "lon": -61.58527488,
            "lat": -32.47642044,
            "school_name": "ESCUELA NRO 196 IGNACIO CRESPO",
            "country_name": "Argentina",
            "connectivity": false
        },
        {
            "lon": -64.2713704,
            "lat": -27.82234989,
            "school_name": "CENTRO DE EDUCACION BASICA DEL ADULTO N\u00b0 002",
            "country_name": "Argentina",
            "connectivity": false
        },
        {
            "lon": -63.69520521,
            "lat": -29.50395249,
            "school_name": "ANEXO JARDIN DE INFANTES N\u00ba20 OSITOS CARI\u00d1OSOS",
            "country_name": "Argentina",
            "connectivity": false
        },
        {
            "lon": -62.41718029,
            "lat": -27.64450643,
            "school_name": "INSTITUTO DE FORMACION DOCENTE N\u00b013 CALASANZ",
            "country_name": "Argentina",
            "connectivity": false
        },
        {
            "lon": 5.723684,
            "lat": 5.856495,
            "school_name": "Name unknown",
            "country_name": "Nigeria",
            "connectivity": false
        },
        {
            "lon": 5.774621,
            "lat": 5.623735,
            "school_name": "Name unknown",
            "country_name": "Nigeria",
            "connectivity": false
        },
        {
            "lon": 7.391731,
            "lat": 5.120639,
            "school_name": "Name unknown",
            "country_name": "Nigeria",
            "connectivity": false
        },
        {
            "lon": 8.402706298,
            "lat": 6.27187012,
            "school_name": "Name unknown",
            "country_name": "Nigeria",
            "connectivity": false
        },
        {
            "lon": 7.952255,
            "lat": 5.971181667,
            "school_name": "Name unknown",
            "country_name": "Nigeria",
            "connectivity": false
        },
        {
            "lon": 5.572209,
            "lat": 6.366765,
            "school_name": "Name unknown",
            "country_name": "Nigeria",
            "connectivity": false
        },
        {
            "lon": 13.93841741,
            "lat": 12.26749899,
            "school_name": "Name unknown",
            "country_name": "Nigeria",
            "connectivity": false
        },
        {
            "lon": 13.26636689,
            "lat": 12.13537727,
            "school_name": "Name unknown",
            "country_name": "Nigeria",
            "connectivity": false
        },
        {
            "lon": 5.393316667,
            "lat": 7.74372,
            "school_name": "Name unknown",
            "country_name": "Nigeria",
            "connectivity": false
        },
        {
            "lon": 7.65517782,
            "lat": 6.673031942,
            "school_name": "Name unknown",
            "country_name": "Nigeria",
            "connectivity": false
        },
        {
            "lon": 7.65692,
            "lat": 6.85233,
            "school_name": "Name unknown",
            "country_name": "Nigeria",
            "connectivity": false
        },
        {
            "lon": 7.097157,
            "lat": 6.510678,
            "school_name": "Name unknown",
            "country_name": "Nigeria",
            "connectivity": false
        },
        {
            "lon": 6.880947,
            "lat": 9.022603,
            "school_name": "Name unknown",
            "country_name": "Nigeria",
            "connectivity": false
        },
        {
            "lon": 10.72709,
            "lat": 10.82291,
            "school_name": "Name unknown",
            "country_name": "Nigeria",
            "connectivity": false
        },
        {
            "lon": 10.77373,
            "lat": 10.82365,
            "school_name": "Name unknown",
            "country_name": "Nigeria",
            "connectivity": false
        },
        {
            "lon": 11.28263,
            "lat": 9.777735,
            "school_name": "Name unknown",
            "country_name": "Nigeria",
            "connectivity": false
        },
        {
            "lon": 11.51156692,
            "lat": 10.06573907,
            "school_name": "Name unknown",
            "country_name": "Nigeria",
            "connectivity": false
        },
        {
            "lon": 7.103674,
            "lat": 5.887274,
            "school_name": "Name unknown",
            "country_name": "Nigeria",
            "connectivity": false
        },
        {
            "lon": 7.396983333,
            "lat": 5.580203333,
            "school_name": "Name unknown",
            "country_name": "Nigeria",
            "connectivity": false
        },
        {
            "lon": -76.3025,
            "lat": -6.5253,
            "school_name": "95",
            "country_name": "Peru",
            "connectivity": false
        },
        {
            "lon": -76.8645,
            "lat": -6.2311,
            "school_name": "00993 JULIO RAMON RIBEYRO",
            "country_name": "Peru",
            "connectivity": false
        },
        {
            "lon": -76.6686,
            "lat": -7.76608,
            "school_name": "114",
            "country_name": "Peru",
            "connectivity": false
        },
        {
            "lon": -76.6243,
            "lat": -6.6765,
            "school_name": "326",
            "country_name": "Peru",
            "connectivity": false
        },
        {
            "lon": -76.5167,
            "lat": -6.6372,
            "school_name": "604",
            "country_name": "Peru",
            "connectivity": false
        },
        {
            "lon": -76.8947,
            "lat": -6.1571,
            "school_name": "88",
            "country_name": "Peru",
            "connectivity": false
        },
        {
            "lon": -76.7155,
            "lat": -7.0711,
            "school_name": "95",
            "country_name": "Peru",
            "connectivity": false
        },
        {
            "lon": -79.3402,
            "lat": -6.40819,
            "school_name": "10600",
            "country_name": "Peru",
            "connectivity": false
        },
        {
            "lon": -78.5326,
            "lat": -6.33457,
            "school_name": "10889",
            "country_name": "Peru",
            "connectivity": false
        },
        {
            "lon": -78.8618,
            "lat": -5.27045,
            "school_name": "1278",
            "country_name": "Peru",
            "connectivity": false
        },
        {
            "lon": -77.2864,
            "lat": -5.9739,
            "school_name": "1283",
            "country_name": "Peru",
            "connectivity": false
        },
        {
            "lon": -76.9017,
            "lat": -12.0188,
            "school_name": "1287",
            "country_name": "Peru",
            "connectivity": false
        },
        {
            "lon": -79.8134,
            "lat": -4.9418,
            "school_name": "14326",
            "country_name": "Peru",
            "connectivity": false
        },
        {
            "lon": -79.4945,
            "lat": -5.23044,
            "school_name": "14427 SANTIAGO ROLANDO CANO RIVERA",
            "country_name": "Peru",
            "connectivity": false
        },
        {
            "lon": -80.0482,
            "lat": -5.09634,
            "school_name": "14725 SE\u00d1ORA DE LA ASUNCION",
            "country_name": "Peru",
            "connectivity": false
        },
        {
            "lon": -75.8553,
            "lat": -5.32418,
            "school_name": "172",
            "country_name": "Peru",
            "connectivity": false
        },
        {
            "lon": -76.8009,
            "lat": -6.80717,
            "school_name": "174",
            "country_name": "Peru",
            "connectivity": false
        },
        {
            "lon": -77.0261,
            "lat": -12.0148,
            "school_name": "2063 CORONEL JOSE FELIX BOGADO",
            "country_name": "Peru",
            "connectivity": false
        },
        {
            "lon": -76.9976,
            "lat": -10.6311,
            "school_name": "20910",
            "country_name": "Peru",
            "connectivity": false
        },
        {
            "lon": -74.5742,
            "lat": -8.35538,
            "school_name": "234",
            "country_name": "Peru",
            "connectivity": false
        },
        {
            "lon": -73.3434,
            "lat": -15.2106,
            "school_name": "277-31",
            "country_name": "Peru",
            "connectivity": false
        },
        {
            "lon": -74.3753,
            "lat": -11.3503,
            "school_name": "30001-233",
            "country_name": "Peru",
            "connectivity": false
        },
        {
            "lon": -75.327,
            "lat": -11.0558,
            "school_name": "30752 JERONIMO JIMENEZ",
            "country_name": "Peru",
            "connectivity": false
        },
        {
            "lon": -75.8628,
            "lat": -9.30855,
            "school_name": "32790",
            "country_name": "Peru",
            "connectivity": false
        },
        {
            "lon": -75.8684,
            "lat": -9.17616,
            "school_name": "32914",
            "country_name": "Peru",
            "connectivity": false
        },
        {
            "lon": -76.9617,
            "lat": -12.2153,
            "school_name": "AVANTGARD COLLEGE",
            "country_name": "Peru",
            "connectivity": false
        },
        {
            "lon": -74.9005,
            "lat": -12.502,
            "school_name": "36595",
            "country_name": "Peru",
            "connectivity": false
        },
        {
            "lon": 3.36539,
            "lat": 6.63761,
            "school_name": "Name unknown",
            "country_name": "Nigeria",
            "connectivity": false
        },
        {
            "lon": -74.1954,
            "lat": -13.2478,
            "school_name": "38953",
            "country_name": "Peru",
            "connectivity": false
        },
        {
            "lon": -74.2186,
            "lat": -13.2002,
            "school_name": "38984-23",
            "country_name": "Peru",
            "connectivity": false
        },
        {
            "lon": -74.2488,
            "lat": -12.9412,
            "school_name": "39013 CLARA CASTILLO DE GAYOZZO",
            "country_name": "Peru",
            "connectivity": false
        },
        {
            "lon": -73.8878,
            "lat": -12.5356,
            "school_name": "429-89",
            "country_name": "Peru",
            "connectivity": false
        },
        {
            "lon": -74.7518,
            "lat": -12.1034,
            "school_name": "443",
            "country_name": "Peru",
            "connectivity": false
        },
        {
            "lon": -71.6476,
            "lat": -13.4429,
            "school_name": "50459 SAN JUAN BAUTISTA",
            "country_name": "Peru",
            "connectivity": false
        },
        {
            "lon": -72.1354,
            "lat": -14.5347,
            "school_name": "513",
            "country_name": "Peru",
            "connectivity": false
        },
        {
            "lon": -78.8274,
            "lat": -5.99674,
            "school_name": "541",
            "country_name": "Peru",
            "connectivity": false
        },
        {
            "lon": -71.2005,
            "lat": -14.3562,
            "school_name": "587",
            "country_name": "Peru",
            "connectivity": false
        },
        {
            "lon": -75.3313,
            "lat": -4.38665,
            "school_name": "601646",
            "country_name": "Peru",
            "connectivity": false
        },
        {
            "lon": -76.7279,
            "lat": -4.28037,
            "school_name": "601740",
            "country_name": "Peru",
            "connectivity": false
        },
        {
            "lon": -78.599,
            "lat": -6.55251,
            "school_name": "670",
            "country_name": "Peru",
            "connectivity": false
        },
        {
            "lon": -70.1057,
            "lat": -14.9904,
            "school_name": "72039",
            "country_name": "Peru",
            "connectivity": false
        },
        {
            "lon": -69.2682,
            "lat": -15.2138,
            "school_name": "72529",
            "country_name": "Peru",
            "connectivity": false
        },
        {
            "lon": -70.1331,
            "lat": -15.056,
            "school_name": "72666",
            "country_name": "Peru",
            "connectivity": false
        },
        {
            "lon": -78.5046,
            "lat": -7.68836,
            "school_name": "80328",
            "country_name": "Peru",
            "connectivity": false
        },
        {
            "lon": -79.8698,
            "lat": -5.18672,
            "school_name": "806",
            "country_name": "Peru",
            "connectivity": false
        },
        {
            "lon": -78.0483,
            "lat": -7.6175,
            "school_name": "82289",
            "country_name": "Peru",
            "connectivity": false
        },
        {
            "lon": -78.4016,
            "lat": -7.03112,
            "school_name": "853",
            "country_name": "Peru",
            "connectivity": false
        },
        {
            "lon": -77.8455,
            "lat": -9.40016,
            "school_name": "86681",
            "country_name": "Peru",
            "connectivity": false
        },
        {
            "lon": -78.5162,
            "lat": -9.13137,
            "school_name": "88240 PAZ Y AMISTAD",
            "country_name": "Peru",
            "connectivity": false
        },
        {
            "lon": -78.3139,
            "lat": -9.46871,
            "school_name": "88255 JOSE OLAYA",
            "country_name": "Peru",
            "connectivity": false
        },
        {
            "lon": -73.3571,
            "lat": -13.6425,
            "school_name": "944",
            "country_name": "Peru",
            "connectivity": false
        },
        {
            "lon": -75.2082,
            "lat": -12.1018,
            "school_name": "950",
            "country_name": "Peru",
            "connectivity": false
        },
        {
            "lon": -74.9814,
            "lat": -8.35551,
            "school_name": "AGROP. NUEVO PIURA",
            "country_name": "Peru",
            "connectivity": false
        },
        {
            "lon": -72.0179,
            "lat": -13.9164,
            "school_name": "MUNDO DEL SOL",
            "country_name": "Peru",
            "connectivity": false
        },
        {
            "lon": -76.9915,
            "lat": -12.0921,
            "school_name": "BRIGHT KIDS",
            "country_name": "Peru",
            "connectivity": false
        },
        {
            "lon": -71.8882,
            "lat": -13.55,
            "school_name": "CARITAS FELICES",
            "country_name": "Peru",
            "connectivity": false
        },
        {
            "lon": -77.0751,
            "lat": -11.9634,
            "school_name": "CARITAS FELICES",
            "country_name": "Peru",
            "connectivity": false
        },
        {
            "lon": -77.0024,
            "lat": -11.9719,
            "school_name": "CEBA - 0086 JOSE MARIA ARGUEDAS",
            "country_name": "Peru",
            "connectivity": false
        },
        {
            "lon": -71.9514,
            "lat": -13.5156,
            "school_name": "NUESTRA SE\u00d1ORA DE GRACIA",
            "country_name": "Peru",
            "connectivity": false
        },
        {
            "lon": -78.5882,
            "lat": -9.07314,
            "school_name": "CEBA - 89004 MANUEL GON ZALES PRADA",
            "country_name": "Peru",
            "connectivity": false
        },
        {
            "lon": -76.997,
            "lat": -12.0,
            "school_name": "CRISTO NAZARENO",
            "country_name": "Peru",
            "connectivity": false
        },
        {
            "lon": -71.9184,
            "lat": -13.5353,
            "school_name": "PICAFLORCITOS DE ORO",
            "country_name": "Peru",
            "connectivity": false
        },
        {
            "lon": -76.8714,
            "lat": -12.1318,
            "school_name": "EL OASIS DE MANCHAY",
            "country_name": "Peru",
            "connectivity": false
        },
        {
            "lon": -70.2577,
            "lat": -18.0233,
            "school_name": "EMILIA ZANIKA BARCIA BONIFFATTI",
            "country_name": "Peru",
            "connectivity": false
        },
        {
            "lon": -79.9877,
            "lat": -5.23908,
            "school_name": "ENRIQUE LOPEZ ALBUJAR",
            "country_name": "Peru",
            "connectivity": false
        },
        {
            "lon": -73.5808,
            "lat": -13.7117,
            "school_name": "ERNESTO GUEVARA LA SERNA",
            "country_name": "Peru",
            "connectivity": false
        },
        {
            "lon": -76.9747,
            "lat": -12.1558,
            "school_name": "INGENIERIA DE CARMELITAS",
            "country_name": "Peru",
            "connectivity": false
        },
        {
            "lon": -71.9442,
            "lat": -13.5244,
            "school_name": "KHIPU",
            "country_name": "Peru",
            "connectivity": false
        },
        {
            "lon": -78.361,
            "lat": -6.62005,
            "school_name": "LA LIBERTAD DEL PORVENIR",
            "country_name": "Peru",
            "connectivity": false
        },
        {
            "lon": -76.9391,
            "lat": -12.206,
            "school_name": "LOS CARI\u00d1OSITOS",
            "country_name": "Peru",
            "connectivity": false
        },
        {
            "lon": -74.1806,
            "lat": -9.46727,
            "school_name": "LOS CARI\u00d1OSITOS - B",
            "country_name": "Peru",
            "connectivity": false
        },
        {
            "lon": -78.9962,
            "lat": -8.13125,
            "school_name": "LOS JAZMINES",
            "country_name": "Peru",
            "connectivity": false
        },
        {
            "lon": -79.0489,
            "lat": -8.06923,
            "school_name": "LOS NI\u00d1OS DE JESUS",
            "country_name": "Peru",
            "connectivity": false
        },
        {
            "lon": -78.627,
            "lat": -6.55205,
            "school_name": "LOS PATITOS",
            "country_name": "Peru",
            "connectivity": false
        },
        {
            "lon": -78.7233,
            "lat": -6.4393,
            "school_name": "LOS PAYASITOS",
            "country_name": "Peru",
            "connectivity": false
        },
        {
            "lon": -75.8898,
            "lat": -10.9692,
            "school_name": "LOS TULIPANES",
            "country_name": "Peru",
            "connectivity": false
        },
        {
            "lon": -77.108,
            "lat": -12.066,
            "school_name": "LUCECITAS DEL SABER",
            "country_name": "Peru",
            "connectivity": false
        },
        {
            "lon": -79.8409,
            "lat": -6.79872,
            "school_name": "MASTER COLLEGE",
            "country_name": "Peru",
            "connectivity": false
        },
        {
            "lon": -79.7414,
            "lat": -5.16731,
            "school_name": "PALO COLORADO",
            "country_name": "Peru",
            "connectivity": false
        },
        {
            "lon": -80.2498,
            "lat": -4.93065,
            "school_name": "PALOMINOS",
            "country_name": "Peru",
            "connectivity": false
        },
        {
            "lon": -70.2757,
            "lat": -18.0322,
            "school_name": "POLLITOS A",
            "country_name": "Peru",
            "connectivity": false
        },
        {
            "lon": -79.1476,
            "lat": -7.766,
            "school_name": "REY DE REYES",
            "country_name": "Peru",
            "connectivity": false
        },
        {
            "lon": -74.8503,
            "lat": -15.5697,
            "school_name": "SAGRADO CORAZON DE MARIA",
            "country_name": "Peru",
            "connectivity": false
        },
        {
            "lon": -79.872,
            "lat": -5.04243,
            "school_name": "SAN AGUSTIN",
            "country_name": "Peru",
            "connectivity": false
        },
        {
            "lon": -75.2273,
            "lat": -12.0451,
            "school_name": "SAN IGNACIO DE LOYOLA",
            "country_name": "Peru",
            "connectivity": false
        },
        {
            "lon": -74.8819,
            "lat": -10.8011,
            "school_name": "SAN JOSE ALTO KUVIRIANI",
            "country_name": "Peru",
            "connectivity": false
        },
        {
            "lon": -78.8109,
            "lat": -5.99306,
            "school_name": "SAN JUAN BAUTISTA",
            "country_name": "Peru",
            "connectivity": false
        },
        {
            "lon": -71.5049,
            "lat": -16.408,
            "school_name": "SAN MARTIN A",
            "country_name": "Peru",
            "connectivity": false
        },
        {
            "lon": -77.8144,
            "lat": -10.6757,
            "school_name": "SAN MARTIN DE PORRAS",
            "country_name": "Peru",
            "connectivity": false
        },
        {
            "lon": -77.0715,
            "lat": -11.8698,
            "school_name": "VILLA JESUS",
            "country_name": "Peru",
            "connectivity": false
        },
        {
            "lon": 9.4846773,
            "lat": 12.694252,
            "school_name": "Name unknown",
            "country_name": "Nigeria",
            "connectivity": false
        },
        {
            "lon": 9.1609583,
            "lat": 12.4048414,
            "school_name": "Name unknown",
            "country_name": "Nigeria",
            "connectivity": false
        },
        {
            "lon": 6.276186705,
            "lat": 10.55335522,
            "school_name": "Name unknown",
            "country_name": "Nigeria",
            "connectivity": false
        },
        {
            "lon": 7.70916082,
            "lat": 10.38904733,
            "school_name": "Name unknown",
            "country_name": "Nigeria",
            "connectivity": false
        },
        {
            "lon": 8.574543224,
            "lat": 9.801974346,
            "school_name": "Name unknown",
            "country_name": "Nigeria",
            "connectivity": false
        },
        {
            "lon": 8.6533827,
            "lat": 9.36523146,
            "school_name": "Name unknown",
            "country_name": "Nigeria",
            "connectivity": false
        },
        {
            "lon": 7.921818495,
            "lat": 11.06399953,
            "school_name": "Name unknown",
            "country_name": "Nigeria",
            "connectivity": false
        },
        {
            "lon": 9.064003,
            "lat": 11.54553,
            "school_name": "Name unknown",
            "country_name": "Nigeria",
            "connectivity": false
        },
        {
            "lon": 8.407331,
            "lat": 11.63688,
            "school_name": "Name unknown",
            "country_name": "Nigeria",
            "connectivity": false
        },
        {
            "lon": 8.332943,
            "lat": 11.92577,
            "school_name": "Name unknown",
            "country_name": "Nigeria",
            "connectivity": false
        },
        {
            "lon": 13.022182,
            "lat": 10.248594,
            "school_name": "Name unknown",
            "country_name": "Nigeria",
            "connectivity": false
        },
        {
            "lon": 12.051074,
            "lat": 9.18059,
            "school_name": "Name unknown",
            "country_name": "Nigeria",
            "connectivity": false
        },
        {
            "lon": 12.462202,
            "lat": 9.233839,
            "school_name": "Name unknown",
            "country_name": "Nigeria",
            "connectivity": false
        },
        {
            "lon": 6.224568,
            "lat": 7.594544,
            "school_name": "Name unknown",
            "country_name": "Nigeria",
            "connectivity": false
        },
        {
            "lon": 5.56564,
            "lat": 8.203379,
            "school_name": "Name unknown",
            "country_name": "Nigeria",
            "connectivity": false
        },
        {
            "lon": 3.982403,
            "lat": 9.535697,
            "school_name": "Name unknown",
            "country_name": "Nigeria",
            "connectivity": false
        },
        {
            "lon": 3.312811698,
            "lat": 6.626861698,
            "school_name": "Name unknown",
            "country_name": "Nigeria",
            "connectivity": false
        },
        {
            "lon": 3.34742,
            "lat": 6.445116,
            "school_name": "Name unknown",
            "country_name": "Nigeria",
            "connectivity": false
        },