{
    "name": "Patchwork Kingdom #228 | Zanfanta",
    "description": "The twin kingdoms of Zanfanta, separated by a digital divide. A bustling kingdom of 247 schools on top that are all connected to the internet, and 164 schools, not connected, hidden in the upside down kingdom | Created for Giga (GigaConnect.org) \u2014 connecting every school in the world \u2014 in celebration of UNICEF's 75th birthday, by Nadieh Bremer",
    "external_url": "https://dummyURL.com/patchwork_kingdoms_228",
    "image": "https://dummy-storage-url.com/patchwork_kingdoms_228.png",
    "attributes": [
        {
            "trait_type": "Color palette",
            "value": "emerald city"
        },
        {
            "display_type": "number",
            "trait_type": "Schools",
            "value": 439,
            "max_value": 460
        },
        {
            "display_type": "number",
            "trait_type": "Ratio - Connected",
            "value": 0.56,
            "max_value": 1
        },
        {
            "display_type": "number",
            "trait_type": "Ratio - Unconnected",
            "value": 0.37,
            "max_value": 1
        },
        {
            "display_type": "number",
            "trait_type": "Ratio - Data unavailable",
            "value": 0.06,
            "max_value": 1
        },
        {
            "trait_type": "Countries",
            "value": "BJ-BR-CO-CR-HN-KG-KZ-NA-PH-RW-SL-ZW"
        },
        {
            "display_type": "number",
            "trait_type": "Symbols",
            "value": 47,
            "max_value": 51
        }
    ],
    "cluster_id": 228,
    "num_schools": 439,
    "num_schools_connected": 247,
    "num_schools_unconnected": 164,
    "num_schools_unknown": 28,
    "schools": [
        {
            "lon": 1.95158,
            "lat": 7.0958,
            "school_name": "Name unknown",
            "country_name": "Benin",
            "connectivity": true
        },
        {
            "lon": -88.83981,
            "lat": 15.16243,
            "school_name": "JUAN LINDO",
            "country_name": "Honduras",
            "connectivity": true
        },
        {
            "lon": -88.93162,
            "lat": 14.86678,
            "school_name": "JUAN LINDO",
            "country_name": "Honduras",
            "connectivity": true
        },
        {
            "lon": -87.95936,
            "lat": 14.2499,
            "school_name": "SAN JOSE DE CUPERTINO",
            "country_name": "Honduras",
            "connectivity": true
        },
        {
            "lon": -85.58621,
            "lat": 15.45128,
            "school_name": "NUEVA ESPA\u00c3\u2018A",
            "country_name": "Honduras",
            "connectivity": true
        },
        {
            "lon": -86.18668,
            "lat": 14.87099,
            "school_name": "DOMINGO MONTALVAN",
            "country_name": "Honduras",
            "connectivity": true
        },
        {
            "lon": -47.634094,
            "lat": -21.90844,
            "school_name": "TEREZINHA MACHADO PROFESSORA EMEI",
            "country_name": "Brazil",
            "connectivity": false
        },
        {
            "lon": -86.97287,
            "lat": 15.25044,
            "school_name": "JARDIN DE NI\u00c3\u2018OS EL CARRIZAL",
            "country_name": "Honduras",
            "connectivity": true
        },
        {
            "lon": -87.63317,
            "lat": 15.22034,
            "school_name": "LUIS DIAZ BENITEZ",
            "country_name": "Honduras",
            "connectivity": true
        },
        {
            "lon": -88.03003,
            "lat": 14.73328,
            "school_name": "ESCUELA GENESIS",
            "country_name": "Honduras",
            "connectivity": true
        },
        {
            "lon": -87.33309,
            "lat": 14.07679,
            "school_name": "RAFAEL PINEDA PONCE",
            "country_name": "Honduras",
            "connectivity": true
        },
        {
            "lon": -87.35932,
            "lat": 14.17144,
            "school_name": "LUIS LANDA",
            "country_name": "Honduras",
            "connectivity": true
        },
        {
            "lon": -86.86351,
            "lat": 14.4052,
            "school_name": "JOSE E SAUCEDA",
            "country_name": "Honduras",
            "connectivity": true
        },
        {
            "lon": -87.4986,
            "lat": 13.71262,
            "school_name": "MOISES AGUILAR O.",
            "country_name": "Honduras",
            "connectivity": true
        },
        {
            "lon": -87.02615,
            "lat": 14.2634,
            "school_name": "FRANCISCO MORAZAN",
            "country_name": "Honduras",
            "connectivity": true
        },
        {
            "lon": -87.50493,
            "lat": 13.77338,
            "school_name": "RAFAEL PINEDA PONCE",
            "country_name": "Honduras",
            "connectivity": true
        },
        {
            "lon": 32.60563,
            "lat": -18.53818,
            "school_name": "CHIRARWE",
            "country_name": "Zimbabwe",
            "connectivity": true
        },
        {
            "lon": 32.21202,
            "lat": -19.85034,
            "school_name": "TAPEDZWA",
            "country_name": "Zimbabwe",
            "connectivity": true
        },
        {
            "lon": 31.91075,
            "lat": -16.65912,
            "school_name": "NYAMHARA",
            "country_name": "Zimbabwe",
            "connectivity": true
        },
        {
            "lon": 31.22814,
            "lat": -17.79286,
            "school_name": "ST DOMINICS CHISHAWASHA",
            "country_name": "Zimbabwe",
            "connectivity": true
        },
        {
            "lon": -46.9283,
            "lat": -23.5323,
            "school_name": "JOAO GUIMARAES ROSA CEMEB",
            "country_name": "Brazil",
            "connectivity": true
        },
        {
            "lon": -43.2563,
            "lat": -22.85,
            "school_name": "0410011 ESCOLA MUNICIPAL EDMUNDO LINS",
            "country_name": "Brazil",
            "connectivity": true
        },
        {
            "lon": -43.2541,
            "lat": -22.8853,
            "school_name": "0328501 CIEP VINICIUS DE MORAES",
            "country_name": "Brazil",
            "connectivity": true
        },
        {
            "lon": 29.4486944,
            "lat": -1.8563055,
            "school_name": "BYIMANA",
            "country_name": "Rwanda",
            "connectivity": false
        },
        {
            "lon": -83.39823697,
            "lat": 9.20346216,
            "school_name": "EL SOCORRO",
            "country_name": "Costa Rica",
            "connectivity": true
        },
        {
            "lon": -83.61242734,
            "lat": 9.48172334,
            "school_name": "HERRADURA",
            "country_name": "Costa Rica",
            "connectivity": true
        },
        {
            "lon": -83.64089739,
            "lat": 9.18351535,
            "school_name": "VILLA ARGENTINA",
            "country_name": "Costa Rica",
            "connectivity": true
        },
        {
            "lon": -83.42410156,
            "lat": 10.09732123,
            "school_name": "CIMARRONES",
            "country_name": "Costa Rica",
            "connectivity": true
        },
        {
            "lon": -85.50555402,
            "lat": 10.03283495,
            "school_name": "LICEO BELEN",
            "country_name": "Costa Rica",
            "connectivity": true
        },
        {
            "lon": -84.13636729,
            "lat": 10.00280389,
            "school_name": "CONED HEREDIA",
            "country_name": "Costa Rica",
            "connectivity": true
        },
        {
            "lon": 28.29508,
            "lat": -16.93006,
            "school_name": "MOLA",
            "country_name": "Zimbabwe",
            "connectivity": true
        },
        {
            "lon": 31.33799,
            "lat": -19.61502,
            "school_name": "SHUMBAIRERWA",
            "country_name": "Zimbabwe",
            "connectivity": true
        },
        {
            "lon": 31.62208,
            "lat": -20.91159,
            "school_name": "TAGARIKA",
            "country_name": "Zimbabwe",
            "connectivity": true
        },
        {
            "lon": 28.15095,
            "lat": -19.10843,
            "school_name": "MOLO",
            "country_name": "Zimbabwe",
            "connectivity": true
        },
        {
            "lon": 28.1182,
            "lat": -18.51696,
            "school_name": "CHEHAMBA",
            "country_name": "Zimbabwe",
            "connectivity": true
        },
        {
            "lon": -46.5734,
            "lat": -23.4796,
            "school_name": "VERIDIANA CAMACHO CARVALHO GOMES PROFA",
            "country_name": "Brazil",
            "connectivity": true
        },
        {
            "lon": -74.07245054,
            "lat": 4.847000962,
            "school_name": "Name unknown",
            "country_name": "Colombia",
            "connectivity": false
        },
        {
            "lon": -42.9588,
            "lat": -22.1722,
            "school_name": "E M BARAO DE AGUAS CLARAS",
            "country_name": "Brazil",
            "connectivity": true
        },
        {
            "lon": -48.9692,
            "lat": -16.6199,
            "school_name": "COLEGIO ESTADUAL PRESIDENTE CASTELO BRANCO",
            "country_name": "Brazil",
            "connectivity": true
        },
        {
            "lon": 28.73955,
            "lat": -18.00822,
            "school_name": "ST BONIFACE TARE",
            "country_name": "Zimbabwe",
            "connectivity": true
        },
        {
            "lon": -72.00112108,
            "lat": 2.960953663,
            "school_name": "Name unknown",
            "country_name": "Colombia",
            "connectivity": false
        },
        {
            "lon": -74.09285088,
            "lat": 4.547730004,
            "school_name": "Name unknown",
            "country_name": "Colombia",
            "connectivity": false
        },
        {
            "lon": -74.18930021,
            "lat": 4.583245264,
            "school_name": "Name unknown",
            "country_name": "Colombia",
            "connectivity": false
        },
        {
            "lon": -73.10213058,
            "lat": 7.072887399,
            "school_name": "Name unknown",
            "country_name": "Colombia",
            "connectivity": false
        },
        {
            "lon": 19.063118,
            "lat": -17.930796,
            "school_name": "Nohambo JP",
            "country_name": "Namibia",
            "connectivity": false
        },
        {
            "lon": 120.59549,
            "lat": 14.568777,
            "school_name": "Bacong ES",
            "country_name": "Philippines",
            "connectivity": true
        },
        {
            "lon": 120.4680651,
            "lat": 15.50759349,
            "school_name": "Linglingay ES",
            "country_name": "Philippines",
            "connectivity": true
        },
        {
            "lon": 120.6103773,
            "lat": 15.21991357,
            "school_name": "Talba ES",
            "country_name": "Philippines",
            "connectivity": true
        },
        {
            "lon": 122.5822445,
            "lat": 12.31392104,
            "school_name": "Taclobo ES",
            "country_name": "Philippines",
            "connectivity": true
        },
        {
            "lon": 124.352586,
            "lat": 9.664444,
            "school_name": "Buyog ES",
            "country_name": "Philippines",
            "connectivity": true
        },
        {
            "lon": 125.08032,
            "lat": 11.692919,
            "school_name": "Bucalan PS",
            "country_name": "Philippines",
            "connectivity": true
        },
        {
            "lon": 124.9841796,
            "lat": 11.12899042,
            "school_name": "Cangumbang PS",
            "country_name": "Philippines",
            "connectivity": true
        },
        {
            "lon": 124.90561,
            "lat": 10.356716,
            "school_name": "Catmon Elementary School",
            "country_name": "Philippines",
            "connectivity": true
        },
        {
            "lon": 125.092728,
            "lat": 11.613902,
            "school_name": "Hubasan PS",
            "country_name": "Philippines",
            "connectivity": true
        },
        {
            "lon": 124.4044034,
            "lat": 11.26170592,
            "school_name": "Inangatan PS",
            "country_name": "Philippines",
            "connectivity": true
        },
        {
            "lon": 125.4366,
            "lat": 12.0676,
            "school_name": "Sto. Ni\u00f1o ES",
            "country_name": "Philippines",
            "connectivity": true
        },
        {
            "lon": 123.665596,
            "lat": 7.820639,
            "school_name": "Miguela Pogoy MES (Pikinit PS)",
            "country_name": "Philippines",
            "connectivity": true
        },
        {
            "lon": 125.520622,
            "lat": 9.728063,
            "school_name": "Martinez ES",
            "country_name": "Philippines",
            "connectivity": true
        },
        {
            "lon": 121.907738,
            "lat": 6.51917,
            "school_name": "Tubigan ES",
            "country_name": "Philippines",
            "connectivity": true
        },
        {
            "lon": 120.7681057,
            "lat": 16.41922353,
            "school_name": "Bisal ES",
            "country_name": "Philippines",
            "connectivity": true
        },
        {
            "lon": 121.2957421,
            "lat": 16.89645798,
            "school_name": "Buwag PS",
            "country_name": "Philippines",
            "connectivity": true
        },
        {
            "lon": -46.545734,
            "lat": -19.498028,
            "school_name": "PEM CENTRO COMUNITARIO DONA ISAURA SILVA",
            "country_name": "Brazil",
            "connectivity": false
        },
        {
            "lon": -44.545513,
            "lat": -22.333103,
            "school_name": "ESCOLA MUNICIPAL FRANCISCO QUIRINO DINIZ",
            "country_name": "Brazil",
            "connectivity": true
        },
        {
            "lon": -43.02465,
            "lat": -22.605598,
            "school_name": "CE SAO FRANCISCO DE ASSIS",
            "country_name": "Brazil",
            "connectivity": true
        },
        {
            "lon": 121.265816,
            "lat": 15.539689,
            "school_name": "Bateria ES",
            "country_name": "Philippines",
            "connectivity": true
        },
        {
            "lon": -50.5007,
            "lat": -21.6392,
            "school_name": "CENTRO EDUCACIONAL KENKITI KIMURA UNIDADE II",
            "country_name": "Brazil",
            "connectivity": true
        },
        {
            "lon": -86.78198,
            "lat": 14.92277,
            "school_name": "MUNDO INFANTIL",
            "country_name": "Honduras",
            "connectivity": true
        },
        {
            "lon": -72.688996,
            "lat": 6.433086,
            "school_name": "ESC RURAL SIMON BOLIVAR",
            "country_name": "Colombia",
            "connectivity": true
        },
        {
            "lon": -72.896389,
            "lat": 5.765556,
            "school_name": "I.E.T. DE NAZARETH - SEDE PRINCIPAL",
            "country_name": "Colombia",
            "connectivity": true
        },
        {
            "lon": -72.866111,
            "lat": 6.426944,
            "school_name": "ESCUELA RURAL SAN EMIGDIO BAJO",
            "country_name": "Colombia",
            "connectivity": true
        },
        {
            "lon": -73.12402664,
            "lat": 7.15273572,
            "school_name": "I.E. DE SANTANDER SEDE B - LOS ANGELES",
            "country_name": "Colombia",
            "connectivity": true
        },
        {
            "lon": -73.2748909,
            "lat": 5.635406806,
            "school_name": "CENT EDUC EL LLANO",
            "country_name": "Colombia",
            "connectivity": true
        },
        {
            "lon": -73.12200089,
            "lat": 8.62311033,
            "school_name": "SEDE EL ROSAL",
            "country_name": "Colombia",
            "connectivity": true
        },
        {
            "lon": -73.366674,
            "lat": 5.522343,
            "school_name": "ELA MAMONAL",
            "country_name": "Colombia",
            "connectivity": true
        },
        {
            "lon": -73.15381283,
            "lat": 10.04324223,
            "school_name": "ESC. NUEVA MAYUSA ALTO",
            "country_name": "Colombia",
            "connectivity": true
        },
        {
            "lon": -73.34,
            "lat": 6.69,
            "school_name": "ESCUELA RURAL SIBERIA",
            "country_name": "Colombia",
            "connectivity": true
        },
        {
            "lon": -73.939672,
            "lat": 9.417808,
            "school_name": "ESC. NUEVA LOMA LINDA",
            "country_name": "Colombia",
            "connectivity": true
        },
        {
            "lon": -74.209836,
            "lat": 4.964278,
            "school_name": "ESCUELA RURAL EL PARAMO",
            "country_name": "Colombia",
            "connectivity": true
        },
        {
            "lon": -74.70669673,
            "lat": 7.101877907,
            "school_name": "I.E.R. CAMPO ALEGRE",
            "country_name": "Colombia",
            "connectivity": true
        },
        {
            "lon": -74.859444,
            "lat": 7.525,
            "school_name": "E R I  PUENTE ANGOSTURA",
            "country_name": "Colombia",
            "connectivity": true
        },
        {
            "lon": -75.35332275,
            "lat": 10.11080605,
            "school_name": "NUEVA ESPERANZA",
            "country_name": "Colombia",
            "connectivity": true
        },
        {
            "lon": -75.5125,
            "lat": 5.055556,
            "school_name": "INSTITUCI\u00d3N EDUCATIVA COLEGIO SANTO DOMINGO SAVIO",
            "country_name": "Colombia",
            "connectivity": true
        },
        {
            "lon": -75.65305556,
            "lat": 2.785555556,
            "school_name": "ALTO LEJANIAS",
            "country_name": "Colombia",
            "connectivity": true
        },
        {
            "lon": -75.93094098,
            "lat": 2.088847857,
            "school_name": "LAS ACACIAS",
            "country_name": "Colombia",
            "connectivity": true
        },
        {
            "lon": -75.94361111,
            "lat": 2.383611111,
            "school_name": "SAN JUAN",
            "country_name": "Colombia",
            "connectivity": true
        },
        {
            "lon": -75.89555556,
            "lat": 8.73,
            "school_name": "ESC URB MIXTA ALFONSO L\u00d3PEZ",
            "country_name": "Colombia",
            "connectivity": true
        },
        {
            "lon": -75.95,
            "lat": 6.573333,
            "school_name": "C. E. R. EL CARMEN",
            "country_name": "Colombia",
            "connectivity": true
        },
        {
            "lon": -75.960278,
            "lat": 5.760278,
            "school_name": "I. E. R. BARLOVENTO",
            "country_name": "Colombia",
            "connectivity": true
        },
        {
            "lon": -75.98389928,
            "lat": 6.114175291,
            "school_name": "LICEO SAN JOSE",
            "country_name": "Colombia",
            "connectivity": true
        },
        {
            "lon": -76.0910824,
            "lat": 2.554972769,
            "school_name": "ESCUELA RURAL MIXTA CHICHUCUE",
            "country_name": "Colombia",
            "connectivity": true
        },
        {
            "lon": -76.03706524,
            "lat": 4.970455013,
            "school_name": "JOSE MARIA CORDOBA",
            "country_name": "Colombia",
            "connectivity": true
        },
        {
            "lon": -76.23425701,
            "lat": 3.126564173,
            "school_name": "ESCUELA RURAL MIXTA EL MIRADOR",
            "country_name": "Colombia",
            "connectivity": true
        },
        {
            "lon": -76.29698034,
            "lat": 3.54646936,
            "school_name": "CARDENAS MIRRI\u00d1AO",
            "country_name": "Colombia",
            "connectivity": true
        },
        {
            "lon": -76.254154,
            "lat": 1.928837,
            "school_name": "ACACIAS",
            "country_name": "Colombia",
            "connectivity": true
        },
        {
            "lon": -76.46342361,
            "lat": 3.427146959,
            "school_name": "INSTITUCION EDUCATIVA TECNICA CIUDADELA DESEPAZ - SEDE PRINCIPAL",
            "country_name": "Colombia",
            "connectivity": true
        },
        {
            "lon": -76.49540316,
            "lat": 2.34459985,
            "school_name": "ESCUELA URBANA MIXTA DE COCONUCO",
            "country_name": "Colombia",
            "connectivity": true
        },
        {
            "lon": -76.82288882,
            "lat": 1.785368169,
            "school_name": "EL TUNO",
            "country_name": "Colombia",
            "connectivity": true
        },
        {
            "lon": -76.86194444,
            "lat": 5.2425,
            "school_name": "SEDE LAS MERCEDES",
            "country_name": "Colombia",
            "connectivity": true
        },
        {
            "lon": -77.08872264,
            "lat": 3.764205791,
            "school_name": "MARTIN LUTHER KING",
            "country_name": "Colombia",
            "connectivity": true
        },
        {
            "lon": -77.2762873,
            "lat": 2.03902129,
            "school_name": "INSTITUCION EDUCATIVA PURETO (SEDE PRINCIPAL)",
            "country_name": "Colombia",
            "connectivity": true
        },
        {
            "lon": -77.29841182,
            "lat": 1.164699374,
            "school_name": "ESC SANTO TOMAS DE AQUINO",
            "country_name": "Colombia",
            "connectivity": true
        },
        {
            "lon": -77.49693387,
            "lat": 2.493394273,
            "school_name": "SOLEDAD",
            "country_name": "Colombia",
            "connectivity": true
        },
        {
            "lon": -78.35651316,
            "lat": 1.613589073,
            "school_name": "CENTRO EDUCATIVO LA CONQUISTA",
            "country_name": "Colombia",
            "connectivity": true
        },
        {
            "lon": -63.5707,
            "lat": -12.0546,
            "school_name": "C E M E IE F REGINA ALMEIDA DE ARAUJO",
            "country_name": "Brazil",
            "connectivity": true
        },
        {
            "lon": -63.8682,
            "lat": -8.7879,
            "school_name": "CENTRO EDUCACIONAL MARIA DE NAZARE",
            "country_name": "Brazil",
            "connectivity": true
        },
        {
            "lon": -67.8091,
            "lat": -9.9877,
            "school_name": "ESC LOURIVAL PINHO",
            "country_name": "Brazil",
            "connectivity": true
        },
        {
            "lon": -57.3051,
            "lat": -3.7723,
            "school_name": "ESC MUN INDIGENA MOPYI",
            "country_name": "Brazil",
            "connectivity": false
        },
        {
            "lon": -47.5991,
            "lat": -8.5523,
            "school_name": "ESCOLA ESTADUAL INDIGENA MANGABEIRA",
            "country_name": "Brazil",
            "connectivity": true
        },
        {
            "lon": -64.9959,
            "lat": -3.5624,
            "school_name": "ESC SAO JOAO",
            "country_name": "Brazil",
            "connectivity": false
        },
        {
            "lon": -59.9759,
            "lat": 2.9647,
            "school_name": "ESCOLA MUNICIPAL INDIGENA PROFESSOR DEVALDO BARRETO DE SOUZA",
            "country_name": "Brazil",
            "connectivity": false
        },
        {
            "lon": -55.7881,
            "lat": -1.3404,
            "school_name": "EMEF SAO SEBASTIAO",
            "country_name": "Brazil",
            "connectivity": false
        },
        {
            "lon": -46.8738,
            "lat": -1.3397,
            "school_name": "E M E F CICERO TOBIAS",
            "country_name": "Brazil",
            "connectivity": false
        },
        {
            "lon": -46.8611,
            "lat": -0.952,
            "school_name": "E M E I F SABINO PEREIRA LIMA FILHO",
            "country_name": "Brazil",
            "connectivity": false
        },
        {
            "lon": -53.0823,
            "lat": -3.4099,
            "school_name": "E M E F PADRE OSCAR II",
            "country_name": "Brazil",
            "connectivity": false
        },
        {
            "lon": -51.698,
            "lat": -3.1191,
            "school_name": "E M E I PEQUENO PRINCIPE",
            "country_name": "Brazil",
            "connectivity": true
        },
        {
            "lon": -51.7912,
            "lat": -6.7588,
            "school_name": "E M E F TANCREDO NEVES",
            "country_name": "Brazil",
            "connectivity": false
        },
        {
            "lon": -51.5281,
            "lat": -16.7437,
            "school_name": "COLEGIO ESTADUAL ANA ALGEMIRA DO PRADO",
            "country_name": "Brazil",
            "connectivity": true
        },
        {
            "lon": -54.2358,
            "lat": -1.672,
            "school_name": "E M E F SAO PEDRO SETOR 11",
            "country_name": "Brazil",
            "connectivity": false
        },
        {
            "lon": -54.6861,
            "lat": -2.4654,
            "school_name": "E M E F JOAO BIANOR MOTA FREITAS",
            "country_name": "Brazil",
            "connectivity": true
        },
        {
            "lon": -48.8051,
            "lat": -5.6924,
            "school_name": "E M E F ALEGRIA DO SABER",
            "country_name": "Brazil",
            "connectivity": false
        },
        {
            "lon": -49.5745,
            "lat": -0.7039,
            "school_name": "E M E F IRACEMA AGRASSAR GONCALVES",
            "country_name": "Brazil",
            "connectivity": false
        },
        {
            "lon": -42.9938,
            "lat": -5.0162,
            "school_name": "EMEF ANTONIO BISPO DOS SANTOS",
            "country_name": "Brazil",
            "connectivity": true
        },
        {
            "lon": -53.782,
            "lat": -27.8634,
            "school_name": "ESC MUN ENS FUN ANTONIO LIBERATO",
            "country_name": "Brazil",
            "connectivity": true
        },
        {
            "lon": -48.5078,
            "lat": -8.5355,
            "school_name": "ESC EST OLAVO BILAC",
            "country_name": "Brazil",
            "connectivity": true
        },
        {
            "lon": -42.9079,
            "lat": -2.8548,
            "school_name": "UI SOCORRO GONCALVES",
            "country_name": "Brazil",
            "connectivity": true
        },
        {
            "lon": -44.6683,
            "lat": -3.5451,
            "school_name": "EM DIONISIO OZINIO LOPES",
            "country_name": "Brazil",
            "connectivity": false
        },
        {
            "lon": -45.1085,
            "lat": -2.6893,
            "school_name": "UNIDADE ESCOLAR DE EDUCACAO BASICA MUNICIPAL ERNESTO GEISEL",
            "country_name": "Brazil",
            "connectivity": false
        },
        {
            "lon": -45.2535,
            "lat": -2.8284,
            "school_name": "EM SAO LUIS GONZAGA",
            "country_name": "Brazil",
            "connectivity": true
        },
        {
            "lon": -44.978,
            "lat": -2.7846,
            "school_name": "EM SANTA BARBARA",
            "country_name": "Brazil",
            "connectivity": false
        },
        {
            "lon": -46.0219,
            "lat": -1.202,
            "school_name": "UNIDADE INTEGRADA MOACIR HERACLITO DOS REMEDIOS",
            "country_name": "Brazil",
            "connectivity": true
        },
        {
            "lon": -45.8839,
            "lat": -3.6565,
            "school_name": "EMEB CORACAO DE JESUS",
            "country_name": "Brazil",
            "connectivity": false
        },
        {
            "lon": -45.4521,
            "lat": -3.8662,
            "school_name": "EM JOAO SEBA",
            "country_name": "Brazil",
            "connectivity": true
        },
        {
            "lon": -46.2585,
            "lat": -3.3476,
            "school_name": "EM LUIS FERREIRA MASCARENHAS",
            "country_name": "Brazil",
            "connectivity": false
        },
        {
            "lon": -46.7568,
            "lat": -6.1266,
            "school_name": "EM TEREZA SANTANA",
            "country_name": "Brazil",
            "connectivity": false
        },
        {
            "lon": -44.3248,
            "lat": -4.8087,
            "school_name": "UEM ANTONIO SOARES",
            "country_name": "Brazil",
            "connectivity": false
        },
        {
            "lon": -44.1551,
            "lat": -5.7296,
            "school_name": "UE LEDA TAJRA",
            "country_name": "Brazil",
            "connectivity": true
        },
        {
            "lon": -43.3366,
            "lat": -4.8421,
            "school_name": "ESCOLA MUNICIPAL SAO RAIMUNDO",
            "country_name": "Brazil",
            "connectivity": false
        },
        {
            "lon": -43.4109,
            "lat": -4.2362,
            "school_name": "ESC JOANA DARC",
            "country_name": "Brazil",
            "connectivity": false
        },
        {
            "lon": -43.3367,
            "lat": -4.5509,
            "school_name": "ESC JOAO POSSEDOME",
            "country_name": "Brazil",
            "connectivity": false
        },
        {
            "lon": -43.3142,
            "lat": -4.5794,
            "school_name": "ESC SAO RAIMUNDO NONATO",
            "country_name": "Brazil",
            "connectivity": false
        },
        {
            "lon": -47.206,
            "lat": -5.2373,
            "school_name": "CRECHE MUN MENINO JESUS III",
            "country_name": "Brazil",
            "connectivity": true
        },
        {
            "lon": -46.1689,
            "lat": -6.9635,
            "school_name": "EM PROFESSORA SILVINIA NASCIMENTO FERNANDES",
            "country_name": "Brazil",
            "connectivity": false
        },
        {
            "lon": -42.1406,
            "lat": -3.2599,
            "school_name": "CENTRO DE ENSINO PREFEITO DIONILIO GONCALVES COSTA - ANEXO III - CUSTODIO LIMA",
            "country_name": "Brazil",
            "connectivity": false
        },
        {
            "lon": -41.861,
            "lat": -3.7746,
            "school_name": "UNIDADE ESCOLAR FRANCISCO VIEIRA DE SOUSA",
            "country_name": "Brazil",
            "connectivity": false
        },
        {
            "lon": -43.5106,
            "lat": -7.0894,
            "school_name": "ESCOLA INFANTIL FIRMINO EVELIN",
            "country_name": "Brazil",
            "connectivity": false
        },
        {
            "lon": -42.6731,
            "lat": -6.973,
            "school_name": "UNID ESC MARCOS CARVALHO",
            "country_name": "Brazil",
            "connectivity": false
        },
        {
            "lon": -42.8225,
            "lat": -7.8536,
            "school_name": "UNID ESC CICERO CABEDO",
            "country_name": "Brazil",
            "connectivity": true
        },
        {
            "lon": -40.9466,
            "lat": -7.3582,
            "school_name": "ESCOLA MUNICIPAL RAIMUNDO JOSE GOMES",
            "country_name": "Brazil",
            "connectivity": true
        },
        {
            "lon": -41.1518,
            "lat": -8.145,
            "school_name": "UNID ESC PORFIRIO JOSE RODRIGUES",
            "country_name": "Brazil",
            "connectivity": true
        },
        {
            "lon": -40.8923,
            "lat": -4.119,
            "school_name": "JORGE FURTADO LEITE E E F",
            "country_name": "Brazil",
            "connectivity": false
        },
        {
            "lon": -39.2335,
            "lat": -3.6716,
            "school_name": "ALONSO HERCULANO - EEB",
            "country_name": "Brazil",
            "connectivity": true
        },
        {
            "lon": -38.6224,
            "lat": -3.8719,
            "school_name": "EEMTI PROFESSOR CLODOALDO PINTO",
            "country_name": "Brazil",
            "connectivity": true
        },
        {
            "lon": -39.1619,
            "lat": -4.9901,
            "school_name": "AGOSTINHO FERREIRA DE SOUSA EEF",
            "country_name": "Brazil",
            "connectivity": true
        },
        {
            "lon": -39.6216,
            "lat": -5.7402,
            "school_name": "BOSCO ESC DOM",
            "country_name": "Brazil",
            "connectivity": true
        },
        {
            "lon": -39.2926,
            "lat": -6.7865,
            "school_name": "IRACY BEZERRA DE MORAIS ESC DE ENS FUND",
            "country_name": "Brazil",
            "connectivity": true
        },
        {
            "lon": -38.0203,
            "lat": -4.8667,
            "school_name": "FRANCISCO DAS CHAGAS LIMA EMEIEF",
            "country_name": "Brazil",
            "connectivity": true
        },
        {
            "lon": -41.015,
            "lat": -3.732,
            "school_name": "EEEP PROFESSOR SEBASTIAO VASCONCELOS SOBRINHO",
            "country_name": "Brazil",
            "connectivity": true
        },
        {
            "lon": -40.8155,
            "lat": -4.5753,
            "school_name": "DOM FRAGOSO CEI",
            "country_name": "Brazil",
            "connectivity": true
        },
        {
            "lon": -38.3115,
            "lat": -6.4684,
            "school_name": "UNIDADE DE ENSINO JOAO DE DEUS FERNANDES",
            "country_name": "Brazil",
            "connectivity": false
        },
        {
            "lon": -51.8826,
            "lat": -23.4016,
            "school_name": "ANTONIETA M COUTINHO C M E I",
            "country_name": "Brazil",
            "connectivity": true
        },
        {
            "lon": -37.3655,
            "lat": -6.1491,
            "school_name": "EMEIF PREFEITO PLINIO FORTE MAIA",
            "country_name": "Brazil",
            "connectivity": true
        },
        {
            "lon": -36.1547,
            "lat": -6.4811,
            "school_name": "EMEF JULIETA DE LIMA E COSTA",
            "country_name": "Brazil",
            "connectivity": true
        },
        {
            "lon": -35.2639,
            "lat": -7.2709,
            "school_name": "EMEIEF MARIA AUGUSTA DE BRITO",
            "country_name": "Brazil",
            "connectivity": true
        },
        {
            "lon": -38.1577,
            "lat": -7.8195,
            "school_name": "ESCOLA MUNICIPAL LENALDA MARQUES DA COSTA",
            "country_name": "Brazil",
            "connectivity": false
        },
        {
            "lon": -34.9992,
            "lat": -7.5566,
            "school_name": "ESCOLA MUNICIPAL DR MANOEL BORBA",
            "country_name": "Brazil",
            "connectivity": false
        },
        {
            "lon": -43.874,
            "lat": -8.0073,
            "school_name": "U E ANTONIO BORGES LEAL",
            "country_name": "Brazil",
            "connectivity": true
        },
        {
            "lon": -37.6266,
            "lat": -8.0887,
            "school_name": "ESCOLA MUNICIPAL LUIZ EPAMINONDAS FILHO",
            "country_name": "Brazil",
            "connectivity": true
        },
        {
            "lon": -35.227,
            "lat": -8.34,
            "school_name": "ESCOLA MUNICIPAL DE CRIMEIA",
            "country_name": "Brazil",
            "connectivity": false
        },
        {
            "lon": -38.6158,
            "lat": -8.1603,
            "school_name": "ESCOLA ROSA RIBEIRO DE BARROS",
            "country_name": "Brazil",
            "connectivity": false
        },
        {
            "lon": -46.3941,
            "lat": -1.2378,
            "school_name": "ANEXO III EEEM PADRE LUCIANO CALDERARA",
            "country_name": "Brazil",
            "connectivity": true
        },
        {
            "lon": -34.8332,
            "lat": -7.9265,
            "school_name": "ESCOLA MUNICIPAL PROFESSOR SALVADOR DIMECH",
            "country_name": "Brazil",
            "connectivity": true
        },
        {
            "lon": -38.0093,
            "lat": -11.0754,
            "school_name": "ESC MUL DE ENSINO FUND JOAO RODRIGUES DOS SANTOS",
            "country_name": "Brazil",
            "connectivity": true
        },
        {
            "lon": -44.6967,
            "lat": -12.0083,
            "school_name": "COLEGIO MUNICIPAL JOAO DURVAL CARNEIRO",
            "country_name": "Brazil",
            "connectivity": true
        },
        {
            "lon": -43.8579,
            "lat": -10.5706,
            "school_name": "CENTRO DE ENSINO ULISSES TEIXEIRA",
            "country_name": "Brazil",
            "connectivity": true
        },
        {
            "lon": -42.9881,
            "lat": -12.7163,
            "school_name": "ESCOLA MUNICIPAL AMOR PERFEITO",
            "country_name": "Brazil",
            "connectivity": true
        },
        {
            "lon": -39.6144,
            "lat": -11.502,
            "school_name": "ESCOLA SANTO ANTONIO",
            "country_name": "Brazil",
            "connectivity": true
        },
        {
            "lon": -39.1495,
            "lat": -13.1453,
            "school_name": "ESCOLA MUNICIPAL NOSSA SENHORA DA PALMA",
            "country_name": "Brazil",
            "connectivity": true
        },
        {
            "lon": -35.131,
            "lat": -6.3799,
            "school_name": "EM JUAREZ RABELO",
            "country_name": "Brazil",
            "connectivity": true
        },
        {
            "lon": -42.1624,
            "lat": -13.4331,
            "school_name": "ESCOLA MUNICIPAL DE CACHOEIRINHA",
            "country_name": "Brazil",
            "connectivity": false
        },
        {
            "lon": -39.3812,
            "lat": -17.3798,
            "school_name": "ESCOLA NUCLEO MUNICIPAL ELOI FERREIRA",
            "country_name": "Brazil",
            "connectivity": true
        },
        {
            "lon": -45.0018,
            "lat": -12.1213,
            "school_name": "EE - COLEGIO ESTADUAL DOUTOR ORLANDO DE CARVALHO",
            "country_name": "Brazil",
            "connectivity": false
        },
        {
            "lon": -40.3017,
            "lat": -10.9585,
            "school_name": "ESCOLA MUNICIPAL FAZENDA PATOS",
            "country_name": "Brazil",
            "connectivity": false
        },
        {
            "lon": -41.932,
            "lat": -15.0395,
            "school_name": "GRUPO ESCOLAR LINDOLFO CORDEIRO LANDI",
            "country_name": "Brazil",
            "connectivity": true
        },
        {
            "lon": -44.4286,
            "lat": -19.9874,
            "school_name": "EE DOMINGOS JUSTINO RIBEIRO",
            "country_name": "Brazil",
            "connectivity": true
        },
        {
            "lon": -41.1057,
            "lat": -18.492,
            "school_name": "EM DA FAZ BOA VISTA",
            "country_name": "Brazil",
            "connectivity": true
        },
        {
            "lon": -43.4556,
            "lat": -21.6481,
            "school_name": "EM JERONIMO VIEIRA TAVARES",
            "country_name": "Brazil",
            "connectivity": true
        },
        {
            "lon": -42.5507,
            "lat": -16.5417,
            "school_name": "EM ANTONIO G DE ASSIS",
            "country_name": "Brazil",
            "connectivity": false
        },
        {
            "lon": -46.8589,
            "lat": -17.2247,
            "school_name": "EM DR ANTONIO RIBEIRO",
            "country_name": "Brazil",
            "connectivity": true
        },
        {
            "lon": -41.9356,
            "lat": -17.0289,
            "school_name": "EM CANDIDO BATISTA",
            "country_name": "Brazil",
            "connectivity": false
        },
        {
            "lon": -45.2234,
            "lat": -21.4621,
            "school_name": "EE PEDRO MESTRE",
            "country_name": "Brazil",
            "connectivity": true
        },
        {
            "lon": -45.3013,
            "lat": -21.8427,
            "school_name": "EM SEMENTINHA",
            "country_name": "Brazil",
            "connectivity": true
        },
        {
            "lon": -51.4265,
            "lat": -23.5603,
            "school_name": "AUGUSTO WEYAND E M EI EF",
            "country_name": "Brazil",
            "connectivity": true
        },
        {
            "lon": -44.0013,
            "lat": -19.8711,
            "school_name": "ESCOLA MUNICIPAL SANTA TEREZINHA",
            "country_name": "Brazil",
            "connectivity": true
        },
        {
            "lon": -44.433,
            "lat": -17.2302,
            "school_name": "CRECHE CASULO PINGO DE GENTE",
            "country_name": "Brazil",
            "connectivity": true
        },
        {
            "lon": -50.9216,
            "lat": -24.2181,
            "school_name": "GETULIO VARGAS E M DR EI EF",
            "country_name": "Brazil",
            "connectivity": true
        },
        {
            "lon": -51.202,
            "lat": -24.1179,
            "school_name": "VISTA ALEGRE C E C EI EF M",
            "country_name": "Brazil",
            "connectivity": true
        },
        {
            "lon": -37.9979,
            "lat": -11.1869,
            "school_name": "ESCOLA ESTADUAL ROSINHA FELIPE",
            "country_name": "Brazil",
            "connectivity": true
        },
        {
            "lon": -41.1963,
            "lat": -20.9129,
            "school_name": "EEEFM FERNANDO DE ABREU",
            "country_name": "Brazil",
            "connectivity": true
        },
        {
            "lon": -41.029,
            "lat": -20.004,
            "school_name": "CMEI NESTOR PINTO DE AGUIAR",
            "country_name": "Brazil",
            "connectivity": true
        },
        {
            "lon": -40.4539,
            "lat": -20.3002,
            "school_name": "EMEF GETULIO BRANDAO LEITE",
            "country_name": "Brazil",
            "connectivity": false
        },
        {
            "lon": -37.1157,
            "lat": -10.6037,
            "school_name": "ESC MUL ABELARDO VIEIRA DE MENEZES",
            "country_name": "Brazil",
            "connectivity": true
        },
        {
            "lon": -72.925,
            "lat": -7.5959,
            "school_name": "ESC FRANCISCO FREIRE DE CARVALHO",
            "country_name": "Brazil",
            "connectivity": true
        },
        {
            "lon": -41.1045,
            "lat": -20.2126,
            "school_name": "CMEI FAZENDA GUANDU",
            "country_name": "Brazil",
            "connectivity": true
        },
        {
            "lon": -40.1095,
            "lat": -19.1918,
            "school_name": "CEIM ANIZIO ALMEIDA",
            "country_name": "Brazil",
            "connectivity": true
        },
        {
            "lon": -40.3203,
            "lat": -20.3083,
            "school_name": "IFES - CEFOR",
            "country_name": "Brazil",
            "connectivity": true
        },
        {
            "lon": -44.3179,
            "lat": -23.0062,
            "school_name": "CE DOUTOR ARTUR VARGAS",
            "country_name": "Brazil",
            "connectivity": true
        },
        {
            "lon": -42.6424,
            "lat": -22.5137,
            "school_name": "E M BOM JARDIM",
            "country_name": "Brazil",
            "connectivity": true
        },
        {
            "lon": -43.7941,
            "lat": -22.7364,
            "school_name": "E M MANOEL JOSE IGNACIO",
            "country_name": "Brazil",
            "connectivity": false
        },
        {
            "lon": -46.2348,
            "lat": -23.612,
            "school_name": "WANDA DE ALMEIDA TRANDAFILOV PROFA EM",
            "country_name": "Brazil",
            "connectivity": true
        },
        {
            "lon": -46.9527,
            "lat": -22.4721,
            "school_name": "ADIB CHAIB PREFEITO ESCOLA MUNICIPAL DE EDUCACAO BASICA",
            "country_name": "Brazil",
            "connectivity": true
        },
        {
            "lon": -43.3807,
            "lat": -22.8403,
            "school_name": "0622014 ESCOLA MUNICIPAL BELGICA",
            "country_name": "Brazil",
            "connectivity": true
        },
        {
            "lon": -43.3841,
            "lat": -22.7113,
            "school_name": "E M JOSE PINTO TEIXEIRA",
            "country_name": "Brazil",
            "connectivity": false
        },
        {
            "lon": -42.4145,
            "lat": -22.617,
            "school_name": "E M LUCILANDIA",
            "country_name": "Brazil",
            "connectivity": false
        },
        {
            "lon": -46.7164,
            "lat": -23.3317,
            "school_name": "ADAMASTOR BAPTISTA PROF",
            "country_name": "Brazil",
            "connectivity": false
        },
        {
            "lon": -46.7034,
            "lat": -23.6924,
            "school_name": "EMEF PLACIDO DE CASTRO",
            "country_name": "Brazil",
            "connectivity": true
        },
        {
            "lon": -47.1161,
            "lat": -22.9442,
            "school_name": "EMILIO MIOTTI PADRE EMEF",
            "country_name": "Brazil",
            "connectivity": true
        },
        {
            "lon": -47.1126,
            "lat": -22.9471,
            "school_name": "MARIA ODETE DE SOUZA MOTTA CEI",
            "country_name": "Brazil",
            "connectivity": true
        },
        {
            "lon": -45.8954,
            "lat": -23.2726,
            "school_name": "MOACYR BENEDICTO DE SOUZA PROF EMEF",
            "country_name": "Brazil",
            "connectivity": true
        },
        {
            "lon": -46.71,
            "lat": -23.4737,
            "school_name": "EMEI EURIPEDES SIMOES DE PAULA",
            "country_name": "Brazil",
            "connectivity": true
        },
        {
            "lon": -60.0047,
            "lat": -3.0031,
            "school_name": "EETI PROFESSORA LECITA FONSECA RAMOS",
            "country_name": "Brazil",
            "connectivity": true
        },
        {
            "lon": -47.4088,
            "lat": -22.5718,
            "school_name": "FLORA DE CASTRO RODRIGUES PROFA CEIEF",
            "country_name": "Brazil",
            "connectivity": true
        },
        {
            "lon": -47.4787,
            "lat": -21.853,
            "school_name": "SUD MENNUCCI EMEF",
            "country_name": "Brazil",
            "connectivity": true
        },
        {
            "lon": -46.9182,
            "lat": -23.3293,
            "school_name": "DEMETRIO RODRIGUES PONTES EMEB",
            "country_name": "Brazil",
            "connectivity": true
        },
        {
            "lon": -47.4866,
            "lat": -23.5247,
            "school_name": "JOSEFINA ZILIA DE CARVALHO PROFA EM",
            "country_name": "Brazil",
            "connectivity": true
        },
        {
            "lon": -51.3822,
            "lat": -21.678,
            "school_name": "WILSON BATISTA PROF CRECHE MUNICIPAL",
            "country_name": "Brazil",
            "connectivity": true
        },
        {
            "lon": -46.6776,
            "lat": -23.7477,
            "school_name": "CEI DIRET PARQUE COCAIA",
            "country_name": "Brazil",
            "connectivity": true
        },
        {
            "lon": -50.0854,
            "lat": -20.4248,
            "school_name": "VICENTE SANTORO EMEF",
            "country_name": "Brazil",
            "connectivity": true
        },
        {
            "lon": -51.6446,
            "lat": -1.4043,
            "school_name": "EMEI CRECHE CASULO",
            "country_name": "Brazil",
            "connectivity": true
        },
        {
            "lon": -46.4977,
            "lat": -23.4845,
            "school_name": "EMEI LEILA MARIA FONTELES FARIAS PROFA",
            "country_name": "Brazil",
            "connectivity": true
        },
        {
            "lon": -46.7359,
            "lat": -22.6284,
            "school_name": "EMEB PROFA MARIA APARECIDA BICUDO GONCALVES DA SILVA",
            "country_name": "Brazil",
            "connectivity": true
        },
        {
            "lon": -46.7273,
            "lat": -23.8295,
            "school_name": "EMEI JARDIM NOVO PARELHEIROS I",
            "country_name": "Brazil",
            "connectivity": true
        },
        {
            "lon": -47.7254,
            "lat": -23.1058,
            "school_name": "AGLASSI ELINDA FERNANDES RODRIGUES PROFA EMEB",
            "country_name": "Brazil",
            "connectivity": true
        },
        {
            "lon": -46.9369,
            "lat": -23.6337,
            "school_name": "BAIRRO SAO MIGUEL EM",
            "country_name": "Brazil",
            "connectivity": true
        },
        {
            "lon": -46.7908,
            "lat": -24.1546,
            "school_name": "ESCOLA MUNICIPAL PROFESSORA GIOCONDA FAGA",
            "country_name": "Brazil",
            "connectivity": true
        },
        {
            "lon": -39.4335,
            "lat": -15.611,
            "school_name": "EE - COLEGIO ESTADUAL ROMULO GALVAO- DISTRITO DE SAO JOAO DO PARAISO",
            "country_name": "Brazil",
            "connectivity": true
        },
        {
            "lon": -47.4176,
            "lat": -23.538,
            "school_name": "PEDRO AUGUSTO RANGEL FILHO PROFESSOR",
            "country_name": "Brazil",
            "connectivity": true
        },
        {
            "lon": -49.192,
            "lat": -25.4709,
            "school_name": "AYRTON S DA SILVA E M EI EF",
            "country_name": "Brazil",
            "connectivity": true
        },
        {
            "lon": -52.8427,
            "lat": -25.7343,
            "school_name": "NOVA SANT ANA E E C EF",
            "country_name": "Brazil",
            "connectivity": true
        },
        {
            "lon": -49.0725,
            "lat": -27.1975,
            "school_name": "JI ANNA VICTORIA PEDRINI",
            "country_name": "Brazil",
            "connectivity": false
        },
        {
            "lon": -48.6718,
            "lat": -27.6336,
            "school_name": "CAIC PROF",
            "country_name": "Brazil",
            "connectivity": true
        },
        {
            "lon": -51.1296,
            "lat": -30.0071,
            "school_name": "ESC EST ENS FUN ITAMARATI",
            "country_name": "Brazil",
            "connectivity": true
        },
        {
            "lon": -49.5172,
            "lat": -25.4671,
            "school_name": "EDGARD MAROCHI E M DIACONO EI EF",
            "country_name": "Brazil",
            "connectivity": true
        },
        {
            "lon": -56.1376,
            "lat": -15.5923,
            "school_name": "EE MARCELINA DE CAMPOS",
            "country_name": "Brazil",
            "connectivity": true
        },
        {
            "lon": -57.6603,
            "lat": -16.048,
            "school_name": "EE PROFANA MDAS GRACAS SNORONHA",
            "country_name": "Brazil",
            "connectivity": true
        },
        {
            "lon": -44.7435,
            "lat": -19.816,
            "school_name": "EE CANDIDA ALVARENGA MENDONCA",
            "country_name": "Brazil",
            "connectivity": true
        },
        {
            "lon": -49.1272,
            "lat": -25.4567,
            "school_name": "RUDI HEINRICHS E R M EF",
            "country_name": "Brazil",
            "connectivity": true
        },
        {
            "lon": -56.0974,
            "lat": -15.659,
            "school_name": "CMEI NAIR SACRE",
            "country_name": "Brazil",
            "connectivity": true
        },
        {
            "lon": -48.9431,
            "lat": -27.1048,
            "school_name": "CENTRO DE EDUCACAO INFANTIL PEQUENOS PENSADORES",
            "country_name": "Brazil",
            "connectivity": true
        },
        {
            "lon": -43.6206,
            "lat": -22.9227,
            "school_name": "0918832 EDI PROFESSORA JACINTHA REIS FERREIRA",
            "country_name": "Brazil",
            "connectivity": true
        },
        {
            "lon": -46.4583,
            "lat": -23.4471,
            "school_name": "LAURA DA PURIFICACAO DE CASTRO MENDES PROFESSORA",
            "country_name": "Brazil",
            "connectivity": true
        },
        {
            "lon": -42.146,
            "lat": -20.6146,
            "school_name": "EE MELO VIANA",
            "country_name": "Brazil",
            "connectivity": true
        },
        {
            "lon": -51.7039,
            "lat": -17.8785,
            "school_name": "CENTRO MUNICIPAL DE EDUCACAO INFANTIL UBALDINA RIBEIRO",
            "country_name": "Brazil",
            "connectivity": true
        },
        {
            "lon": -36.4738,
            "lat": -9.3203,
            "school_name": "CENTRO MUNICIPAL DE EDUCACAO INFANTIL JOAO PAULO II",
            "country_name": "Brazil",
            "connectivity": true
        },
        {
            "lon": -41.7655,
            "lat": -2.9122,
            "school_name": "CETI JOSE EUCLIDES DE MIRANDA",
            "country_name": "Brazil",
            "connectivity": true
        },
        {
            "lon": -39.5497,
            "lat": -5.5113,
            "school_name": "JOAO BAIA SOBRINHO EEIEF",
            "country_name": "Brazil",
            "connectivity": true
        },
        {
            "lon": -49.3708,
            "lat": -26.2117,
            "school_name": "CEI MUN PASTOR ADOLF PRINZ",
            "country_name": "Brazil",
            "connectivity": true
        },
        {
            "lon": -46.6814,
            "lat": -22.1136,
            "school_name": "JOSE JUSTINO DE OLIVEIRA",
            "country_name": "Brazil",
            "connectivity": true
        },
        {
            "lon": -50.0266,
            "lat": -8.0195,
            "school_name": "E M E F RUI BARBOSA",
            "country_name": "Brazil",
            "connectivity": true
        },
        {
            "lon": -42.6245,
            "lat": -19.5083,
            "school_name": "EE ZACARIAS ROQUE",
            "country_name": "Brazil",
            "connectivity": true
        },
        {
            "lon": -41.4846,
            "lat": -20.3018,
            "school_name": "EMEIEF CACHOEIRA ALEGRE",
            "country_name": "Brazil",
            "connectivity": true
        },
        {
            "lon": -53.6888,
            "lat": -23.8045,
            "school_name": "NESTOR VICTOR C E EF M N",
            "country_name": "Brazil",
            "connectivity": true
        },
        {
            "lon": -52.8972,
            "lat": -27.5262,
            "school_name": "EMEF SANTA LUCIA",
            "country_name": "Brazil",
            "connectivity": true
        },
        {
            "lon": -51.4629,
            "lat": -23.5592,
            "school_name": "JOAO A BRAGA CORTES E M EI EF",
            "country_name": "Brazil",
            "connectivity": true
        },
        {
            "lon": -46.8032,
            "lat": -23.5623,
            "school_name": "EMIR MACEDO NOGUEIRA PROF EMEI",
            "country_name": "Brazil",
            "connectivity": true
        },
        {
            "lon": -51.4617,
            "lat": -23.4901,
            "school_name": "GRACIANO DROESSLER E E C FREI EF",
            "country_name": "Brazil",
            "connectivity": true
        },
        {
            "lon": -54.7437,
            "lat": -1.9442,
            "school_name": "E M E F PROF VERIDIANA DE OLIVEIRA CORREA",
            "country_name": "Brazil",
            "connectivity": true
        },
        {
            "lon": -43.9878,
            "lat": -20.0557,
            "school_name": "EM BENVINDA PINTO ROCHA",
            "country_name": "Brazil",
            "connectivity": true
        },
        {
            "lon": -43.9922,
            "lat": -21.2056,
            "school_name": "CEIM ALCINA LADEIRA FRAGA",
            "country_name": "Brazil",
            "connectivity": true
        },
        {
            "lon": -40.0585,
            "lat": -19.3725,
            "school_name": "EMEF TALMA DRUMOND PESTANA",
            "country_name": "Brazil",
            "connectivity": true
        },
        {
            "lon": -49.8722,
            "lat": -26.1408,
            "school_name": "EMEF SAO LOURENCO",
            "country_name": "Brazil",
            "connectivity": true
        },
        {
            "lon": -43.293,
            "lat": -22.8175,
            "school_name": "0431014 ESCOLA MUNICIPAL MINISTRO LAFAYETTE DE ANDRADA",
            "country_name": "Brazil",
            "connectivity": true
        },
        {
            "lon": -43.975,
            "lat": -19.9584,
            "school_name": "EE DOUTOR SIMAO TAMM BIAS FORTES",
            "country_name": "Brazil",
            "connectivity": true
        },
        {
            "lon": -35.1613,
            "lat": -6.1958,
            "school_name": "ESCOLA ESTADUAL JACUMAUMA",
            "country_name": "Brazil",
            "connectivity": true
        },
        {
            "lon": -40.1058,
            "lat": -7.6853,
            "school_name": "ESCOLA MUL AURELIANO MANOEL DE MACEDO",
            "country_name": "Brazil",
            "connectivity": true
        },
        {
            "lon": -49.7271,
            "lat": -18.9572,
            "school_name": "EM QUIRINO DE MORAIS",
            "country_name": "Brazil",
            "connectivity": true
        },
        {
            "lon": -43.8734,
            "lat": -16.733,
            "school_name": "CEMEI AMIGUINHOS DA VILA",
            "country_name": "Brazil",
            "connectivity": true
        }
    ],
    "num_countries": 12,
    "countries": [
        "Benin",
        "Brazil",
        "Colombia",
        "Costa Rica",
        "Honduras",
        "Kazakhstan",
        "Kyrgyzstan",
        "Namibia",
        "Philippines",
        "Rwanda",
        "Sierra Leone",
        "Zimbabwe"
    ],
    "schools_no_data": [
        {
            "lon": 27.6500964,
            "lat": -20.5332737,
            "school_name": "Moroka",
            "country_name": "Botswana",
            "connectivity": false
        },
        {
            "lon": 32.08092,
            "lat": -10.56016,
            "school_name": "CHINSALI GIRLS HIGH SCHOOL",
            "country_name": "Zambia",
            "connectivity": false
        },
        {
            "lon": 39.10458,
            "lat": -10.77828,
            "school_name": "MKULULU",
            "country_name": "United Republic of Tanzania",
            "connectivity": false
        },
        {
            "lon": -1.2173733,
            "lat": 10.452515,
            "school_name": "Name unknown",
            "country_name": "Ghana",
            "connectivity": false
        },
        {
            "lon": 33.8978056,
            "lat": 18.26974815,
            "school_name": "Name unknown",
            "country_name": "Sudan",
            "connectivity": false
        },
        {
            "lon": 33.1347961666667,
            "lat": 14.8568060333333,
            "school_name": "Name unknown",
            "country_name": "Sudan",
            "connectivity": false
        },
        {
            "lon": 32.65781105,
            "lat": 14.4845358833333,
            "school_name": "Name unknown",
            "country_name": "Sudan",
            "connectivity": false
        },
        {
            "lon": 32.64730748,
            "lat": 13.16757758,
            "school_name": "Name unknown",
            "country_name": "Sudan",
            "connectivity": false
        },
        {
            "lon": 25.3051594,
            "lat": 11.11337537,
            "school_name": "Name unknown",
            "country_name": "Sudan",
            "connectivity": false
        },
        {
            "lon": 1.1270803,
            "lat": 6.1230588,
            "school_name": "Name unknown",
            "country_name": "Ghana",
            "connectivity": false
        },
        {
            "lon": -0.100937,
            "lat": 5.5958204,
            "school_name": "Name unknown",
            "country_name": "Ghana",
            "connectivity": false
        },
        {
            "lon": -1.4483648,
            "lat": 5.5941857,
            "school_name": "Name unknown",
            "country_name": "Ghana",
            "connectivity": false
        },
        {
            "lon": -1.6666348,
            "lat": 6.746773,
            "school_name": "Name unknown",
            "country_name": "Ghana",
            "connectivity": false
        },
        {
            "lon": -0.1807458,
            "lat": 10.8753577,
            "school_name": "Name unknown",
            "country_name": "Ghana",
            "connectivity": false
        },
        {
            "lon": -1.6117293,
            "lat": 6.7424264,
            "school_name": "Name unknown",
            "country_name": "Ghana",
            "connectivity": false
        },
        {
            "lon": -1.6540942,
            "lat": 6.6820863,
            "school_name": "Name unknown",
            "country_name": "Ghana",
            "connectivity": false
        },
        {
            "lon": 33.8191,
            "lat": -9.52059,
            "school_name": "KYIJILA",
            "country_name": "United Republic of Tanzania",
            "connectivity": false
        },
        {
            "lon": 35.73295,
            "lat": -3.32279,
            "school_name": "AKKO",
            "country_name": "United Republic of Tanzania",
            "connectivity": false
        },
        {
            "lon": 36.50952,
            "lat": -10.7493,
            "school_name": "KILIMASERA",
            "country_name": "United Republic of Tanzania",
            "connectivity": false
        },
        {
            "lon": 35.77278,
            "lat": -10.58397,
            "school_name": "LIMAMU",
            "country_name": "United Republic of Tanzania",
            "connectivity": false
        },
        {
            "lon": 34.87434,
            "lat": -10.82511,
            "school_name": "LIYOMBO",
            "country_name": "United Republic of Tanzania",
            "connectivity": false
        },
        {
            "lon": 32.15755,
            "lat": -2.46221,
            "school_name": "CHEMA",
            "country_name": "United Republic of Tanzania",
            "connectivity": false
        },
        {
            "lon": 31.92661,
            "lat": -5.06629,
            "school_name": "VUMILIA",
            "country_name": "United Republic of Tanzania",
            "connectivity": false
        },
        {
            "lon": 30.51614,
            "lat": -2.54983,
            "school_name": "MUKAGUGO",
            "country_name": "United Republic of Tanzania",
            "connectivity": false
        },
        {
            "lon": 1.278248,
            "lat": 9.51546,
            "school_name": "JEP KPANZINDE",
            "country_name": "Togo",
            "connectivity": false
        },
        {
            "lon": 0.11101,
            "lat": 10.8229,
            "school_name": "JEP NACRE 1",
            "country_name": "Togo",
            "connectivity": false
        },
        {
            "lon": 1.568712,
            "lat": 6.439739,
            "school_name": "EPP KPAKPALAKPENOU G/C",
            "country_name": "Togo",
            "connectivity": false
        },
        {
            "lon": 1.516705,
            "lat": 6.237587,
            "school_name": "EPC BADOUGBE",
            "country_name": "Togo",
            "connectivity": false
        },
        {
            "lon": 1.238184627,
            "lat": 6.347892042,
            "school_name": "EPC LOMENYOKOPE",
            "country_name": "Togo",
            "connectivity": false
        },
        {
            "lon": 0.775796,
            "lat": 6.619376,
            "school_name": "EPP ADRAKPO",
            "country_name": "Togo",
            "connectivity": false
        },
        {
            "lon": 0.7905,
            "lat": 7.231,
            "school_name": "EPP KPELE AGAVE G/B",
            "country_name": "Togo",
            "connectivity": false
        },
        {
            "lon": 1.271803,
            "lat": 8.070007,
            "school_name": "EPB MODOKOUTE",
            "country_name": "Togo",
            "connectivity": false
        },
        {
            "lon": 0.737949,
            "lat": 9.833393,
            "school_name": "EPP TCHIRKA",
            "country_name": "Togo",
            "connectivity": false
        },
        {
            "lon": 1.203376,
            "lat": 9.538517,
            "school_name": "EPP AGNARAM G/C",
            "country_name": "Togo",
            "connectivity": false
        },
        {
            "lon": 0.266073,
            "lat": 10.884935,
            "school_name": "EPP NAMBONGA BAS",
            "country_name": "Togo",
            "connectivity": false
        },
        {
            "lon": 0.204488,
            "lat": 10.744586,
            "school_name": "EPP KONKWAL",
            "country_name": "Togo",
            "connectivity": false
        },
        {
            "lon": 1.21215,
            "lat": 6.22485,
            "school_name": "CPL LOUIS LE BELIER",
            "country_name": "Togo",
            "connectivity": false
        },
        {
            "lon": 1.24489,
            "lat": 9.232778,
            "school_name": "CEG KEMENI",
            "country_name": "Togo",
            "connectivity": false
        },
        {
            "lon": 20.03275394,
            "lat": 44.30404212,
            "school_name": "\u0421\u0442\u0435\u0432\u0430\u043d \u0424\u0438\u043b\u0438\u043f\u043e\u0432\u0438\u045b",
            "country_name": "Serbia",
            "connectivity": false
        },
        {
            "lon": 29.6469,
            "lat": -4.84228,
            "school_name": "KAHABWA",
            "country_name": "United Republic of Tanzania",
            "connectivity": false
        },
        {
            "lon": 32.07876,
            "lat": -5.07975,
            "school_name": "AZIMIO",
            "country_name": "United Republic of Tanzania",
            "connectivity": false
        },
        {
            "lon": 34.64068,
            "lat": -9.05617,
            "school_name": "IGWACHANYA",
            "country_name": "United Republic of Tanzania",
            "connectivity": false
        },
        {
            "lon": 39.70509,
            "lat": -10.36077,
            "school_name": "CHEMCHEM",
            "country_name": "United Republic of Tanzania",
            "connectivity": false
        },
        {
            "lon": 36.07311,
            "lat": -6.38039,
            "school_name": "NGHAHELEZI",
            "country_name": "United Republic of Tanzania",
            "connectivity": false
        },
        {
            "lon": 1.210861,
            "lat": 6.770101,
            "school_name": "CEG KABLIVE",
            "country_name": "Togo",
            "connectivity": false
        },
        {
            "lon": 33.94701043,
            "lat": -13.69983928,
            "school_name": "Tsache Primary School",
            "country_name": "Malawi",
            "connectivity": false
        },
        {
            "lon": 35.09520011,
            "lat": -16.54485335,
            "school_name": "Kaombe",
            "country_name": "Malawi",
            "connectivity": false
        },
        {
            "lon": 35.4071223,
            "lat": -15.91021147,
            "school_name": "Makulo School",
            "country_name": "Malawi",
            "connectivity": false
        },
        {
            "lon": 23.913,
            "lat": 0.926,
            "school_name": "EP MOSENGE",
            "country_name": "Democratic Republic of the Congo",
            "connectivity": false
        },
        {
            "lon": 30.83240217,
            "lat": 2.866460655,
            "school_name": "EP AUTSAI",
            "country_name": "Democratic Republic of the Congo",
            "connectivity": false
        },
        {
            "lon": 21.22411341,
            "lat": -4.60260763,
            "school_name": "INST SAINTE MARIE",
            "country_name": "Democratic Republic of the Congo",
            "connectivity": false
        },
        {
            "lon": 7.190573333,
            "lat": 5.627598333,
            "school_name": "Name unknown",
            "country_name": "Nigeria",
            "connectivity": false
        },
        {
            "lon": 24.18904837,
            "lat": -3.305773128,
            "school_name": "INST DINGELE",
            "country_name": "Democratic Republic of the Congo",
            "connectivity": false
        },
        {
            "lon": 23.98035251,
            "lat": -6.990137479,
            "school_name": "INST SENGA",
            "country_name": "Democratic Republic of the Congo",
            "connectivity": false
        },
        {
            "lon": 24.56378686,
            "lat": -5.410918422,
            "school_name": "INST LUKOLELA",
            "country_name": "Democratic Republic of the Congo",
            "connectivity": false
        },
        {
            "lon": 26.73962696,
            "lat": -10.9683947,
            "school_name": "CS CLOCHE D'OR",
            "country_name": "Democratic Republic of the Congo",
            "connectivity": false
        },
        {
            "lon": 27.51674162,
            "lat": -11.627662,
            "school_name": "CS LA VERTU",
            "country_name": "Democratic Republic of the Congo",
            "connectivity": false
        },
        {
            "lon": 17.13664459,
            "lat": -4.908563515,
            "school_name": "EP NKONZI / MUTEBA",
            "country_name": "Democratic Republic of the Congo",
            "connectivity": false
        },
        {
            "lon": 28.88873038,
            "lat": -1.654857224,
            "school_name": "EP KADESI",
            "country_name": "Democratic Republic of the Congo",
            "connectivity": false
        },
        {
            "lon": 19.22567349,
            "lat": 3.343698538,
            "school_name": "INST SEWA",
            "country_name": "Democratic Republic of the Congo",
            "connectivity": false
        },
        {
            "lon": 29.03738889,
            "lat": -4.200888889,
            "school_name": "EP MALINDE",
            "country_name": "Democratic Republic of the Congo",
            "connectivity": false
        },
        {
            "lon": 22.5628998,
            "lat": 3.934711022,
            "school_name": "EP II  KONGBA BEMA",
            "country_name": "Democratic Republic of the Congo",
            "connectivity": false
        },
        {
            "lon": 13.05419289,
            "lat": -5.807734822,
            "school_name": "EP LES MERVEILLES",
            "country_name": "Democratic Republic of the Congo",
            "connectivity": false
        },
        {
            "lon": -67.233776,
            "lat": -16.240071,
            "school_name": "CHAMACA",
            "country_name": "Bolivia (Plurinational State of)",
            "connectivity": false
        },
        {
            "lon": -68.711803,
            "lat": -18.177079,
            "school_name": "PEDRO DOMINGO MURILLO A",
            "country_name": "Bolivia (Plurinational State of)",
            "connectivity": false
        },
        {
            "lon": -95.10832,
            "lat": 18.41878,
            "school_name": "SOR JUANA INES DE LA CRUZ",
            "country_name": "Mexico",
            "connectivity": false
        },
        {
            "lon": -11.889,
            "lat": 14.83432,
            "school_name": "\u0628\u0648\u0643\u064a\u062c\u0627\u0645\u064a",
            "country_name": "Mauritania",
            "connectivity": false
        },
        {
            "lon": 33.78673,
            "lat": 1.46988,
            "school_name": "BKC DEM. SCH.",
            "country_name": "Uganda",
            "connectivity": false
        },
        {
            "lon": 31.55987,
            "lat": -0.61163,
            "school_name": "Child Care center",
            "country_name": "Uganda",
            "connectivity": false
        },
        {
            "lon": 30.48009,
            "lat": -0.53572,
            "school_name": "Komuyaga P.S.",
            "country_name": "Uganda",
            "connectivity": false
        },
        {
            "lon": 32.83464,
            "lat": 3.46776,
            "school_name": "Padibe P.S.",
            "country_name": "Uganda",
            "connectivity": false
        },
        {
            "lon": 31.24046,
            "lat": 0.53283,
            "school_name": "Kidindimya P.S.",
            "country_name": "Uganda",
            "connectivity": false
        },
        {
            "lon": 31.34891,
            "lat": -0.43641,
            "school_name": "Birunuma P.S.",
            "country_name": "Uganda",
            "connectivity": false
        },
        {
            "lon": 32.20373,
            "lat": 0.57098,
            "school_name": "Busunju Islamic P.S",
            "country_name": "Uganda",
            "connectivity": false
        },
        {
            "lon": -63.225976,
            "lat": -18.058354,
            "school_name": "HOLY LORD SCHOOL",
            "country_name": "Bolivia (Plurinational State of)",
            "connectivity": false
        },
        {
            "lon": 28.71455,
            "lat": -25.3985,
            "school_name": "Ingomuso Educare Centre",
            "country_name": "South Africa",
            "connectivity": false
        },
        {
            "lon": 31.53168,
            "lat": -25.2864,
            "school_name": "Sibani Primary School",
            "country_name": "South Africa",
            "connectivity": false
        },
        {
            "lon": 18.45947,
            "lat": -33.97619,
            "school_name": "EMDC College",
            "country_name": "South Africa",
            "connectivity": false
        },
        {
            "lon": 18.59214,
            "lat": -33.99129,
            "school_name": "Qingqa-Mntwana Primary School",
            "country_name": "South Africa",
            "connectivity": false
        },
        {
            "lon": 6.228529,
            "lat": 5.926453,
            "school_name": "Name unknown",
            "country_name": "Nigeria",
            "connectivity": false
        },
        {
            "lon": 29.88806,
            "lat": -24.57301,
            "school_name": "Telelo Secondary",
            "country_name": "South Africa",
            "connectivity": false
        },
        {
            "lon": 18.53564,
            "lat": -33.96801,
            "school_name": "Silvertown Pre Primary School",
            "country_name": "South Africa",
            "connectivity": false
        },
        {
            "lon": 29.27881,
            "lat": -23.04815,
            "school_name": "Vivo CVO",
            "country_name": "South Africa",
            "connectivity": false
        },
        {
            "lon": 18.83293,
            "lat": -34.10668,
            "school_name": "Laerskool Lochnerhof",
            "country_name": "South Africa",
            "connectivity": false
        },
        {
            "lon": 29.86278,
            "lat": -29.01684,
            "school_name": "Drakensview Primary School",
            "country_name": "South Africa",
            "connectivity": false
        },
        {
            "lon": 29.93206,
            "lat": -30.26535,
            "school_name": "DRC Junior Secondary School",
            "country_name": "South Africa",
            "connectivity": false
        },
        {
            "lon": 30.14722,
            "lat": -30.37268,
            "school_name": "Malezulu Primary School",
            "country_name": "South Africa",
            "connectivity": false
        },
        {
            "lon": 30.18051,
            "lat": -27.90531,
            "school_name": "Kilkeel Primary School",
            "country_name": "South Africa",
            "connectivity": false
        },
        {
            "lon": 30.1969,
            "lat": -29.59785,
            "school_name": "Mconjwana High School",
            "country_name": "South Africa",
            "connectivity": false
        },
        {
            "lon": 30.60269,
            "lat": -28.67561,
            "school_name": "Pano Junior Secondary School",
            "country_name": "South Africa",
            "connectivity": false
        },
        {
            "lon": 28.28354,
            "lat": -24.88222,
            "school_name": "Kleuterskool Bosveldspruitjies",
            "country_name": "South Africa",
            "connectivity": false
        },
        {
            "lon": 30.41094,
            "lat": -24.4598,
            "school_name": "Taung High",
            "country_name": "South Africa",
            "connectivity": false
        },
        {
            "lon": 30.87253,
            "lat": -30.07146,
            "school_name": "Durban Aviation Centre",
            "country_name": "South Africa",
            "connectivity": false
        },
        {
            "lon": 30.11585,
            "lat": -30.82283,
            "school_name": "Khandalesizwe Junior School",
            "country_name": "South Africa",
            "connectivity": false
        },
        {
            "lon": 31.47152,
            "lat": -28.22717,
            "school_name": "Maliyamakhanda Primary School",
            "country_name": "South Africa",
            "connectivity": false
        },
        {
            "lon": 31.03875,
            "lat": -27.68787,
            "school_name": "Nkongolwana Primary School",
            "country_name": "South Africa",
            "connectivity": false
        },
        {
            "lon": 28.81976,
            "lat": -31.17649,
            "school_name": "Ntshozweni Senior Primary School",
            "country_name": "South Africa",
            "connectivity": false
        },
        {
            "lon": 28.03051,
            "lat": -26.19563,
            "school_name": "Saint Jeff College",
            "country_name": "South Africa",
            "connectivity": false
        },
        {
            "lon": 24.53108,
            "lat": -32.25269,
            "school_name": "Laer Volkskool - Graaff-Reinet",
            "country_name": "South Africa",
            "connectivity": false
        },
        {
            "lon": 28.13752,
            "lat": -25.85773,
            "school_name": "The Little People's Place",
            "country_name": "South Africa",
            "connectivity": false
        },
        {
            "lon": 28.12273,
            "lat": -26.39069,
            "school_name": "Greenfields Secondary School",
            "country_name": "South Africa",
            "connectivity": false
        },
        {
            "lon": 27.83442,
            "lat": -26.55723,
            "school_name": "Thembalethu Day Care Centre",
            "country_name": "South Africa",
            "connectivity": false
        },
        {
            "lon": 28.41649,
            "lat": -26.14586,
            "school_name": "Siphumelele Primary School",
            "country_name": "South Africa",
            "connectivity": false
        },
        {
            "lon": 28.72629,
            "lat": -25.66804,
            "school_name": "Mandlomsobo Primary School",
            "country_name": "South Africa",
            "connectivity": false
        },
        {
            "lon": 27.9963,
            "lat": -32.94647,
            "school_name": "Gonubie High School",
            "country_name": "South Africa",
            "connectivity": false
        },
        {
            "lon": 28.24492,
            "lat": -26.17444,
            "school_name": "Jungle Tots Pre School",
            "country_name": "South Africa",
            "connectivity": false
        },
        {
            "lon": 27.7917,
            "lat": -26.0957,
            "school_name": "Triple E Training",
            "country_name": "South Africa",
            "connectivity": false
        },
        {
            "lon": 28.06444,
            "lat": -32.18197,
            "school_name": "Nontloko Combined School",
            "country_name": "South Africa",
            "connectivity": false
        },
        {
            "lon": 27.25726,
            "lat": -31.86957,
            "school_name": "Masizakhe Junior Primary School",
            "country_name": "South Africa",
            "connectivity": false
        },
        {
            "lon": 26.77096,
            "lat": -27.9721,
            "school_name": "Reitzpark Primary School",
            "country_name": "South Africa",
            "connectivity": false
        },
        {
            "lon": 27.10565,
            "lat": -27.78021,
            "school_name": "Platberg Primary Farm School",
            "country_name": "South Africa",
            "connectivity": false
        },
        {
            "lon": 28.36397,
            "lat": -31.07569,
            "school_name": "Government School",
            "country_name": "South Africa",
            "connectivity": false
        },
        {
            "lon": 28.41518,
            "lat": -32.13102,
            "school_name": "Nosapho Junior Primary School",
            "country_name": "South Africa",
            "connectivity": false
        },
        {
            "lon": 29.25398,
            "lat": -30.73562,
            "school_name": "Sirhoqobeni Junior Secondary School",
            "country_name": "South Africa",
            "connectivity": false
        },
        {
            "lon": 7.88661379,
            "lat": 5.390270593,
            "school_name": "Name unknown",
            "country_name": "Nigeria",
            "connectivity": false
        },
        {
            "lon": -89.185,
            "lat": 21.225,
            "school_name": "PLANTEL INCORPORADO AL COBAY 02 SINANCHE",
            "country_name": "Mexico",
            "connectivity": false
        },
        {
            "lon": -58.39785968,
            "lat": -34.72517877,
            "school_name": "ESCUELA PRIMARIA N\u00ba16 DR. ARTURO MELO",
            "country_name": "Argentina",
            "connectivity": false
        },
        {
            "lon": -58.462948,
            "lat": -34.6054562,
            "school_name": "JIN C JAVIER VILLAFANE DE 07 (N\u00ba 18)",
            "country_name": "Argentina",
            "connectivity": false
        },
        {
            "lon": -60.34430098,
            "lat": -36.89438532,
            "school_name": "JARDIN DE INFANTES SAN LEOPOLDO MANDIC",
            "country_name": "Argentina",
            "connectivity": false
        },
        {
            "lon": -58.60712471,
            "lat": -34.71208922,
            "school_name": "JARDIN DE INFANTES LOS PINITOS",
            "country_name": "Argentina",
            "connectivity": false
        },
        {
            "lon": -58.28017043,
            "lat": -34.80541461,
            "school_name": "INSTITUTO NUESTRA SE\u00d1ORA DEL SAGRADO CORAZON",
            "country_name": "Argentina",
            "connectivity": false
        },
        {
            "lon": -58.27069776,
            "lat": -34.81909945,
            "school_name": "INSTITUTO SANTA LUCIA",
            "country_name": "Argentina",
            "connectivity": false
        },
        {
            "lon": -58.68622581,
            "lat": -34.67352793,
            "school_name": "ESCUELA TECNICA N\u00ba3",
            "country_name": "Argentina",
            "connectivity": false
        },
        {
            "lon": -58.60027017,
            "lat": -34.70533604,
            "school_name": "EXTENSION I DE ESCUELA SECUNDARIA N\u00ba7",
            "country_name": "Argentina",
            "connectivity": false
        },
        {
            "lon": -58.46910509,
            "lat": -34.81744203,
            "school_name": "INSTITUTO GRILLI",
            "country_name": "Argentina",
            "connectivity": false
        },
        {
            "lon": -58.68248962,
            "lat": -34.88451175,
            "school_name": "CENTRO DE ADULTOS N\u00ba734",
            "country_name": "Argentina",
            "connectivity": false
        },
        {
            "lon": -58.38628268,
            "lat": -34.67906844,
            "school_name": "ESCUELA PRIMARIA N\u00ba17 HIPOLITO YRIGOYEN",
            "country_name": "Argentina",
            "connectivity": false
        },
        {
            "lon": -61.88805179,
            "lat": -37.28667072,
            "school_name": "ESCUELA PRIMARIA N\u00ba30 GABRIELA MISTRAL",
            "country_name": "Argentina",
            "connectivity": false
        },
        {
            "lon": -60.70453196,
            "lat": -31.6451047,
            "school_name": "I.S.P.A. NRO 4057 UMBRAL",
            "country_name": "Argentina",
            "connectivity": false
        },
        {
            "lon": -58.62496652,
            "lat": -34.70013764,
            "school_name": "ESC. SECUNDARIA BASICA N\u00ba11",
            "country_name": "Argentina",
            "connectivity": false
        },
        {
            "lon": -58.56938978,
            "lat": -34.69994118,
            "school_name": "ESCUELA SECUNDARIA N\u00ba98",
            "country_name": "Argentina",
            "connectivity": false
        },
        {
            "lon": -79.4273,
            "lat": -5.18863,
            "school_name": "14472 VIRGEN DE LAS MERCEDES",
            "country_name": "Peru",
            "connectivity": false
        },
        {
            "lon": -66.15712461,
            "lat": -26.73321755,
            "school_name": "ESCUELA N\u00b0 141",
            "country_name": "Argentina",
            "connectivity": false
        },
        {
            "lon": -65.79240345,
            "lat": -28.45772595,
            "school_name": "ESCUELA N\u00b0 428 DR. ENRIQUE OCAMPO",
            "country_name": "Argentina",
            "connectivity": false
        },
        {
            "lon": -61.45770292,
            "lat": -26.70391339,
            "school_name": "E.E.P. N\u00ba 952",
            "country_name": "Argentina",
            "connectivity": false
        },
        {
            "lon": -60.40970143,
            "lat": -25.79428509,
            "school_name": "E.E.P. N\u00ba 960",
            "country_name": "Argentina",
            "connectivity": false
        },
        {
            "lon": -58.51135721,
            "lat": -34.59504241,
            "school_name": "DR. DELFIN GALLO",
            "country_name": "Argentina",
            "connectivity": false
        },
        {
            "lon": -58.40633311,
            "lat": -34.60671615,
            "school_name": "PRESIDENTE MITRE",
            "country_name": "Argentina",
            "connectivity": false
        },
        {
            "lon": -64.342,
            "lat": -33.1284,
            "school_name": "COLEGIO ESCUELAS PIAS",
            "country_name": "Argentina",
            "connectivity": false
        },
        {
            "lon": -57.27459106,
            "lat": -27.76503957,
            "school_name": "ESCUELA N\u00ba 977",
            "country_name": "Argentina",
            "connectivity": false
        },
        {
            "lon": -60.51880555,
            "lat": -31.8186165,
            "school_name": "ESCUELA SECUNDARIA 20 ROSARIO VERA PE\u00d1ALOZA",
            "country_name": "Argentina",
            "connectivity": false
        },
        {
            "lon": -60.35689333,
            "lat": -31.69460229,
            "school_name": "CENTRO EDUCATIVO 5",
            "country_name": "Argentina",
            "connectivity": false
        },
        {
            "lon": -64.129944,
            "lat": -35.689649,
            "school_name": "Centro Educativo Programa Especial N\u00ba 141",
            "country_name": "Argentina",
            "connectivity": false
        },
        {
            "lon": -66.48949614,
            "lat": -28.67197824,
            "school_name": "ESC.N\u00b0033 DR.PEDRO IGNACIO DE CASTRO BARROS",
            "country_name": "Argentina",
            "connectivity": false
        },
        {
            "lon": -76.3395,
            "lat": -6.11306,
            "school_name": "1134 MAHPARIA' WARU' SA",
            "country_name": "Peru",
            "connectivity": false
        },
        {
            "lon": -70.08523253,
            "lat": -38.47819288,
            "school_name": "ESCUELA PRIMARIA 224",
            "country_name": "Argentina",
            "connectivity": false
        },
        {
            "lon": -68.10666852,
            "lat": -38.95182869,
            "school_name": "ESCUELA PRIMARIA 343",
            "country_name": "Argentina",
            "connectivity": false
        },
        {
            "lon": -64.31048108,
            "lat": -23.13440929,
            "school_name": "COLEGIO SECUNDARIO N\u00b0 5040 EX N\u00b039",
            "country_name": "Argentina",
            "connectivity": false
        },
        {
            "lon": -65.05469289,
            "lat": -24.66773887,
            "school_name": "INSTITUTO SUPERIOR DR.RAMON CARRILLO - ANEXO GRAL.GUEMES",
            "country_name": "Argentina",
            "connectivity": false
        },
        {
            "lon": -60.81468577,
            "lat": -32.70120348,
            "school_name": "ESCUELA NRO 6019 CONVENTO SAN CARLOS",
            "country_name": "Argentina",
            "connectivity": false
        },
        {
            "lon": -60.78904,
            "lat": -33.43936,
            "school_name": "ESCUELA NRO 184 DOMINGO FAUSTINO SARMIENTO",
            "country_name": "Argentina",
            "connectivity": false
        },
        {
            "lon": -60.8249248,
            "lat": -33.3132705,
            "school_name": "E.E.M.P.A. NRO 1241 REPUBLICA DE ITALIA",
            "country_name": "Argentina",
            "connectivity": false
        },
        {
            "lon": -59.79634722,
            "lat": -29.36444494,
            "school_name": "ESCUELA NRO 6175 AUGUSTO RAMSEYER",
            "country_name": "Argentina",
            "connectivity": false
        },
        {
            "lon": -59.26265681,
            "lat": -28.38180701,
            "school_name": "A.E.S. ORIENTADA NRO 3363",
            "country_name": "Argentina",
            "connectivity": false
        },
        {
            "lon": -62.33828871,
            "lat": -26.28505939,
            "school_name": "CENTRO EXPERIMENTAL N\u00ba 2 FLORENTINO AMEGHINO J/N.14",
            "country_name": "Argentina",
            "connectivity": false
        },
        {
            "lon": -65.19816417,
            "lat": -26.82542423,
            "school_name": "ESC. DE EDUCACION INTEGRAL SARMIENTO",
            "country_name": "Argentina",
            "connectivity": false
        },
        {
            "lon": 5.778758,
            "lat": 5.663299,
            "school_name": "Name unknown",
            "country_name": "Nigeria",
            "connectivity": false
        },
        {
            "lon": 7.384053972,
            "lat": 5.372574591,
            "school_name": "Name unknown",
            "country_name": "Nigeria",
            "connectivity": false
        },
        {
            "lon": 7.73492,
            "lat": 5.716134,
            "school_name": "Name unknown",
            "country_name": "Nigeria",
            "connectivity": false
        },
        {
            "lon": 8.0901633,
            "lat": 6.3375167,
            "school_name": "Name unknown",
            "country_name": "Nigeria",
            "connectivity": false
        },
        {
            "lon": 8.027258333,
            "lat": 6.014371667,
            "school_name": "Name unknown",
            "country_name": "Nigeria",
            "connectivity": false
        },
        {
            "lon": 7.848948,
            "lat": 6.117513,
            "school_name": "Name unknown",
            "country_name": "Nigeria",
            "connectivity": false
        },
        {
            "lon": 6.2649,
            "lat": 7.249158,
            "school_name": "Name unknown",
            "country_name": "Nigeria",
            "connectivity": false
        },
        {
            "lon": 6.064947,
            "lat": 6.283118,
            "school_name": "Name unknown",
            "country_name": "Nigeria",
            "connectivity": false
        },
        {
            "lon": 13.1497052,
            "lat": 11.85296727,
            "school_name": "Name unknown",
            "country_name": "Nigeria",
            "connectivity": false
        },
        {
            "lon": 5.219726667,
            "lat": 7.674391667,
            "school_name": "Name unknown",
            "country_name": "Nigeria",
            "connectivity": false
        },
        {
            "lon": 7.551645,
            "lat": 6.407673333,
            "school_name": "Name unknown",
            "country_name": "Nigeria",
            "connectivity": false
        },
        {
            "lon": 11.69393,
            "lat": 9.794236,
            "school_name": "Name unknown",
            "country_name": "Nigeria",
            "connectivity": false
        },
        {
            "lon": 10.93138,
            "lat": 11.04841,
            "school_name": "Name unknown",
            "country_name": "Nigeria",
            "connectivity": false
        },
        {
            "lon": 7.096028,
            "lat": 5.911478,
            "school_name": "Name unknown",
            "country_name": "Nigeria",
            "connectivity": false
        },
        {
            "lon": 7.170235216,
            "lat": 5.704710971,
            "school_name": "Name unknown",
            "country_name": "Nigeria",
            "connectivity": false
        },
        {
            "lon": -78.7588,
            "lat": -6.54218,
            "school_name": "10444",
            "country_name": "Peru",
            "connectivity": false
        },
        {
            "lon": -75.593,
            "lat": -6.6644,
            "school_name": "128",
            "country_name": "Peru",
            "connectivity": false
        },
        {
            "lon": -76.9712,
            "lat": -11.9385,
            "school_name": "0163 CORONEL NESTOR ESCUDERO OTERO",
            "country_name": "Peru",
            "connectivity": false
        },
        {
            "lon": -79.8365,
            "lat": -6.75102,
            "school_name": "024 LA INMACULADA",
            "country_name": "Peru",
            "connectivity": false
        },
        {
            "lon": -76.9777,
            "lat": -12.0482,
            "school_name": "053 SANTA ROSITA",
            "country_name": "Peru",
            "connectivity": false
        },
        {
            "lon": -77.3607,
            "lat": -8.9382,
            "school_name": "065 ESPEJITO DEL CIELO",
            "country_name": "Peru",
            "connectivity": false
        },
        {
            "lon": -78.492,
            "lat": -6.43454,
            "school_name": "101081",
            "country_name": "Peru",
            "connectivity": false
        },
        {
            "lon": -79.1617,
            "lat": -6.55484,
            "school_name": "10545",
            "country_name": "Peru",
            "connectivity": false
        },
        {
            "lon": -79.9069,
            "lat": -6.70431,
            "school_name": "11036 27 DE DICIEMBRE",
            "country_name": "Peru",
            "connectivity": false
        },
        {
            "lon": -78.3323,
            "lat": -6.57138,
            "school_name": "1146",
            "country_name": "Peru",
            "connectivity": false
        },
        {
            "lon": -78.1754,
            "lat": -7.39706,
            "school_name": "1318",
            "country_name": "Peru",
            "connectivity": false
        },
        {
            "lon": -79.3225,
            "lat": -7.13372,
            "school_name": "1376",
            "country_name": "Peru",
            "connectivity": false
        },
        {
            "lon": -81.2755,
            "lat": -4.56336,
            "school_name": "15031 MONSE\u00d1OR LUIS PACHECO WILSON",
            "country_name": "Peru",
            "connectivity": false
        },
        {
            "lon": -80.515,
            "lat": -4.82368,
            "school_name": "15036",
            "country_name": "Peru",
            "connectivity": false
        },
        {
            "lon": -80.6563,
            "lat": -4.9588,
            "school_name": "15301",
            "country_name": "Peru",
            "connectivity": false
        },
        {
            "lon": -78.2085,
            "lat": -8.18591,
            "school_name": "2030",
            "country_name": "Peru",
            "connectivity": false
        },
        {
            "lon": -76.9524,
            "lat": -11.8788,
            "school_name": "20955-23 ANTENOR ORREGO ESPINOZA",
            "country_name": "Peru",
            "connectivity": false
        },
        {
            "lon": -76.9636,
            "lat": -11.8931,
            "school_name": "20955-29 LOS JAZMINES",
            "country_name": "Peru",
            "connectivity": false
        },
        {
            "lon": -74.2341,
            "lat": -14.6032,
            "school_name": "212",
            "country_name": "Peru",
            "connectivity": false
        },
        {
            "lon": -76.1555,
            "lat": -13.3995,
            "school_name": "22252 ANSELMO ABAD DE LA CRUZ",
            "country_name": "Peru",
            "connectivity": false
        },
        {
            "lon": -76.0244,
            "lat": -13.694,
            "school_name": "22445 GERARDO R. MENDOZA ESCATE",
            "country_name": "Peru",
            "connectivity": false
        },
        {
            "lon": -77.5744,
            "lat": -8.31103,
            "school_name": "2671",
            "country_name": "Peru",
            "connectivity": false
        },