{
    "name": "Patchwork Kingdom #231 | Burima",
    "description": "The twin kingdoms of Burima, separated by a digital divide. A bustling kingdom of 110 schools on top that are all connected to the internet, and 93 schools, not connected, hidden in the upside down kingdom | Created for Giga (GigaConnect.org) \u2014 connecting every school in the world \u2014 in celebration of UNICEF's 75th birthday, by Nadieh Bremer",
    "external_url": "https://dummyURL.com/patchwork_kingdoms_231",
    "image": "https://dummy-storage-url.com/patchwork_kingdoms_231.png",
    "attributes": [
        {
            "trait_type": "Color palette",
            "value": "chaos"
        },
        {
            "display_type": "number",
            "trait_type": "Schools",
            "value": 220,
            "max_value": 460
        },
        {
            "display_type": "number",
            "trait_type": "Ratio - Connected",
            "value": 0.5,
            "max_value": 1
        },
        {
            "display_type": "number",
            "trait_type": "Ratio - Unconnected",
            "value": 0.42,
            "max_value": 1
        },
        {
            "display_type": "number",
            "trait_type": "Ratio - Data unavailable",
            "value": 0.08,
            "max_value": 1
        },
        {
            "trait_type": "Countries",
            "value": "AG-BR-CO-CR-HN-KG-KZ-NA-PH-PS-RW-SL-ZW"
        },
        {
            "display_type": "number",
            "trait_type": "Symbols",
            "value": 42,
            "max_value": 51
        }
    ],
    "cluster_id": 231,
    "num_schools": 220,
    "num_schools_connected": 110,
    "num_schools_unconnected": 93,
    "num_schools_unknown": 17,
    "schools": [
        {
            "lon": -51.2104,
            "lat": -22.971,
            "school_name": "DIRCY DOS SANTOS E M PROFA EF",
            "country_name": "Brazil",
            "connectivity": true
        },
        {
            "lon": -86.45822,
            "lat": 15.75916,
            "school_name": "LA SUYAPA",
            "country_name": "Honduras",
            "connectivity": true
        },
        {
            "lon": -88.59635,
            "lat": 14.87591,
            "school_name": "15 DE JULIO",
            "country_name": "Honduras",
            "connectivity": true
        },
        {
            "lon": -88.37775,
            "lat": 14.69549,
            "school_name": "CATRACHITOS",
            "country_name": "Honduras",
            "connectivity": true
        },
        {
            "lon": -85.89106,
            "lat": 14.34417,
            "school_name": "RAFAEL PINEDA PONCE",
            "country_name": "Honduras",
            "connectivity": true
        },
        {
            "lon": -87.86088,
            "lat": 14.62431,
            "school_name": "MI BENDICION",
            "country_name": "Honduras",
            "connectivity": true
        },
        {
            "lon": -89.0446,
            "lat": 14.79248,
            "school_name": "JOSEFA LASTIRI DE MORAZAN",
            "country_name": "Honduras",
            "connectivity": true
        },
        {
            "lon": -75.5298965,
            "lat": 6.3068678,
            "school_name": "Name unknown",
            "country_name": "Colombia",
            "connectivity": false
        },
        {
            "lon": -88.95955,
            "lat": 15.07227,
            "school_name": "JUAN LINDO",
            "country_name": "Honduras",
            "connectivity": true
        },
        {
            "lon": -88.87849,
            "lat": 15.16017,
            "school_name": "RAMON ROSA",
            "country_name": "Honduras",
            "connectivity": true
        },
        {
            "lon": -87.44161,
            "lat": 13.78102,
            "school_name": "RAYITO DE LUZ",
            "country_name": "Honduras",
            "connectivity": true
        },
        {
            "lon": 32.16247,
            "lat": -18.72204,
            "school_name": "ST JUDES PRY",
            "country_name": "Zimbabwe",
            "connectivity": true
        },
        {
            "lon": 31.2845,
            "lat": -19.23085,
            "school_name": "St. JOSEPHS MABURUTSE",
            "country_name": "Zimbabwe",
            "connectivity": true
        },
        {
            "lon": 29.73116667,
            "lat": -2.327083333,
            "school_name": "EP NYAKABUYE",
            "country_name": "Rwanda",
            "connectivity": true
        },
        {
            "lon": -84.04120303,
            "lat": 9.88850754,
            "school_name": "CIUDADELA FATIMA",
            "country_name": "Costa Rica",
            "connectivity": true
        },
        {
            "lon": 35.016038,
            "lat": 31.52388,
            "school_name": "yaser arafat sec for boy",
            "country_name": "Palestine",
            "connectivity": true
        },
        {
            "lon": 29.45714,
            "lat": -16.49093,
            "school_name": "VUTI",
            "country_name": "Zimbabwe",
            "connectivity": true
        },
        {
            "lon": 30.50528,
            "lat": -17.3585,
            "school_name": "MAQUADZI",
            "country_name": "Zimbabwe",
            "connectivity": true
        },
        {
            "lon": 31.13563,
            "lat": -20.54105,
            "school_name": "GARAI PRIMARY",
            "country_name": "Zimbabwe",
            "connectivity": true
        },
        {
            "lon": 31.64929,
            "lat": -19.83515,
            "school_name": "VHUNJERE",
            "country_name": "Zimbabwe",
            "connectivity": true
        },
        {
            "lon": 30.91937,
            "lat": -19.33977,
            "school_name": "CHIVAKE",
            "country_name": "Zimbabwe",
            "connectivity": true
        },
        {
            "lon": 31.35371,
            "lat": -20.71424,
            "school_name": "ZVAMAGAMBA  SECONDARY",
            "country_name": "Zimbabwe",
            "connectivity": true
        },
        {
            "lon": -58.5916,
            "lat": -10.3631,
            "school_name": "EMGUILHERME ANTONIO C CROZETTA",
            "country_name": "Brazil",
            "connectivity": true
        },
        {
            "lon": -61.76793242,
            "lat": 17.10771363,
            "school_name": "Parham",
            "country_name": "Antigua and Barbuda",
            "connectivity": false
        },
        {
            "lon": -77.61055774,
            "lat": 1.837381179,
            "school_name": "Name unknown",
            "country_name": "Colombia",
            "connectivity": false
        },
        {
            "lon": 16.29556,
            "lat": -17.63722,
            "school_name": "Onambutu CS",
            "country_name": "Namibia",
            "connectivity": false
        },
        {
            "lon": 122.6578055,
            "lat": 12.46902761,
            "school_name": "Cambalo NHS",
            "country_name": "Philippines",
            "connectivity": true
        },
        {
            "lon": 120.9057256,
            "lat": 14.48175546,
            "school_name": "Garita ES",
            "country_name": "Philippines",
            "connectivity": true
        },
        {
            "lon": 121.24733,
            "lat": 13.886953,
            "school_name": "Pansol ES",
            "country_name": "Philippines",
            "connectivity": true
        },
        {
            "lon": 121.485016,
            "lat": 12.631534,
            "school_name": "Libtong ES",
            "country_name": "Philippines",
            "connectivity": true
        },
        {
            "lon": 123.343253,
            "lat": 13.895197,
            "school_name": "San Roque ES",
            "country_name": "Philippines",
            "connectivity": true
        },
        {
            "lon": 123.272593,
            "lat": 13.700977,
            "school_name": "Siba-O ES",
            "country_name": "Philippines",
            "connectivity": true
        },
        {
            "lon": 125.283422,
            "lat": 11.487427,
            "school_name": "Burabod ES",
            "country_name": "Philippines",
            "connectivity": true
        },
        {
            "lon": 122.659446,
            "lat": 8.116511,
            "school_name": "Mabuhay ES",
            "country_name": "Philippines",
            "connectivity": true
        },
        {
            "lon": 125.495128,
            "lat": 9.787066,
            "school_name": "Surigao City Pilot Sch.",
            "country_name": "Philippines",
            "connectivity": true
        },
        {
            "lon": 120.8069972,
            "lat": 16.75198112,
            "school_name": "Lengaoan-Waking ES",
            "country_name": "Philippines",
            "connectivity": true
        },
        {
            "lon": 121.0133333,
            "lat": 14.43194444,
            "school_name": "Almanza Elementary School",
            "country_name": "Philippines",
            "connectivity": true
        },
        {
            "lon": 122.9978824,
            "lat": 9.580517777,
            "school_name": "Dodong Esca\u00f1o Memorial High School",
            "country_name": "Philippines",
            "connectivity": true
        },
        {
            "lon": -46.51353,
            "lat": -21.366308,
            "school_name": "C DE EDUC INF MUN DONA RISOLETA NEVES",
            "country_name": "Brazil",
            "connectivity": false
        },
        {
            "lon": -40.542183,
            "lat": -17.949068,
            "school_name": "CEMEI NOVA VIDA",
            "country_name": "Brazil",
            "connectivity": false
        },
        {
            "lon": -87.95073,
            "lat": 14.7739,
            "school_name": "OBED CASTA\u00c3\u2018EDA",
            "country_name": "Honduras",
            "connectivity": true
        },
        {
            "lon": -72.39117045,
            "lat": 5.327495328,
            "school_name": "LUCILA PIRAGAUTA",
            "country_name": "Colombia",
            "connectivity": true
        },
        {
            "lon": -72.78602011,
            "lat": 5.883371869,
            "school_name": "ESC SANTANDER",
            "country_name": "Colombia",
            "connectivity": true
        },
        {
            "lon": -72.58372982,
            "lat": 11.4039679,
            "school_name": "ESCUELA RURAL IND\u00cdGENA WAJARATU",
            "country_name": "Colombia",
            "connectivity": true
        },
        {
            "lon": -73.08527778,
            "lat": 6.43611111,
            "school_name": "INSTITUCION EDUCATIVA  EL CERRO",
            "country_name": "Colombia",
            "connectivity": true
        },
        {
            "lon": -73.09870485,
            "lat": 6.307513141,
            "school_name": "ESCUELA RURAL CAPELLANIA",
            "country_name": "Colombia",
            "connectivity": true
        },
        {
            "lon": -73.25133769,
            "lat": 8.445386546,
            "school_name": "SEDE PALMARITO",
            "country_name": "Colombia",
            "connectivity": true
        },
        {
            "lon": -73.24235523,
            "lat": 8.388969525,
            "school_name": "SEDE FATIMA",
            "country_name": "Colombia",
            "connectivity": true
        },
        {
            "lon": -73.473056,
            "lat": 4.969722,
            "school_name": "ESC RINCON ARRIBA",
            "country_name": "Colombia",
            "connectivity": true
        },
        {
            "lon": -74.00595885,
            "lat": 5.707162754,
            "school_name": "ESC LA BELLA UNION",
            "country_name": "Colombia",
            "connectivity": true
        },
        {
            "lon": -74.1872027,
            "lat": 4.6400404,
            "school_name": "COL CUIDADELA EDUCATIVA BOSA (INS EDUC DIST)",
            "country_name": "Colombia",
            "connectivity": true
        },
        {
            "lon": -74.20771,
            "lat": 6.236113,
            "school_name": "CONCENTRACION RURAL PANAMA",
            "country_name": "Colombia",
            "connectivity": true
        },
        {
            "lon": -73.91290012,
            "lat": 10.19754339,
            "school_name": "ESCUELA NUEVA EL PARAISO",
            "country_name": "Colombia",
            "connectivity": true
        },
        {
            "lon": -74.78004008,
            "lat": 6.419506375,
            "school_name": "C. E. R. HELOINA BEDOYA DE VALENCIA",
            "country_name": "Colombia",
            "connectivity": true
        },
        {
            "lon": -74.823333,
            "lat": 5.653056,
            "school_name": "ESCUELA RURAL BAJO JAGUAL",
            "country_name": "Colombia",
            "connectivity": true
        },
        {
            "lon": -75.26782615,
            "lat": 2.921151452,
            "school_name": "GUILLERMO LIEVANO",
            "country_name": "Colombia",
            "connectivity": true
        },
        {
            "lon": -75.84905103,
            "lat": 7.868348031,
            "school_name": "ESC NVA SAN JOSE PTO ANCHICA",
            "country_name": "Colombia",
            "connectivity": true
        },
        {
            "lon": -75.99481937,
            "lat": 4.796609261,
            "school_name": "PIO XII",
            "country_name": "Colombia",
            "connectivity": true
        },
        {
            "lon": -76.28619629,
            "lat": 2.939629931,
            "school_name": "I.E. TECNICA EDUARDO SANTOS - SEDE PRINCIPAL",
            "country_name": "Colombia",
            "connectivity": true
        },
        {
            "lon": -76.254722,
            "lat": 8.395833,
            "school_name": "C.E.R. LA ROSITA",
            "country_name": "Colombia",
            "connectivity": true
        },
        {
            "lon": -76.82859779,
            "lat": 1.786758954,
            "school_name": "NUESTRA SE\u00d1ORA DEL ROSARIO (sede principal)",
            "country_name": "Colombia",
            "connectivity": true
        },
        {
            "lon": -34.8926,
            "lat": -8.0346,
            "school_name": "ESCOLA MUNICIPAL ENGENHEIRO EDINALDO MIRANDA DE OLIVEIRA",
            "country_name": "Brazil",
            "connectivity": true
        },
        {
            "lon": -39.82439,
            "lat": -3.3704247,
            "school_name": "DE BUENOS AIRES E E B",
            "country_name": "Brazil",
            "connectivity": true
        },
        {
            "lon": -37.638958,
            "lat": -8.6597185,
            "school_name": "ESCOLA MUNICIPAL JOAQUIM ANDRE CAVALCANTI",
            "country_name": "Brazil",
            "connectivity": true
        },
        {
            "lon": -68.7486,
            "lat": -11.0242,
            "school_name": "ESC JOSE HASSEM HALL FILHO",
            "country_name": "Brazil",
            "connectivity": true
        },
        {
            "lon": -47.5111,
            "lat": -0.9545,
            "school_name": "E M E F JOSE JOAO VICENTE CARRERA",
            "country_name": "Brazil",
            "connectivity": false
        },
        {
            "lon": -46.3683,
            "lat": -1.2793,
            "school_name": "E M E F EM MAMAU",
            "country_name": "Brazil",
            "connectivity": false
        },
        {
            "lon": -51.267,
            "lat": -29.568,
            "school_name": "EMEF LEOPOLDO GUILHERME EWERLING",
            "country_name": "Brazil",
            "connectivity": true
        },
        {
            "lon": -45.7294,
            "lat": -2.1532,
            "school_name": "ESCOLA DE ENSINO FUNDAMENTAL SANTO ANTONIO",
            "country_name": "Brazil",
            "connectivity": true
        },
        {
            "lon": -45.0851,
            "lat": -3.8107,
            "school_name": "UE GONCALVES DIAS",
            "country_name": "Brazil",
            "connectivity": false
        },
        {
            "lon": -43.1114,
            "lat": -3.522,
            "school_name": "GE SAO JOSE",
            "country_name": "Brazil",
            "connectivity": false
        },
        {
            "lon": -45.2418,
            "lat": -2.9087,
            "school_name": "EM O RENASCER",
            "country_name": "Brazil",
            "connectivity": false
        },
        {
            "lon": -46.5942,
            "lat": -21.7904,
            "school_name": "EM JOAO PINHEIRO",
            "country_name": "Brazil",
            "connectivity": true
        },
        {
            "lon": -45.0838,
            "lat": -3.6576,
            "school_name": "EM MATA DO JOSE VICTOR",
            "country_name": "Brazil",
            "connectivity": false
        },
        {
            "lon": -43.5236,
            "lat": -3.3259,
            "school_name": "UNIDADE ESCOLAR DR CREOMAR MESQUITA",
            "country_name": "Brazil",
            "connectivity": true
        },
        {
            "lon": -42.5539,
            "lat": -3.7158,
            "school_name": "U E JOSE AMAVEL",
            "country_name": "Brazil",
            "connectivity": true
        },
        {
            "lon": -44.8806,
            "lat": -8.672,
            "school_name": "GRUPO ESCOLAR JOAO PINHEIRO",
            "country_name": "Brazil",
            "connectivity": false
        },
        {
            "lon": -42.6885,
            "lat": -7.787,
            "school_name": "UNID ESC SANTA RITA",
            "country_name": "Brazil",
            "connectivity": false
        },
        {
            "lon": -40.4105,
            "lat": -3.9068,
            "school_name": "EEIEF RAIMUNDO DICO MONTEIRO",
            "country_name": "Brazil",
            "connectivity": true
        },
        {
            "lon": -38.4278,
            "lat": -4.0982,
            "school_name": "EUFRAZINA MARTINS DOS SANTOS CEI",
            "country_name": "Brazil",
            "connectivity": true
        },
        {
            "lon": -39.3132,
            "lat": -7.2179,
            "school_name": "EDVARD TEIXEIRA FERRER DR EEF",
            "country_name": "Brazil",
            "connectivity": true
        },
        {
            "lon": -40.8288,
            "lat": -4.3791,
            "school_name": "EEI LAUANDA VITORIA NASCIMENTO BARBOSA DA SILVA",
            "country_name": "Brazil",
            "connectivity": false
        },
        {
            "lon": -41.2397,
            "lat": -3.0347,
            "school_name": "KAROLYNE DA CONCEICAO SILVA CRECHE MUNICIPAL",
            "country_name": "Brazil",
            "connectivity": true
        },
        {
            "lon": -35.6701,
            "lat": -6.1423,
            "school_name": "EMEF WALFREDO GURGEL",
            "country_name": "Brazil",
            "connectivity": true
        },
        {
            "lon": -37.0434,
            "lat": -7.1149,
            "school_name": "EMEF CARLOS MONTEIRO DE OLIVEIRA",
            "country_name": "Brazil",
            "connectivity": true
        },
        {
            "lon": -43.3555,
            "lat": -3.7348,
            "school_name": "UI ALDALINA SILVA MACHADO",
            "country_name": "Brazil",
            "connectivity": true
        },
        {
            "lon": -38.7385,
            "lat": -8.7974,
            "school_name": "ESCOLA MUNICIPAL GERSON PIRES DE ARAUJO",
            "country_name": "Brazil",
            "connectivity": false
        },
        {
            "lon": -35.7086,
            "lat": -8.326,
            "school_name": "ESCOLA MUNICIPAL MARCOS DE BARROS FREIRE",
            "country_name": "Brazil",
            "connectivity": true
        },
        {
            "lon": -36.4499,
            "lat": -8.9765,
            "school_name": "ESCOLA FRANCINO ALBINO DA SILVA",
            "country_name": "Brazil",
            "connectivity": true
        },
        {
            "lon": -36.1429,
            "lat": -8.4802,
            "school_name": "GRUPO ESCOLAR JOSE CONSTATINO DE MORAIS",
            "country_name": "Brazil",
            "connectivity": true
        },
        {
            "lon": -35.4424,
            "lat": -7.5523,
            "school_name": "CRECHE VOVO SANTINA",
            "country_name": "Brazil",
            "connectivity": true
        },
        {
            "lon": -36.7596,
            "lat": -9.8031,
            "school_name": "ESCOLA DE ENSINO FUNDAMENTAL HERMETO PASCOAL",
            "country_name": "Brazil",
            "connectivity": false
        },
        {
            "lon": -35.874,
            "lat": -9.5882,
            "school_name": "CRECHE BORBOLETA AZUL",
            "country_name": "Brazil",
            "connectivity": true
        },
        {
            "lon": -36.3756,
            "lat": -9.9914,
            "school_name": "ESCOLA MUNICIPAL DE EDUCACAO BASICA ISIDIO ALVES",
            "country_name": "Brazil",
            "connectivity": false
        },
        {
            "lon": -37.494,
            "lat": -10.7453,
            "school_name": "ESCOLA MUNICIPAL DE EDUCACAO INFANTIL MARIA MENEZES DE JESUS - CRECHE TIA MARIA",
            "country_name": "Brazil",
            "connectivity": true
        },
        {
            "lon": -38.45,
            "lat": -11.1521,
            "school_name": "ESC MUL STO ANTONIO",
            "country_name": "Brazil",
            "connectivity": false
        },
        {
            "lon": -42.7749,
            "lat": -14.2378,
            "school_name": "ESCOLA MUNICIPAL JOAQUIM DIAS GUIMARAES",
            "country_name": "Brazil",
            "connectivity": true
        },
        {
            "lon": -39.5441,
            "lat": -14.5393,
            "school_name": "GRUPO ESCOLAR TEODORA MARIA DOS SANTOS",
            "country_name": "Brazil",
            "connectivity": true
        },
        {
            "lon": -38.3761,
            "lat": -12.833,
            "school_name": "ESCOLA MUNICIPAL DE NOVA ESPERANCA PROFESSOR ARX TOURINHO",
            "country_name": "Brazil",
            "connectivity": true
        },
        {
            "lon": -39.9053,
            "lat": -11.8128,
            "school_name": "ESCOLA MUNICIPAL ANGELINO CEDRAZ DE OLIVEIRA",
            "country_name": "Brazil",
            "connectivity": true
        },
        {
            "lon": -39.0918,
            "lat": -16.4077,
            "school_name": "ESCOLA MUNICIPAL DE EDUCACAO INFANTIL TERRA MATTER",
            "country_name": "Brazil",
            "connectivity": false
        },
        {
            "lon": -43.0047,
            "lat": -18.2087,
            "school_name": "EE EVA DAS DORES SANTOS",
            "country_name": "Brazil",
            "connectivity": true
        },
        {
            "lon": -42.2024,
            "lat": -20.7758,
            "school_name": "ESCOLA MUNICIPAL SAO JOSE DO BARROSO",
            "country_name": "Brazil",
            "connectivity": false
        },
        {
            "lon": -47.4146,
            "lat": -20.4737,
            "school_name": "OLIVIA CORREA COSTA EMEB",
            "country_name": "Brazil",
            "connectivity": true
        },
        {
            "lon": -42.3137,
            "lat": -21.2525,
            "school_name": "CRECHE MUNICIPAL PEQUENO POLEGAR",
            "country_name": "Brazil",
            "connectivity": true
        },
        {
            "lon": -37.1295,
            "lat": -9.6762,
            "school_name": "ESCOLA MUNICIPAL DE EDUCACAO BASICA ARLETE CORREIA MADEIRO",
            "country_name": "Brazil",
            "connectivity": true
        },
        {
            "lon": -43.3779,
            "lat": -21.7729,
            "school_name": "EM CARLOS ALBERTO MARQUES",
            "country_name": "Brazil",
            "connectivity": true
        },
        {
            "lon": -42.8803,
            "lat": -20.7655,
            "school_name": "CENTRO MUNICIPAL DE EDUCACAO DR",
            "country_name": "Brazil",
            "connectivity": true
        },
        {
            "lon": -40.2986,
            "lat": -20.2604,
            "school_name": "EMEF MARECHAL MASCARENHAS DE MORAES",
            "country_name": "Brazil",
            "connectivity": true
        },
        {
            "lon": -40.7599,
            "lat": -20.7654,
            "school_name": "EMEIEF ITAPEROROMA BAIXA",
            "country_name": "Brazil",
            "connectivity": false
        },
        {
            "lon": -41.3759,
            "lat": -21.1636,
            "school_name": "EEUEF PASTINHO",
            "country_name": "Brazil",
            "connectivity": false
        },
        {
            "lon": -40.3046,
            "lat": -20.2799,
            "school_name": "CEI CRIARTE-UFES",
            "country_name": "Brazil",
            "connectivity": true
        },
        {
            "lon": -42.1867,
            "lat": -21.9434,
            "school_name": "E M MANOEL VOGAS",
            "country_name": "Brazil",
            "connectivity": false
        },
        {
            "lon": -36.0618,
            "lat": -8.2226,
            "school_name": "ESCOLA MUNICIPAL CONEGO JULIO CABRAL",
            "country_name": "Brazil",
            "connectivity": true
        },
        {
            "lon": -43.4917,
            "lat": -22.9816,
            "school_name": "0724019 ESCOLA MUNICIPAL PROFESSOR TEOFILO MOREIRA DA COSTA",
            "country_name": "Brazil",
            "connectivity": true
        },
        {
            "lon": -60.0202,
            "lat": -3.1213,
            "school_name": "ESCOLA ESTADUAL AUGUSTO CARNEIRO DOS SANTOS",
            "country_name": "Brazil",
            "connectivity": true
        },
        {
            "lon": -45.8962,
            "lat": -23.2427,
            "school_name": "MALBA THEREZA FERRAZ CAMPANER PROFESSORA",
            "country_name": "Brazil",
            "connectivity": true
        },
        {
            "lon": -48.6459,
            "lat": -16.4864,
            "school_name": "ESCOLA MUNICIPAL BENEDITO LOBO",
            "country_name": "Brazil",
            "connectivity": true
        },
        {
            "lon": -44.7775,
            "lat": -22.5413,
            "school_name": "ARCO IRIS EM",
            "country_name": "Brazil",
            "connectivity": false
        },
        {
            "lon": -46.4995,
            "lat": -23.5909,
            "school_name": "EMEI JOSE VICENTE DA CUNHA PROF",
            "country_name": "Brazil",
            "connectivity": true
        },
        {
            "lon": -45.8922,
            "lat": -23.1671,
            "school_name": "IDELENA MENEZES TREFILIO DE CARVALHO PROFA EMEI",
            "country_name": "Brazil",
            "connectivity": true
        },
        {
            "lon": -46.825,
            "lat": -23.3372,
            "school_name": "EMELLYNE DE AZEVEDO AGUIAR EMEB",
            "country_name": "Brazil",
            "connectivity": true
        },
        {
            "lon": -49.6138,
            "lat": -22.9124,
            "school_name": "SEBASTIANA M DE OLIVEIRA CENTRO EDUCACAO INFANTIL MUNICIPAL",
            "country_name": "Brazil",
            "connectivity": true
        },
        {
            "lon": -50.1386,
            "lat": -21.0789,
            "school_name": "NOSSA SENHORA DE FATIMA CASA DE APOIO A CRIANCA",
            "country_name": "Brazil",
            "connectivity": true
        },
        {
            "lon": -42.0059,
            "lat": -16.3445,
            "school_name": "EE RUI BARBOSA",
            "country_name": "Brazil",
            "connectivity": true
        },
        {
            "lon": -51.7564,
            "lat": -21.3517,
            "school_name": "CASTELLO BRANCO PRESIDENTE EM",
            "country_name": "Brazil",
            "connectivity": true
        },
        {
            "lon": -47.2464,
            "lat": -21.838,
            "school_name": "MARIA APARECIDA UNGARETTI ESCOLA MUNICIPAL",
            "country_name": "Brazil",
            "connectivity": false
        },
        {
            "lon": -47.6556,
            "lat": -22.7677,
            "school_name": "TOMAZ CAETANO CANNAVAM RIPOLI PROF EM",
            "country_name": "Brazil",
            "connectivity": true
        },
        {
            "lon": -46.8916,
            "lat": -23.53,
            "school_name": "MARIA MEDUNECKAS PROFESSORA COMPLEXO EDUCACIONAL",
            "country_name": "Brazil",
            "connectivity": true
        },
        {
            "lon": -48.5498,
            "lat": -24.016,
            "school_name": "ANGELINO SUDARIO DE SOUZA EM",
            "country_name": "Brazil",
            "connectivity": true
        },
        {
            "lon": -46.401,
            "lat": -23.4418,
            "school_name": "AGOSTINHO CANO",
            "country_name": "Brazil",
            "connectivity": true
        },
        {
            "lon": -47.9406,
            "lat": -16.5159,
            "school_name": "COLEGIO ESTADUAL NAIR TIECHER",
            "country_name": "Brazil",
            "connectivity": true
        },
        {
            "lon": -43.471,
            "lat": -22.8781,
            "school_name": "0817027 ESCOLA MUNICIPAL HENRIQUE DE MAGALHAES",
            "country_name": "Brazil",
            "connectivity": true
        },
        {
            "lon": -50.1194,
            "lat": -27.5062,
            "school_name": "CEI CATARINA FUHRMANN",
            "country_name": "Brazil",
            "connectivity": true
        },
        {
            "lon": -52.1514,
            "lat": -27.3571,
            "school_name": "ESC EST DE ENS FUND RIO BRANCO",
            "country_name": "Brazil",
            "connectivity": false
        },
        {
            "lon": -43.3048,
            "lat": -22.5847,
            "school_name": "CRECHE E PRE ESCOLA MUNICIPAL PROFESSORA MARILIA DA SILVA SIQUEIRA",
            "country_name": "Brazil",
            "connectivity": true
        },
        {
            "lon": -46.2496,
            "lat": -22.6607,
            "school_name": "EM JOSE DE MOURA BUENO",
            "country_name": "Brazil",
            "connectivity": true
        },
        {
            "lon": -51.7082,
            "lat": -17.882,
            "school_name": "ESCOLA MUNICIPAL FLAVIO VILELA",
            "country_name": "Brazil",
            "connectivity": true
        },
        {
            "lon": -51.4461,
            "lat": -25.3846,
            "school_name": "MAHATMA GANDHI C E EF M",
            "country_name": "Brazil",
            "connectivity": true
        },
        {
            "lon": -48.9685,
            "lat": -16.2832,
            "school_name": "CENTRO MUNICIPAL DE EDUCACAO INFANTIL CIBELE TEODORO TELLES",
            "country_name": "Brazil",
            "connectivity": true
        },
        {
            "lon": -50.9304,
            "lat": -20.6929,
            "school_name": "CICERO CASTILHO CUNHA",
            "country_name": "Brazil",
            "connectivity": true
        },
        {
            "lon": -43.303,
            "lat": -15.8313,
            "school_name": "EE DE CANAFISTULA",
            "country_name": "Brazil",
            "connectivity": true
        },
        {
            "lon": -34.9428,
            "lat": -8.0558,
            "school_name": "ESCOLA PROFESSOR LEAL DE BARROS",
            "country_name": "Brazil",
            "connectivity": true
        },
        {
            "lon": -51.4898,
            "lat": -23.5573,
            "school_name": "JOSE I BRIANEZI E M EI EF",
            "country_name": "Brazil",
            "connectivity": true
        },
        {
            "lon": -42.8412,
            "lat": -5.1211,
            "school_name": "EMEI JULIA ALMEIDA",
            "country_name": "Brazil",
            "connectivity": true
        },
        {
            "lon": -52.0394,
            "lat": -27.2395,
            "school_name": "EEB SAO JOAO BATISTA DE LA SALLE",
            "country_name": "Brazil",
            "connectivity": true
        },
        {
            "lon": -37.8899,
            "lat": -6.2155,
            "school_name": "ESCOLA M DE ENSINO FUNDAMENTAL PERPETUA AMORIM DE CARVALHO",
            "country_name": "Brazil",
            "connectivity": true
        },
        {
            "lon": -38.3257,
            "lat": -12.6115,
            "school_name": "ESCOLA MUNICIPAL JOSE FERREIRA VELOSO",
            "country_name": "Brazil",
            "connectivity": true
        },
        {
            "lon": -43.1269,
            "lat": -15.7293,
            "school_name": "EE JOAQUIM MARCELINO DA CONCEICAO",
            "country_name": "Brazil",
            "connectivity": true
        },
        {
            "lon": -34.8988,
            "lat": -7.7737,
            "school_name": "ESCOLA DE REFERENCIA EM ENSINO MEDIO PROFESSORA EURIDICE CADAVAL",
            "country_name": "Brazil",
            "connectivity": true
        }
    ],
    "num_countries": 13,
    "countries": [
        "Antigua and Barbuda",
        "Brazil",
        "Colombia",
        "Costa Rica",
        "Honduras",
        "Kazakhstan",
        "Kyrgyzstan",
        "Namibia",
        "Palestine",
        "Philippines",
        "Rwanda",
        "Sierra Leone",
        "Zimbabwe"
    ],
    "schools_no_data": [
        {
            "lon": -9.858715,
            "lat": 5.97397,
            "school_name": "Gleozohn Public",
            "country_name": "Liberia",
            "connectivity": false
        },
        {
            "lon": -7.992143,
            "lat": 5.642703,
            "school_name": "CVI Elementary",
            "country_name": "Liberia",
            "connectivity": false
        },
        {
            "lon": 7.664402,
            "lat": 6.633355,
            "school_name": "Name unknown",
            "country_name": "Nigeria",
            "connectivity": false
        },
        {
            "lon": 18.25624353,
            "lat": 0.044048096,
            "school_name": "CS LE BON BERGER",
            "country_name": "Democratic Republic of the Congo",
            "connectivity": false
        },
        {
            "lon": 18.04736246,
            "lat": 1.449321877,
            "school_name": "INST BOKAKO",
            "country_name": "Democratic Republic of the Congo",
            "connectivity": false
        },
        {
            "lon": 13.06479048,
            "lat": -5.818238513,
            "school_name": "INST MAVUANGI",
            "country_name": "Democratic Republic of the Congo",
            "connectivity": false
        },
        {
            "lon": 12.36658195,
            "lat": -5.92551127,
            "school_name": "INST. LES PETITS ANGES DE DIEU",
            "country_name": "Democratic Republic of the Congo",
            "connectivity": false
        },
        {
            "lon": 33.46013403,
            "lat": 16.68654352,
            "school_name": "Name unknown",
            "country_name": "Sudan",
            "connectivity": false
        },
        {
            "lon": 33.28423148,
            "lat": 16.60874863,
            "school_name": "Name unknown",
            "country_name": "Sudan",
            "connectivity": false
        },
        {
            "lon": 32.9154417333333,
            "lat": 14.8077472,
            "school_name": "Name unknown",
            "country_name": "Sudan",
            "connectivity": false
        },
        {
            "lon": 34.28204372,
            "lat": 10.55518368,
            "school_name": "Name unknown",
            "country_name": "Sudan",
            "connectivity": false
        },
        {
            "lon": -1.5724397,
            "lat": 6.7099668,
            "school_name": "Name unknown",
            "country_name": "Ghana",
            "connectivity": false
        },
        {
            "lon": -1.660033,
            "lat": 5.1350076,
            "school_name": "Name unknown",
            "country_name": "Ghana",
            "connectivity": false
        },
        {
            "lon": -1.635375,
            "lat": 6.8835885,
            "school_name": "Name unknown",
            "country_name": "Ghana",
            "connectivity": false
        },
        {
            "lon": 36.90629,
            "lat": -3.36508,
            "school_name": "SUNSHIELD",
            "country_name": "United Republic of Tanzania",
            "connectivity": false
        },
        {
            "lon": 33.88197,
            "lat": -9.35103,
            "school_name": "KILUGU",
            "country_name": "United Republic of Tanzania",
            "connectivity": false
        },
        {
            "lon": 32.84257,
            "lat": -3.17942,
            "school_name": "SISU",
            "country_name": "United Republic of Tanzania",
            "connectivity": false
        },
        {
            "lon": 35.64569,
            "lat": -3.42743,
            "school_name": "MAGESHO",
            "country_name": "United Republic of Tanzania",
            "connectivity": false
        },
        {
            "lon": 33.44286,
            "lat": -9.49319,
            "school_name": "KALEMBO",
            "country_name": "United Republic of Tanzania",
            "connectivity": false
        },
        {
            "lon": 37.70672,
            "lat": -6.80953,
            "school_name": "BERNARD BENDEL",
            "country_name": "United Republic of Tanzania",
            "connectivity": false
        },
        {
            "lon": 35.65631,
            "lat": -10.63074,
            "school_name": "MAKINGIDA",
            "country_name": "United Republic of Tanzania",
            "connectivity": false
        },
        {
            "lon": -2.0337394,
            "lat": 8.1335218,
            "school_name": "Name unknown",
            "country_name": "Ghana",
            "connectivity": false
        },
        {
            "lon": 1.557495,
            "lat": 6.49084,
            "school_name": "JEP MOME HAGOU",
            "country_name": "Togo",
            "connectivity": false
        },
        {
            "lon": 1.255565,
            "lat": 6.145353333,
            "school_name": "EPP GBENYEDZI G/A",
            "country_name": "Togo",
            "connectivity": false
        },
        {
            "lon": 1.022511,
            "lat": 7.10839,
            "school_name": "EPP DETOE",
            "country_name": "Togo",
            "connectivity": false
        },
        {
            "lon": 1.06892,
            "lat": 7.522903333,
            "school_name": "EPP CENTRALE TEMEDJA G/B",
            "country_name": "Togo",
            "connectivity": false
        },
        {
            "lon": 0.984912,
            "lat": 7.225968,
            "school_name": "EPP EBOUAKA KOPE",
            "country_name": "Togo",
            "connectivity": false
        },
        {
            "lon": 0.700339,
            "lat": 7.704604,
            "school_name": "EPP DJON DANYI",
            "country_name": "Togo",
            "connectivity": false
        },
        {
            "lon": 0.656973,
            "lat": 7.234876,
            "school_name": "EPP AHLON AKAYO",
            "country_name": "Togo",
            "connectivity": false
        },
        {
            "lon": 0.650678,
            "lat": 7.278939,
            "school_name": "EPC AHLON SASSANOU",
            "country_name": "Togo",
            "connectivity": false
        },
        {
            "lon": 1.148583,
            "lat": 9.637302,
            "school_name": "EPP TCHITCHAO SEREDA",
            "country_name": "Togo",
            "connectivity": false
        },
        {
            "lon": 38.49122,
            "lat": -4.77158,
            "school_name": "MGWASHI",
            "country_name": "United Republic of Tanzania",
            "connectivity": false
        },
        {
            "lon": 34.10125,
            "lat": -3.02769,
            "school_name": "GAMBASINGU 'A'",
            "country_name": "United Republic of Tanzania",
            "connectivity": false
        },
        {
            "lon": 34.9879,
            "lat": -6.01148,
            "school_name": "KINANGALI",
            "country_name": "United Republic of Tanzania",
            "connectivity": false
        },
        {
            "lon": 34.57777828,
            "lat": -15.62569956,
            "school_name": "Mphete",
            "country_name": "Malawi",
            "connectivity": false
        },
        {
            "lon": 34.31739013,
            "lat": -13.0660785,
            "school_name": "Chamalala F.P School",
            "country_name": "Malawi",
            "connectivity": false
        },
        {
            "lon": 34.10801617,
            "lat": -13.24833141,
            "school_name": "Kasiya Local Education Authority School",
            "country_name": "Malawi",
            "connectivity": false
        },
        {
            "lon": 7.166117745,
            "lat": 5.719770258,
            "school_name": "Name unknown",
            "country_name": "Nigeria",
            "connectivity": false
        },
        {
            "lon": 19.98406702,
            "lat": 0.698567748,
            "school_name": "INST BOKEKA ELIKYA",
            "country_name": "Democratic Republic of the Congo",
            "connectivity": false
        },
        {
            "lon": 24.4418414,
            "lat": -4.726978547,
            "school_name": "INST LUKADI",
            "country_name": "Democratic Republic of the Congo",
            "connectivity": false
        },
        {
            "lon": 26.76468683,
            "lat": -4.006965987,
            "school_name": "EP TUHARA",
            "country_name": "Democratic Republic of the Congo",
            "connectivity": false
        },
        {
            "lon": 13.71650312,
            "lat": -5.424085202,
            "school_name": "INST SALONGO",
            "country_name": "Democratic Republic of the Congo",
            "connectivity": false
        },
        {
            "lon": 19.70397949,
            "lat": 44.78573393,
            "school_name": "\u041c\u0435\u0434\u0438\u0446\u0438\u043d\u0441\u043a\u0430 \u0448\u043a\u043e\u043b\u0430 \u0414\u0440. \u0410\u043d\u0434\u0440\u0430 \u0408\u043e\u0432\u0430\u043d\u043e\u0432\u0438\u045b",
            "country_name": "Serbia",
            "connectivity": false
        },
        {
            "lon": -67.281017,
            "lat": -16.28466,
            "school_name": "COLOPAMPA GRANDE",
            "country_name": "Bolivia (Plurinational State of)",
            "connectivity": false
        },
        {
            "lon": -99.196754,
            "lat": 19.535459,
            "school_name": "BACHILLERATO CULMEN",
            "country_name": "Mexico",
            "connectivity": false
        },
        {
            "lon": -98.95,
            "lat": 18.819953,
            "school_name": "UNIVERSIDAD CNCI EN CUAUTLA",
            "country_name": "Mexico",
            "connectivity": false
        },
        {
            "lon": -94.55722,
            "lat": 17.80528,
            "school_name": "TELEBACHILLERATO EMILIO CARRANZA",
            "country_name": "Mexico",
            "connectivity": false
        },
        {
            "lon": -12.15715,
            "lat": 16.19391,
            "school_name": "ecelzeghe",
            "country_name": "Mauritania",
            "connectivity": false
        },
        {
            "lon": 33.82945,
            "lat": 1.57413,
            "school_name": "AKEIT PRIMARY SCHOOL",
            "country_name": "Uganda",
            "connectivity": false
        },
        {
            "lon": 31.55675,
            "lat": -0.49797,
            "school_name": "ROCK OF JOY NURSERY AND PRIMARY SCHOOL",
            "country_name": "Uganda",
            "connectivity": false
        },
        {
            "lon": 32.55638,
            "lat": 0.35565,
            "school_name": "Aunt Milly P.S - Kazo",
            "country_name": "Uganda",
            "connectivity": false
        },
        {
            "lon": 33.30244,
            "lat": 2.00749,
            "school_name": "Ogwolo P.S",
            "country_name": "Uganda",
            "connectivity": false
        },
        {
            "lon": 31.39303,
            "lat": 0.57846,
            "school_name": "Bright Future P.S Kaweeri",
            "country_name": "Uganda",
            "connectivity": false
        },
        {
            "lon": 30.01369,
            "lat": -0.52548,
            "school_name": "Rwemiyaga P.S.",
            "country_name": "Uganda",
            "connectivity": false
        },
        {
            "lon": 30.32018,
            "lat": -0.55294,
            "school_name": "Busesire P.S.",
            "country_name": "Uganda",
            "connectivity": false
        },
        {
            "lon": 28.48624,
            "lat": -25.15085,
            "school_name": "Mapala Primary School",
            "country_name": "South Africa",
            "connectivity": false
        },
        {
            "lon": 27.1948,
            "lat": -25.14264,
            "school_name": "Madima Primary School",
            "country_name": "South Africa",
            "connectivity": false
        },
        {
            "lon": 31.2874,
            "lat": -24.85282,
            "school_name": "Hlanganani Primary School",
            "country_name": "South Africa",
            "connectivity": false
        },
        {
            "lon": 21.214,
            "lat": -28.46294,
            "school_name": "Vooruitsig Intermediate School",
            "country_name": "South Africa",
            "connectivity": false
        },
        {
            "lon": 22.42598,
            "lat": -33.57795,
            "school_name": "Dysselsdorp High School",
            "country_name": "South Africa",
            "connectivity": false
        },
        {
            "lon": 30.34876,
            "lat": -29.59979,
            "school_name": "The Wykeham Collegiate",
            "country_name": "South Africa",
            "connectivity": false
        },
        {
            "lon": 30.75777,
            "lat": -22.82372,
            "school_name": "Manzemba Primary",
            "country_name": "South Africa",
            "connectivity": false
        },
        {
            "lon": 30.73955,
            "lat": -29.73825,
            "school_name": "Empilweni Hospital Primary School",
            "country_name": "South Africa",
            "connectivity": false
        },
        {
            "lon": 31.08144,
            "lat": -23.8626,
            "school_name": "Nwasorini Primary",
            "country_name": "South Africa",
            "connectivity": false
        },
        {
            "lon": 30.32602,
            "lat": -27.54205,
            "school_name": "Bembaskop Combined Secondary School",
            "country_name": "South Africa",
            "connectivity": false
        },
        {
            "lon": 30.55642,
            "lat": -22.8288,
            "school_name": "Mbulu Junior Primary",
            "country_name": "South Africa",
            "connectivity": false
        },
        {
            "lon": 31.27573,
            "lat": -29.34032,
            "school_name": "Bruce's Driving School",
            "country_name": "South Africa",
            "connectivity": false
        },
        {
            "lon": 30.48429,
            "lat": -23.33678,
            "school_name": "Mbhureni Primary",
            "country_name": "South Africa",
            "connectivity": false
        },
        {
            "lon": 29.9985,
            "lat": -29.20995,
            "school_name": "MP Driving School",
            "country_name": "South Africa",
            "connectivity": false
        },
        {
            "lon": 24.30894,
            "lat": -33.95731,
            "school_name": "Qhayiyalethu Intermediate School",
            "country_name": "South Africa",
            "connectivity": false
        },
        {
            "lon": 32.04443,
            "lat": -28.03117,
            "school_name": "Ekuphindiseni Primary School",
            "country_name": "South Africa",
            "connectivity": false
        },
        {
            "lon": 29.87102,
            "lat": -30.46011,
            "school_name": "Ntlabeni Junior Secondary School",
            "country_name": "South Africa",
            "connectivity": false
        },
        {
            "lon": 27.74828,
            "lat": -26.18819,
            "school_name": "Patrick Mashego Primary",
            "country_name": "South Africa",
            "connectivity": false
        },
        {
            "lon": 27.89742,
            "lat": -26.15456,
            "school_name": "Smiley Kids Nursery School - Discovery",
            "country_name": "South Africa",
            "connectivity": false
        },
        {
            "lon": 28.04167,
            "lat": -26.20043,
            "school_name": "Vector College",
            "country_name": "South Africa",
            "connectivity": false
        },
        {
            "lon": 28.07225,
            "lat": -26.17936,
            "school_name": "Observatory Girls' Primary School",
            "country_name": "South Africa",
            "connectivity": false
        },
        {
            "lon": 28.16224,
            "lat": -26.42167,
            "school_name": "Pheasant Folly Primary Farm School",
            "country_name": "South Africa",
            "connectivity": false
        },
        {
            "lon": 28.19132,
            "lat": -25.74786,
            "school_name": "Intec College",
            "country_name": "South Africa",
            "connectivity": false
        },
        {
            "lon": 27.91524,
            "lat": -33.00863,
            "school_name": "School For Legal Practice East London",
            "country_name": "South Africa",
            "connectivity": false
        },
        {
            "lon": 28.36282,
            "lat": -26.49585,
            "school_name": "Ho?\u0192?\u00abr Volkskool Heidelberg",
            "country_name": "South Africa",
            "connectivity": false
        },
        {
            "lon": 28.06971,
            "lat": -32.46469,
            "school_name": "Amabele Secondary School",
            "country_name": "South Africa",
            "connectivity": false
        },
        {
            "lon": 28.18206,
            "lat": -32.4523,
            "school_name": "Hlangani Junior Secondary School",
            "country_name": "South Africa",
            "connectivity": false
        },
        {
            "lon": 26.90263,
            "lat": -29.42849,
            "school_name": "Gamabetwa Primary School",
            "country_name": "South Africa",
            "connectivity": false
        },
        {
            "lon": 27.11162,
            "lat": -32.72518,
            "school_name": "Hlaba Hlaba Primary School",
            "country_name": "South Africa",
            "connectivity": false
        },
        {
            "lon": 27.77637,
            "lat": -32.87448,
            "school_name": "Ntsokotha Senior Secondary School",
            "country_name": "South Africa",
            "connectivity": false
        },
        {
            "lon": 24.81212,
            "lat": -33.76055,
            "school_name": "Gamtoosvalley Primary School",
            "country_name": "South Africa",
            "connectivity": false
        },
        {
            "lon": 28.41545,
            "lat": -31.3187,
            "school_name": "Enkalweni PJ",
            "country_name": "South Africa",
            "connectivity": false
        },
        {
            "lon": 29.81769,
            "lat": -31.11042,
            "school_name": "Emabhekuteni Senior Primary School",
            "country_name": "South Africa",
            "connectivity": false
        },
        {
            "lon": 28.5995,
            "lat": -31.82701,
            "school_name": "Vukani Senior Primary School",
            "country_name": "South Africa",
            "connectivity": false
        },
        {
            "lon": 29.40519,
            "lat": -31.3077,
            "school_name": "Mangena Primary School",
            "country_name": "South Africa",
            "connectivity": false
        },
        {
            "lon": 29.01346,
            "lat": -32.01322,
            "school_name": "Mpako Junior Secondary School",
            "country_name": "South Africa",
            "connectivity": false
        },
        {
            "lon": -61.0923704,
            "lat": -38.6738112,
            "school_name": "JARDIN DE INFANTES N\u00ba902 CONSTANCIO C. VIGIL",
            "country_name": "Argentina",
            "connectivity": false
        },
        {
            "lon": -60.73141629,
            "lat": -34.2007258,
            "school_name": "JARDIN DE INFANTES N\u00ba904 ALFONSINA STORNI",
            "country_name": "Argentina",
            "connectivity": false
        },
        {
            "lon": -59.0456592,
            "lat": -36.2122997,
            "school_name": "ESCUELA PRIMARIA N\u00ba15 BALDOMERO FERNANDEZ MORENO",
            "country_name": "Argentina",
            "connectivity": false
        },
        {
            "lon": -57.77237725,
            "lat": -37.27583746,
            "school_name": "ESCUELA SECUNDARIA N\u00ba3",
            "country_name": "Argentina",
            "connectivity": false
        },
        {
            "lon": -58.48881449,
            "lat": -34.52988567,
            "school_name": "INSTITUTO SANTA TERESITA DEL NI\u00d1O JESUS",
            "country_name": "Argentina",
            "connectivity": false
        },
        {
            "lon": -58.76866893,
            "lat": -34.60349141,
            "school_name": "JARDIN DE INFANTES N\u00ba912 JOSE MALANCA",
            "country_name": "Argentina",
            "connectivity": false
        },
        {
            "lon": -58.689625,
            "lat": -34.64632663,
            "school_name": "INSTITUTO EDUCATIVO DEL OESTE",
            "country_name": "Argentina",
            "connectivity": false
        },
        {
            "lon": -58.26615358,
            "lat": -34.73920621,
            "school_name": "JARDIN DE INFANTES N\u00ba955PINTA TU ALDEA Y PINTARAS TU MUNDO",
            "country_name": "Argentina",
            "connectivity": false
        },
        {
            "lon": -57.939878,
            "lat": -34.905783,
            "school_name": "ESCUELA GRADUADA JOAQUIN V. GONZALEZ",
            "country_name": "Argentina",
            "connectivity": false
        },
        {
            "lon": -65.8764573,
            "lat": -27.91022522,
            "school_name": "ESCUELA N\u00b0 371",
            "country_name": "Argentina",
            "connectivity": false
        },
        {
            "lon": -65.97922773,
            "lat": -28.72669484,
            "school_name": "ESCUELA SECUNDARIA N\u00b045 PTE.SARMIENTO",
            "country_name": "Argentina",
            "connectivity": false
        },
        {
            "lon": -63.74184266,
            "lat": -31.20111293,
            "school_name": "JOSE REGINALDO JUNCOS",
            "country_name": "Argentina",
            "connectivity": false
        },
        {
            "lon": -58.54234675,
            "lat": -27.38184018,
            "school_name": "J.I.N. N\u00ba 8 - ESCUELA N\u00ba 858",
            "country_name": "Argentina",
            "connectivity": false
        },
        {
            "lon": -58.85048337,
            "lat": -32.51857454,
            "school_name": "BARON MAURICIO HIRSCH 97",
            "country_name": "Argentina",
            "connectivity": false
        },
        {
            "lon": -60.51804795,
            "lat": -31.74875314,
            "school_name": "PRIV. SAN FRANCISCO DE ASIS ESPECIAL 9",
            "country_name": "Argentina",
            "connectivity": false
        },
        {
            "lon": -59.46189885,
            "lat": -26.11602382,
            "school_name": "CESEP N\u00b0 1 ANEXO 2",
            "country_name": "Argentina",
            "connectivity": false
        },
        {
            "lon": -62.26883962,
            "lat": -22.85283685,
            "school_name": "NEP Y FP N\u00b020 - EPEP N\u00b0355",
            "country_name": "Argentina",
            "connectivity": false
        },
        {
            "lon": -66.34654167,
            "lat": -30.41884451,
            "school_name": "ESC.N\u00b0075 DELINA ELIZONDO",
            "country_name": "Argentina",
            "connectivity": false
        },
        {
            "lon": -68.84634559,
            "lat": -32.89504719,
            "school_name": "INSTITUTO HUMBERTO DE PAOLIS",
            "country_name": "Argentina",
            "connectivity": false
        },
        {
            "lon": -68.7516766,
            "lat": -33.06874712,
            "school_name": "ANTONIO LUIS BERUTTI",
            "country_name": "Argentina",
            "connectivity": false
        },
        {
            "lon": -68.27183882,
            "lat": -34.59109666,
            "school_name": "CLEMENTE MANCHADO",
            "country_name": "Argentina",
            "connectivity": false
        },
        {
            "lon": -68.05453563,
            "lat": -38.96163343,
            "school_name": "ESCUELA PRIMARIA 56 PCIA DE RIO NEGRO",
            "country_name": "Argentina",
            "connectivity": false
        },
        {
            "lon": -67.99190867,
            "lat": -38.93000258,
            "school_name": "C.E.M. NRO.17 ANEXO BACHILLERATO LIBRE PARA ADULTOS",
            "country_name": "Argentina",
            "connectivity": false
        },
        {
            "lon": -67.57571776,
            "lat": -39.02300458,
            "school_name": "JARDIN ESCUELA DEL SUR",
            "country_name": "Argentina",
            "connectivity": false
        },
        {
            "lon": -66.03412865,
            "lat": -25.86732861,
            "school_name": "ESCUELA 4475 EX N\u00b0 679",
            "country_name": "Argentina",
            "connectivity": false
        },
        {
            "lon": -66.29409,
            "lat": -25.4381,
            "school_name": "COLEGIO SECUNDARIO PRESIDENTE JUAN DOMINGO PERON EX N\u00b053",
            "country_name": "Argentina",
            "connectivity": false
        },
        {
            "lon": -64.6505678,
            "lat": -25.38058361,
            "school_name": "NUCLEO EDUCATIVO CANONIGO LORENZO ARIAS VALDEZ EX N\u00ba 20",
            "country_name": "Argentina",
            "connectivity": false
        },
        {
            "lon": -63.86013,
            "lat": -22.93459,
            "school_name": "ESCUELA DE EDUCACION T\u00c9CNICA N\u00b0 3153 EX N\u00b0 5018",
            "country_name": "Argentina",
            "connectivity": false
        },
        {
            "lon": -61.7304575,
            "lat": -31.7137126,
            "school_name": "C.E.R. NRO 337 BARTOLOME MITRE",
            "country_name": "Argentina",
            "connectivity": false
        },
        {
            "lon": -69.5813,
            "lat": -17.5289,
            "school_name": "42246 JOSE OLAYA BALANDRA",
            "country_name": "Peru",
            "connectivity": false
        },
        {
            "lon": -64.83072,
            "lat": -27.34889,
            "school_name": "ESCUELA N\u00b0 114 PROVINCIA DE FORMOSA",
            "country_name": "Argentina",
            "connectivity": false
        },
        {
            "lon": -62.39685,
            "lat": -28.93873,
            "school_name": "ESCUELA N\u00ba1007",
            "country_name": "Argentina",
            "connectivity": false
        },
        {
            "lon": -67.75523508,
            "lat": -53.7771269,
            "school_name": "ESCUELA ESPECIAL N\u00ba 3 - INTEGRACION PLENA",
            "country_name": "Argentina",
            "connectivity": false
        },
        {
            "lon": 6.635377,
            "lat": 6.180834,
            "school_name": "Name unknown",
            "country_name": "Nigeria",
            "connectivity": false
        },
        {
            "lon": 6.195375,
            "lat": 5.235466,
            "school_name": "Name unknown",
            "country_name": "Nigeria",
            "connectivity": false
        },
        {
            "lon": 5.77806,
            "lat": 5.532383,
            "school_name": "Name unknown",
            "country_name": "Nigeria",
            "connectivity": false
        },
        {
            "lon": 7.561738872,
            "lat": 5.447678908,
            "school_name": "Name unknown",
            "country_name": "Nigeria",
            "connectivity": false
        },
        {
            "lon": 7.525461424,
            "lat": 5.688219775,
            "school_name": "Name unknown",
            "country_name": "Nigeria",
            "connectivity": false
        },
        {
            "lon": 7.514504,
            "lat": 5.825505,
            "school_name": "Name unknown",
            "country_name": "Nigeria",
            "connectivity": false
        },
        {
            "lon": 7.401118,
            "lat": 5.111836,
            "school_name": "Name unknown",
            "country_name": "Nigeria",
            "connectivity": false
        },
        {
            "lon": 7.437816,
            "lat": 5.662137,
            "school_name": "Name unknown",
            "country_name": "Nigeria",
            "connectivity": false
        },
        {
            "lon": 7.50156,
            "lat": 5.477986667,
            "school_name": "Name unknown",
            "country_name": "Nigeria",
            "connectivity": false
        },
        {
            "lon": 8.10847,
            "lat": 6.320793,
            "school_name": "Name unknown",
            "country_name": "Nigeria",
            "connectivity": false
        },
        {
            "lon": 8.2201967,
            "lat": 6.0428583,
            "school_name": "Name unknown",
            "country_name": "Nigeria",
            "connectivity": false
        },
        {
            "lon": 7.756399,
            "lat": 6.572976,
            "school_name": "Name unknown",
            "country_name": "Nigeria",
            "connectivity": false
        },
        {
            "lon": 7.8744083,
            "lat": 6.0420817,
            "school_name": "Name unknown",
            "country_name": "Nigeria",
            "connectivity": false
        },
        {
            "lon": 5.639709,
            "lat": 6.354925,
            "school_name": "Name unknown",
            "country_name": "Nigeria",
            "connectivity": false
        },
        {
            "lon": 13.60629744,
            "lat": 12.62266732,
            "school_name": "Name unknown",
            "country_name": "Nigeria",
            "connectivity": false
        },
        {
            "lon": 5.336491,
            "lat": 7.885672,
            "school_name": "Name unknown",
            "country_name": "Nigeria",
            "connectivity": false
        },
        {
            "lon": 7.554945,
            "lat": 6.620051667,
            "school_name": "Name unknown",
            "country_name": "Nigeria",
            "connectivity": false
        },
        {
            "lon": 7.495311,
            "lat": 6.67745,
            "school_name": "Name unknown",
            "country_name": "Nigeria",
            "connectivity": false
        },
        {
            "lon": 11.03153333,
            "lat": 10.35224833,
            "school_name": "Name unknown",
            "country_name": "Nigeria",
            "connectivity": false
        },
        {
            "lon": 7.191201667,
            "lat": 5.630691667,
            "school_name": "Name unknown",
            "country_name": "Nigeria",
            "connectivity": false
        },
        {
            "lon": -77.0156,
            "lat": -12.0468,
            "school_name": "022 REPUBLICA DE GUATEMALA",
            "country_name": "Peru",
            "connectivity": false
        },
        {
            "lon": -77.0852,
            "lat": -12.0062,
            "school_name": "387",
            "country_name": "Peru",
            "connectivity": false
        },
        {
            "lon": -74.2166,
            "lat": -13.1534,
            "school_name": "104 SIMON BOLIVAR",
            "country_name": "Peru",
            "connectivity": false
        },
        {
            "lon": -72.532,
            "lat": -14.2837,
            "school_name": "1056",
            "country_name": "Peru",
            "connectivity": false
        },
        {
            "lon": -74.836,
            "lat": -12.4641,
            "school_name": "1069",
            "country_name": "Peru",
            "connectivity": false
        },
        {
            "lon": -78.2162,
            "lat": -7.60785,
            "school_name": "1090",
            "country_name": "Peru",
            "connectivity": false
        },
        {
            "lon": -79.604,
            "lat": -6.80977,
            "school_name": "11528 SE\u00d1OR DE SIPAN",
            "country_name": "Peru",
            "connectivity": false
        },
        {
            "lon": -77.0746,
            "lat": -6.26914,
            "school_name": "1205",
            "country_name": "Peru",
            "connectivity": false
        },
        {
            "lon": -70.3567,
            "lat": -15.8212,
            "school_name": "1243",
            "country_name": "Peru",
            "connectivity": false
        },
        {
            "lon": -74.8026,
            "lat": -11.7406,
            "school_name": "1304",
            "country_name": "Peru",
            "connectivity": false
        },
        {
            "lon": -79.4635,
            "lat": -5.18841,
            "school_name": "14443",
            "country_name": "Peru",
            "connectivity": false
        },
        {
            "lon": -76.165,
            "lat": -9.2088,
            "school_name": "146",
            "country_name": "Peru",
            "connectivity": false
        },
        {
            "lon": -78.9734,
            "lat": -5.55951,
            "school_name": "16164 SAN JUAN BAUTISTA",
            "country_name": "Peru",
            "connectivity": false
        },
        {
            "lon": -78.7842,
            "lat": -5.96481,
            "school_name": "16407",
            "country_name": "Peru",
            "connectivity": false
        },
        {
            "lon": -79.0081,
            "lat": -5.06212,
            "school_name": "16453",
            "country_name": "Peru",
            "connectivity": false
        },
        {
            "lon": -77.9377,
            "lat": -6.29789,
            "school_name": "18119",
            "country_name": "Peru",
            "connectivity": false
        },
        {
            "lon": -77.0425,
            "lat": -12.0267,
            "school_name": "18AVA. DIVISION BLINDADA",
            "country_name": "Peru",
            "connectivity": false
        },
        {
            "lon": -78.8109,
            "lat": -7.4661,
            "school_name": "2011",
            "country_name": "Peru",
            "connectivity": false
        },
        {
            "lon": -75.8362,
            "lat": -12.9997,
            "school_name": "20126",
            "country_name": "Peru",
            "connectivity": false
        },
        {
            "lon": -77.7595,
            "lat": -10.5669,
            "school_name": "20529",
            "country_name": "Peru",
            "connectivity": false
        },
        {
            "lon": -76.9941,
            "lat": -9.1159,
            "school_name": "223",
            "country_name": "Peru",
            "connectivity": false
        },
        {
            "lon": -75.0464,
            "lat": -6.83523,
            "school_name": "64267",
            "country_name": "Peru",
            "connectivity": false
        },
        {
            "lon": -74.0627,
            "lat": -15.0676,
            "school_name": "24364",
            "country_name": "Peru",
            "connectivity": false
        },
        {
            "lon": -78.1828,
            "lat": -7.191,
            "school_name": "28 DE JULIO",
            "country_name": "Peru",
            "connectivity": false
        },
        {
            "lon": -78.1187,
            "lat": -4.9309,
            "school_name": "280",
            "country_name": "Peru",
            "connectivity": false
        },
        {
            "lon": -75.6248,
            "lat": -11.8173,
            "school_name": "30430",
            "country_name": "Peru",
            "connectivity": false
        },
        {
            "lon": -74.4769,
            "lat": -11.5474,
            "school_name": "30967",
            "country_name": "Peru",
            "connectivity": false
        },
        {
            "lon": -75.227,
            "lat": -12.0492,
            "school_name": "31510 VIRGEN DE FATIMA",
            "country_name": "Peru",
            "connectivity": false
        },
        {
            "lon": -74.5115,
            "lat": -11.1939,
            "school_name": "31669",
            "country_name": "Peru",
            "connectivity": false
        },
        {
            "lon": -76.7732,
            "lat": -9.51234,
            "school_name": "32446",
            "country_name": "Peru",
            "connectivity": false
        },
        {
            "lon": 0.607196,
            "lat": 9.466982,
            "school_name": "EPP FALAKOUGMADO",
            "country_name": "Togo",
            "connectivity": false
        },
        {
            "lon": -74.4132,
            "lat": -12.8403,
            "school_name": "36167",
            "country_name": "Peru",
            "connectivity": false
        },
        {
            "lon": -74.5616,
            "lat": -12.6741,
            "school_name": "36493 SEBASTIAN LORENTE IBA\u00d1EZ",
            "country_name": "Peru",
            "connectivity": false
        },
        {
            "lon": -74.1751,
            "lat": -12.6828,
            "school_name": "38808",
            "country_name": "Peru",
            "connectivity": false
        },
        {
            "lon": -75.2601,
            "lat": -11.9349,
            "school_name": "413",
            "country_name": "Peru",
            "connectivity": false
        },
        {
            "lon": -70.24,
            "lat": -17.9852,
            "school_name": "42218 MARISCAL CACERES",
            "country_name": "Peru",
            "connectivity": false
        },
        {
            "lon": -73.6688,
            "lat": -13.9114,
            "school_name": "54231",
            "country_name": "Peru",
            "connectivity": false
        },
        {
            "lon": -71.2772,
            "lat": -14.6403,
            "school_name": "56403",
            "country_name": "Peru",
            "connectivity": false
        },
        {
            "lon": -76.9162,
            "lat": -12.1711,
            "school_name": "6057 VIRGEN DE LOURDES",
            "country_name": "Peru",
            "connectivity": false
        },
        {
            "lon": -73.8455,
            "lat": -5.0558,
            "school_name": "60700 JUAN PABLO II",
            "country_name": "Peru",
            "connectivity": false
        },
        {
            "lon": -76.4524,
            "lat": -5.93425,
            "school_name": "62468",
            "country_name": "Peru",
            "connectivity": false
        },
        {
            "lon": -69.4276,
            "lat": -13.8981,
            "school_name": "72491",
            "country_name": "Peru",
            "connectivity": false
        },
        {
            "lon": -69.6187,
            "lat": -16.0337,
            "school_name": "728",
            "country_name": "Peru",
            "connectivity": false
        },
        {
            "lon": -77.9981,
            "lat": -7.77654,
            "school_name": "80037",
            "country_name": "Peru",
            "connectivity": false
        },
        {
            "lon": -77.2254,
            "lat": -8.32563,
            "school_name": "80466 RICARDO PALMA",
            "country_name": "Peru",
            "connectivity": false
        },
        {
            "lon": -79.5632,
            "lat": -7.4133,
            "school_name": "80880 CONSUELO SOLANO DE VILLON",
            "country_name": "Peru",
            "connectivity": false
        },
        {
            "lon": -77.2651,
            "lat": -8.42386,
            "school_name": "82191",
            "country_name": "Peru",
            "connectivity": false
        },
        {
            "lon": -71.5271,
            "lat": -16.3899,
            "school_name": "ALTO SELVA ALEGRE LINUS PAULING",
            "country_name": "Peru",
            "connectivity": false
        },
        {
            "lon": -79.9367,
            "lat": -4.75981,
            "school_name": "ARCADIO GARCIA QUINDE",
            "country_name": "Peru",
            "connectivity": false
        },
        {
            "lon": -71.8291,
            "lat": -16.4897,
            "school_name": "ASOCIACION DE VIVIENDA LOS ROSALES",
            "country_name": "Peru",
            "connectivity": false
        },
        {
            "lon": -75.8262,
            "lat": -10.9953,
            "school_name": "CAPULI",
            "country_name": "Peru",
            "connectivity": false
        },
        {
            "lon": -71.5488,
            "lat": -16.3981,
            "school_name": "CARAMELOS",
            "country_name": "Peru",
            "connectivity": false
        },
        {
            "lon": -78.6994,
            "lat": -7.39047,
            "school_name": "CASCABAMBA",
            "country_name": "Peru",
            "connectivity": false
        },
        {
            "lon": -70.0965,
            "lat": -16.4677,
            "school_name": "70169",
            "country_name": "Peru",
            "connectivity": false
        },
        {
            "lon": -74.0234,
            "lat": -15.997,
            "school_name": "CESAR VALLEJO",
            "country_name": "Peru",
            "connectivity": false
        },
        {
            "lon": -77.5317,
            "lat": -9.49029,
            "school_name": "CRISTO MISERICORDIOSO",
            "country_name": "Peru",
            "connectivity": false
        },
        {
            "lon": -77.9592,
            "lat": -7.20372,
            "school_name": "EL HIGO",
            "country_name": "Peru",
            "connectivity": false
        },
        {
            "lon": -76.8521,
            "lat": -12.2887,
            "school_name": "HAPPY CHILDREN SCHOOL",
            "country_name": "Peru",
            "connectivity": false
        },
        {
            "lon": -69.9574,
            "lat": -15.3669,
            "school_name": "HUANCOLLUSCO I",
            "country_name": "Peru",
            "connectivity": false
        },
        {
            "lon": 8.970063,
            "lat": 8.410388,
            "school_name": "Name unknown",
            "country_name": "Nigeria",
            "connectivity": false
        },
        {
            "lon": -71.9493,
            "lat": -13.5261,
            "school_name": "JUAN LANDAZURI RICKETTS",
            "country_name": "Peru",
            "connectivity": false
        },
        {
            "lon": -77.734,
            "lat": -3.7835,
            "school_name": "KAMPANKIS",
            "country_name": "Peru",
            "connectivity": false
        },
        {
            "lon": -70.3389,
            "lat": -16.0774,
            "school_name": "KOMERUCHO",
            "country_name": "Peru",
            "connectivity": false
        },
        {
            "lon": -78.5924,
            "lat": -7.3601,
            "school_name": "LAS TUNAS",
            "country_name": "Peru",
            "connectivity": false
        },
        {
            "lon": -79.5653,
            "lat": -6.89324,
            "school_name": "MAGISTER",
            "country_name": "Peru",
            "connectivity": false
        },
        {
            "lon": -81.0837,
            "lat": -5.09187,
            "school_name": "MANUELA INO\u00d1AN",
            "country_name": "Peru",
            "connectivity": false
        },
        {
            "lon": -77.0369,
            "lat": -11.9424,
            "school_name": "MARIA AUXILIADORA VI",
            "country_name": "Peru",
            "connectivity": false
        },
        {
            "lon": -80.4496,
            "lat": -3.57086,
            "school_name": "MARIA ROSA MISTICA",
            "country_name": "Peru",
            "connectivity": false
        },
        {
            "lon": -79.0065,
            "lat": -8.0644,
            "school_name": "MI AMIGO DANIEL",
            "country_name": "Peru",
            "connectivity": false
        },
        {
            "lon": -71.8213,
            "lat": -13.3569,
            "school_name": "QUINSA QOCHA",
            "country_name": "Peru",
            "connectivity": false
        },
        {
            "lon": -73.085,
            "lat": -13.6158,
            "school_name": "RICARDO PALMA",
            "country_name": "Peru",
            "connectivity": false
        },
        {
            "lon": -78.5739,
            "lat": -7.23101,
            "school_name": "SAN ANDRES",
            "country_name": "Peru",
            "connectivity": false
        },
        {
            "lon": -77.2092,
            "lat": -11.4985,
            "school_name": "SAN CARLOS",
            "country_name": "Peru",
            "connectivity": false
        },
        {
            "lon": -71.9815,
            "lat": -13.5172,
            "school_name": "SAN JUAN DE DIOS",
            "country_name": "Peru",
            "connectivity": false
        },
        {
            "lon": -77.0595,
            "lat": -12.1006,
            "school_name": "SOR ROSA LARRABURE",
            "country_name": "Peru",
            "connectivity": false
        },
        {
            "lon": -69.6612,
            "lat": -14.1512,
            "school_name": "SORAPATA",
            "country_name": "Peru",
            "connectivity": false
        },
        {
            "lon": -77.0578,
            "lat": -11.9804,
            "school_name": "TECHNOLOGY SCHOOLS DE INDEPENDENCIA",
            "country_name": "Peru",
            "connectivity": false
        },
        {
            "lon": -70.4718,
            "lat": -13.6783,
            "school_name": "THIUNI",
            "country_name": "Peru",
            "connectivity": false
        },
        {
            "lon": 8.9490232,
            "lat": 12.3650255,
            "school_name": "Name unknown",
            "country_name": "Nigeria",
            "connectivity": false
        },
        {
            "lon": 8.22756446,
            "lat": 11.18234204,
            "school_name": "Name unknown",
            "country_name": "Nigeria",
            "connectivity": false
        },
        {
            "lon": 7.77745719,
            "lat": 10.48736478,
            "school_name": "Name unknown",
            "country_name": "Nigeria",
            "connectivity": false
        },
        {
            "lon": 8.495863972,
            "lat": 9.642266308,
            "school_name": "Name unknown",
            "country_name": "Nigeria",
            "connectivity": false
        },
        {
            "lon": 8.39672577,
            "lat": 9.732752641,
            "school_name": "Name unknown",
            "country_name": "Nigeria",
            "connectivity": false
        },
        {
            "lon": 8.472612,
            "lat": 11.96758,
            "school_name": "Name unknown",
            "country_name": "Nigeria",
            "connectivity": false
        },
        {
            "lon": 8.336698,
            "lat": 11.50379,
            "school_name": "Name unknown",
            "country_name": "Nigeria",
            "connectivity": false
        },
        {
            "lon": 8.568452,
            "lat": 11.69304,
            "school_name": "Name unknown",
            "country_name": "Nigeria",
            "connectivity": false
        },
        {
            "lon": 8.522001,
            "lat": 11.63112,
            "school_name": "Name unknown",
            "country_name": "Nigeria",
            "connectivity": false
        },
        {
            "lon": 8.487111,
            "lat": 12.34735,
            "school_name": "Name unknown",
            "country_name": "Nigeria",
            "connectivity": false
        },
        {
            "lon": 8.438718,
            "lat": 12.37104,
            "school_name": "Name unknown",
            "country_name": "Nigeria",
            "connectivity": false
        },
        {
            "lon": 13.449339,
            "lat": 10.421668,
            "school_name": "Name unknown",
            "country_name": "Nigeria",
            "connectivity": false
        },
        {
            "lon": 11.761808,
            "lat": 8.325164,
            "school_name": "Name unknown",
            "country_name": "Nigeria",
            "connectivity": false
        },
        {
            "lon": 6.749185,
            "lat": 7.830214,
            "school_name": "Name unknown",
            "country_name": "Nigeria",
            "connectivity": false
        },
        {
            "lon": 6.16419,
            "lat": 7.590359,
            "school_name": "Name unknown",
            "country_name": "Nigeria",
            "connectivity": false
        },
        {
            "lon": 4.6211,
            "lat": 8.746357,
            "school_name": "Name unknown",
            "country_name": "Nigeria",
            "connectivity": false
        },
        {
            "lon": 3.305594,
            "lat": 6.62292,
            "school_name": "Name unknown",
            "country_name": "Nigeria",
            "connectivity": false
        },
        {
            "lon": 3.20974,
            "lat": 6.52438,
            "school_name": "Name unknown",
            "country_name": "Nigeria",
            "connectivity": false
        },
        {
            "lon": 3.48074,
            "lat": 6.43721,
            "school_name": "Name unknown",
            "country_name": "Nigeria",
            "connectivity": false
        },
        {
            "lon": 3.35067,
            "lat": 6.63857,
            "school_name": "Name unknown",
            "country_name": "Nigeria",
            "connectivity": false
        },
        {
            "lon": 3.350610082,
            "lat": 6.638306186,
            "school_name": "Name unknown",
            "country_name": "Nigeria",
            "connectivity": false
        },
        {
            "lon": 3.47946,
            "lat": 6.65597,
            "school_name": "Name unknown",
            "country_name": "Nigeria",
            "connectivity": false
        },
        {
            "lon": 3.54048,
            "lat": 6.67259,
            "school_name": "Name unknown",
            "country_name": "Nigeria",
            "connectivity": false
        },
        {
            "lon": 3.648,
            "lat": 6.61662,
            "school_name": "Name unknown",
            "country_name": "Nigeria",
            "connectivity": false
        },
        {
            "lon": 3.39934,
            "lat": 6.5887,
            "school_name": "Name unknown",
            "country_name": "Nigeria",
            "connectivity": false
        },
        {
            "lon": 3.369876,
            "lat": 6.616878,
            "school_name": "Name unknown",
            "country_name": "Nigeria",
            "connectivity": false
        },
        {
            "lon": 8.318388,
            "lat": 9.093279,
            "school_name": "Name unknown",
            "country_name": "Nigeria",
            "connectivity": false
        },
        {
            "lon": 5.916256104,
            "lat": 8.97482662,
            "school_name": "Name unknown",
            "country_name": "Nigeria",
            "connectivity": false
        },
        {
            "lon": 6.545228362,
            "lat": 9.615703225,
            "school_name": "Name unknown",
            "country_name": "Nigeria",
            "connectivity": false
        },
        {
            "lon": 5.963602066,
            "lat": 9.155108929,
            "school_name": "Name unknown",
            "country_name": "Nigeria",
            "connectivity": false
        },
        {
            "lon": 6.836505884,
            "lat": 9.397160866,
            "school_name": "Name unknown",
            "country_name": "Nigeria",
            "connectivity": false
        },
        {
            "lon": 5.178762321,
            "lat": 11.0574877,
            "school_name": "Name unknown",
            "country_name": "Nigeria",
            "connectivity": false
        },
        {
            "lon": 3.137893333,
            "lat": 6.70914,
            "school_name": "Name unknown",
            "country_name": "Nigeria",
            "connectivity": false
        },
        {
            "lon": 3.202705,
            "lat": 6.823158333,
            "school_name": "Name unknown",
            "country_name": "Nigeria",
            "connectivity": false
        },
        {
            "lon": 3.445810084,
            "lat": 7.194004093,
            "school_name": "Name unknown",
            "country_name": "Nigeria",
            "connectivity": false
        },
        {
            "lon": 5.752909,
            "lat": 7.639114,
            "school_name": "Name unknown",
            "country_name": "Nigeria",
            "connectivity": false
        },
        {
            "lon": 5.186559,
            "lat": 7.230347,
            "school_name": "Name unknown",
            "country_name": "Nigeria",
            "connectivity": false
        },
        {
            "lon": 4.52267,
            "lat": 7.783029,
            "school_name": "Name unknown",
            "country_name": "Nigeria",
            "connectivity": false
        },
        {
            "lon": 4.541322,
            "lat": 7.482303,
            "school_name": "Name unknown",
            "country_name": "Nigeria",
            "connectivity": false
        },
        {
            "lon": 4.577308,
            "lat": 7.493966,
            "school_name": "Name unknown",
            "country_name": "Nigeria",
            "connectivity": false
        },
        {
            "lon": 4.282726,
            "lat": 7.288441,
            "school_name": "Name unknown",
            "country_name": "Nigeria",
            "connectivity": false
        },
        {
            "lon": 3.917398,
            "lat": 7.368983,
            "school_name": "Name unknown",
            "country_name": "Nigeria",
            "connectivity": false
        },
        {
            "lon": 3.428734,
            "lat": 7.544144,
            "school_name": "Name unknown",
            "country_name": "Nigeria",
            "connectivity": false
        },
        {
            "lon": 3.558017,
            "lat": 7.513601,
            "school_name": "Name unknown",
            "country_name": "Nigeria",
            "connectivity": false
        },
        {
            "lon": 3.604024,
            "lat": 7.950052,
            "school_name": "Name unknown",
            "country_name": "Nigeria",
            "connectivity": false
        },
        {
            "lon": 4.048979,
            "lat": 7.544961,
            "school_name": "Name unknown",
            "country_name": "Nigeria",
            "connectivity": false
        },
        {
            "lon": 3.940685,
            "lat": 7.370871,
            "school_name": "Name unknown",
            "country_name": "Nigeria",
            "connectivity": false
        },
        {
            "lon": 3.782374,
            "lat": 7.860206,
            "school_name": "Name unknown",
            "country_name": "Nigeria",
            "connectivity": false
        },
        {
            "lon": 3.237793,
            "lat": 8.774152,
            "school_name": "Name unknown",
            "country_name": "Nigeria",
            "connectivity": false
        },
        {
            "lon": 10.21201,
            "lat": 9.68581,
            "school_name": "Name unknown",
            "country_name": "Nigeria",
            "connectivity": false
        },
        {
            "lon": 10.130921,
            "lat": 9.623993,
            "school_name": "Name unknown",
            "country_name": "Nigeria",
            "connectivity": false
        },
        {
            "lon": 9.703552,
            "lat": 9.242511,
            "school_name": "Name unknown",
            "country_name": "Nigeria",
            "connectivity": false
        },
        {
            "lon": 7.148978,
            "lat": 4.782689,
            "school_name": "Name unknown",
            "country_name": "Nigeria",
            "connectivity": false
        },
        {
            "lon": 7.069733,
            "lat": 5.024097,
            "school_name": "Name unknown",
            "country_name": "Nigeria",
            "connectivity": false
        },
        {
            "lon": 7.034468,
            "lat": 4.898724,
            "school_name": "Name unknown",
            "country_name": "Nigeria",
            "connectivity": false
        },
        {
            "lon": 10.77165667,
            "lat": 8.644186667,
            "school_name": "Name unknown",
            "country_name": "Nigeria",
            "connectivity": false
        },
        {
            "lon": 10.984102,
            "lat": 9.220592,
            "school_name": "Name unknown",
            "country_name": "Nigeria",
            "connectivity": false
        },
        {
            "lon": 11.727208,
            "lat": 8.915657,
            "school_name": "Name unknown",
            "country_name": "Nigeria",
            "connectivity": false
        },
        {
            "lon": 7.688616514,
            "lat": 11.5717417,
            "school_name": "Name unknown",
            "country_name": "Nigeria",
            "connectivity": false
        },
        {
            "lon": 7.91277,
            "lat": 13.20054,
            "school_name": "Name unknown",
            "country_name": "Nigeria",
            "connectivity": false
        },
        {
            "lon": 7.48084238,
            "lat": 11.80246005,
            "school_name": "Name unknown",
            "country_name": "Nigeria",
            "connectivity": false
        },
        {
            "lon": 10.34982179,
            "lat": 10.20295079,
            "school_name": "Name unknown",
            "country_name": "Nigeria",
            "connectivity": false
        },
        {
            "lon": 9.93419,
            "lat": 9.98723,
            "school_name": "Name unknown",
            "country_name": "Nigeria",
            "connectivity": false
        },
        {
            "lon": 10.20942628,
            "lat": 11.95780814,
            "school_name": "Name unknown",
            "country_name": "Nigeria",
            "connectivity": false
        },
        {
            "lon": 10.78022718,
            "lat": 10.31312048,
            "school_name": "Name unknown",
            "country_name": "Nigeria",
            "connectivity": false
        },
        {
            "lon": 9.456347823,
            "lat": 10.14006436,
            "school_name": "Name unknown",
            "country_name": "Nigeria",
            "connectivity": false
        },
        {
            "lon": 4.705581665,
            "lat": 12.75554001,
            "school_name": "Name unknown",
            "country_name": "Nigeria",
            "connectivity": false
        },
        {
            "lon": 5.25508518,
            "lat": 11.37674174,
            "school_name": "Name unknown",
            "country_name": "Nigeria",
            "connectivity": false
        },
        {
            "lon": 6.158374,
            "lat": 4.817905,
            "school_name": "Name unknown",
            "country_name": "Nigeria",
            "connectivity": false
        },
        {
            "lon": 5.22699322,
            "lat": 12.95321322,
            "school_name": "Name unknown",
            "country_name": "Nigeria",
            "connectivity": false
        },
        {
            "lon": 5.694331418,
            "lat": 12.92284855,
            "school_name": "Name unknown",
            "country_name": "Nigeria",
            "connectivity": false
        },
        {
            "lon": 6.280778334,
            "lat": 13.51741786,
            "school_name": "Name unknown",
            "country_name": "Nigeria",
            "connectivity": false
        },
        {
            "lon": 5.25684189,
            "lat": 13.06230905,
            "school_name": "Name unknown",
            "country_name": "Nigeria",
            "connectivity": false
        },
        {
            "lon": 10.76285373,
            "lat": 12.84807833,
            "school_name": "Name unknown",
            "country_name": "Nigeria",
            "connectivity": false
        },
        {
            "lon": 8.99374,
            "lat": 6.771453,
            "school_name": "Name unknown",
            "country_name": "Nigeria",
            "connectivity": false
        },
        {
            "lon": 9.2696,
            "lat": 7.759,
            "school_name": "Name unknown",
            "country_name": "Nigeria",
            "connectivity": false
        },
        {
            "lon": 9.081359,
            "lat": 6.746441,
            "school_name": "Name unknown",
            "country_name": "Nigeria",
            "connectivity": false
        },
        {
            "lon": 6.62195027,
            "lat": 12.22217234,
            "school_name": "Name unknown",
            "country_name": "Nigeria",
            "connectivity": false
        },
        {
            "lon": 8.616456667,
            "lat": 5.340935,
            "school_name": "Name unknown",
            "country_name": "Nigeria",
            "connectivity": false
        },
        {
            "lon": 8.3456833,
            "lat": 4.95725,
            "school_name": "Name unknown",
            "country_name": "Nigeria",
            "connectivity": false
        },
        {
            "lon": 8.718918333,
            "lat": 5.951095,
            "school_name": "Name unknown",
            "country_name": "Nigeria",
            "connectivity": false
        },
        {
            "lon": 8.385383,
            "lat": 5.972217,
            "school_name": "Name unknown",
            "country_name": "Nigeria",
            "connectivity": false
        },
        {
            "lon": 9.072258333,
            "lat": 6.593943333,
            "school_name": "Name unknown",
            "country_name": "Nigeria",
            "connectivity": false
        },
        {
            "lon": 28.07754,
            "lat": -26.11212,
            "school_name": "Chinese School College",
            "country_name": "South Africa",
            "connectivity": false
        },
        {
            "lon": 29.01591,
            "lat": -31.54501,
            "school_name": "Libode Village Junior Secondary School",
            "country_name": "South Africa",
            "connectivity": false
        },
        {
            "lon": -59.44827147,
            "lat": -34.44730673,
            "school_name": "JARDIN DE INFANTES N\u00ba911 FRAY MAMERTO ESQUIU",
            "country_name": "Argentina",
            "connectivity": false
        },
        {
            "lon": -76.9713,
            "lat": -12.1556,
            "school_name": "MI MAESTRO ES JESUS",
            "country_name": "Peru",
            "connectivity": false
        },
        {
            "lon": 7.46195191,
            "lat": 11.25158424,
            "school_name": "Name unknown",
            "country_name": "Nigeria",
            "connectivity": false
        },
        {
            "lon": 12.524311,
            "lat": 9.344143,
            "school_name": "Name unknown",
            "country_name": "Nigeria",
            "connectivity": false
        },
        {
            "lon": 5.24112761,
            "lat": 13.35099578,
            "school_name": "Name unknown",
            "country_name": "Nigeria",
            "connectivity": false
        },
        {
            "lon": 65.937699,
            "lat": 39.898393,
            "school_name": "27 -  sonli umumta\u2018lim maktabi",
            "country_name": "Uzbekistan",
            "connectivity": false
        },
        {
            "lon": 65.69135,
            "lat": 39.03837,
            "school_name": "88 -  sonli umumta\u2018lim maktabi",
            "country_name": "Uzbekistan",
            "connectivity": false
        },
        {
            "lon": 67.17779,
            "lat": 40.4219,
            "school_name": "1 -  sonli umumta\u2018lim maktabi",
            "country_name": "Uzbekistan",
            "connectivity": false
        },
        {
            "lon": 63.76088,
            "lat": 39.50908,
            "school_name": "34 -  sonli umumta\u2018lim maktabi",
            "country_name": "Uzbekistan",
            "connectivity": false
        },
        {
            "lon": -105.680926,
            "lat": 25.035711,
            "school_name": "TELESECUNDARIA NUM. 506",
            "country_name": "Mexico",
            "connectivity": false
        },
        {
            "lon": -105.493889,
            "lat": 23.728056,
            "school_name": "TELESECUNDARIA NUM. 316",
            "country_name": "Mexico",
            "connectivity": false
        },
        {
            "lon": -105.334722,
            "lat": 23.290278,
            "school_name": "TELESECUNDARIA NUM. 373",
            "country_name": "Mexico",
            "connectivity": false
        },
        {
            "lon": -101.797544,
            "lat": 20.301797,
            "school_name": "TELESECUNDARIA NUM. 137",
            "country_name": "Mexico",
            "connectivity": false
        },
        {
            "lon": -99.12885,
            "lat": 20.094758,
            "school_name": "ALFONSO REYES",
            "country_name": "Mexico",
            "connectivity": false
        },
        {
            "lon": -103.78516,
            "lat": 21.82996,
            "school_name": "ESCUELA SECUNDARIA TECNICA 91",
            "country_name": "Mexico",
            "connectivity": false
        },
        {
            "lon": -99.116422,
            "lat": 21.196747,
            "school_name": "SECUNDARIA COMUNITARIA",
            "country_name": "Mexico",
            "connectivity": false
        },
        {
            "lon": -107.01842,
            "lat": 24.391266,
            "school_name": "TELESECUNDARIA FEDERALIZADA NUM. 227",
            "country_name": "Mexico",
            "connectivity": false
        },
        {
            "lon": -107.147567,
            "lat": 24.245121,
            "school_name": "TELESECUNDARIA FEDERALIZADA NUM. 229",
            "country_name": "Mexico",
            "connectivity": false
        },