{
    "name": "Patchwork Kingdom #249 | Pappalto",
    "description": "The twin kingdoms of Pappalto, separated by a digital divide. A bustling kingdom of 78 schools on top that are all connected to the internet, and 58 schools, not connected, hidden in the upside down kingdom | Created for Giga (GigaConnect.org) \u2014 connecting every school in the world \u2014 in celebration of UNICEF's 75th birthday, by Nadieh Bremer",
    "external_url": "https://dummyURL.com/patchwork_kingdoms_249",
    "image": "https://dummy-storage-url.com/patchwork_kingdoms_249.png",
    "attributes": [
        {
            "trait_type": "Color palette",
            "value": "kaleidoscope"
        },
        {
            "display_type": "number",
            "trait_type": "Schools",
            "value": 151,
            "max_value": 460
        },
        {
            "display_type": "number",
            "trait_type": "Ratio - Connected",
            "value": 0.52,
            "max_value": 1
        },
        {
            "display_type": "number",
            "trait_type": "Ratio - Unconnected",
            "value": 0.38,
            "max_value": 1
        },
        {
            "display_type": "number",
            "trait_type": "Ratio - Data unavailable",
            "value": 0.1,
            "max_value": 1
        },
        {
            "trait_type": "Countries",
            "value": "BR-CO-CR-HN-KG-KZ-NA-PH-PS-SL-ZW"
        },
        {
            "display_type": "number",
            "trait_type": "Symbols",
            "value": 40,
            "max_value": 51
        }
    ],
    "cluster_id": 249,
    "num_schools": 151,
    "num_schools_connected": 78,
    "num_schools_unconnected": 58,
    "num_schools_unknown": 15,
    "schools": [
        {
            "lon": -88.11018,
            "lat": 14.10177,
            "school_name": "RICARDO ADOLFO DOMINGUEZ",
            "country_name": "Honduras",
            "connectivity": true
        },
        {
            "lon": -88.41207,
            "lat": 15.29695,
            "school_name": "LA LIBERTAD",
            "country_name": "Honduras",
            "connectivity": true
        },
        {
            "lon": -50.7677,
            "lat": -29.5175,
            "school_name": "EMEI REMITTO RENE HAACK",
            "country_name": "Brazil",
            "connectivity": true
        },
        {
            "lon": -75.80209164,
            "lat": 2.266871203,
            "school_name": "Name unknown",
            "country_name": "Colombia",
            "connectivity": false
        },
        {
            "lon": -87.31557,
            "lat": 13.40168,
            "school_name": "J.N. IRIS ROSARIO ACU\u00c3\u2018A",
            "country_name": "Honduras",
            "connectivity": true
        },
        {
            "lon": -86.67739,
            "lat": 14.22098,
            "school_name": "JOSE TRINIDAD REYES",
            "country_name": "Honduras",
            "connectivity": true
        },
        {
            "lon": -87.17572,
            "lat": 14.11666,
            "school_name": "REPUBLICA DE VENEZUELA",
            "country_name": "Honduras",
            "connectivity": true
        },
        {
            "lon": 31.07381,
            "lat": -17.81602,
            "school_name": "ST. CATHERINE SPEC.",
            "country_name": "Zimbabwe",
            "connectivity": true
        },
        {
            "lon": 31.82644,
            "lat": -18.81344,
            "school_name": "ST BARNABAS (MADZIMBABWE)",
            "country_name": "Zimbabwe",
            "connectivity": true
        },
        {
            "lon": -40.2791,
            "lat": -20.1976,
            "school_name": "CMEI A PEQUENA MANJEDOURA",
            "country_name": "Brazil",
            "connectivity": true
        },
        {
            "lon": -46.3441,
            "lat": -23.5057,
            "school_name": "AURELINO LEAL PROF EM",
            "country_name": "Brazil",
            "connectivity": true
        },
        {
            "lon": -84.03343558,
            "lat": 9.94510822,
            "school_name": "JOSE FIGUERES FERRER",
            "country_name": "Costa Rica",
            "connectivity": true
        },
        {
            "lon": -84.2162771,
            "lat": 10.00197345,
            "school_name": "VILLA BONITA",
            "country_name": "Costa Rica",
            "connectivity": true
        },
        {
            "lon": -83.79435593,
            "lat": 9.85699098,
            "school_name": "JOSE MARIA LORIA VEGA",
            "country_name": "Costa Rica",
            "connectivity": true
        },
        {
            "lon": -85.08955697,
            "lat": 9.83459758,
            "school_name": "GUADALUPE",
            "country_name": "Costa Rica",
            "connectivity": true
        },
        {
            "lon": 35.231163,
            "lat": 31.856232,
            "school_name": "AL_Ram secondary boys school",
            "country_name": "Palestine",
            "connectivity": true
        },
        {
            "lon": 35.254646,
            "lat": 31.77355,
            "school_name": "yousef alkhateb basic boys school",
            "country_name": "Palestine",
            "connectivity": true
        },
        {
            "lon": 30.19203,
            "lat": -17.88773,
            "school_name": "MKWASHA",
            "country_name": "Zimbabwe",
            "connectivity": true
        },
        {
            "lon": -50.1773,
            "lat": -13.2792,
            "school_name": "ESCOLA MUNICIPAL FARIA",
            "country_name": "Brazil",
            "connectivity": true
        },
        {
            "lon": 15.316326,
            "lat": -17.954634,
            "school_name": "Etsikilo PS",
            "country_name": "Namibia",
            "connectivity": false
        },
        {
            "lon": 14.989688,
            "lat": -17.813183,
            "school_name": "Iitananga PS",
            "country_name": "Namibia",
            "connectivity": false
        },
        {
            "lon": 121.585335,
            "lat": 18.023841,
            "school_name": "Tagao ES",
            "country_name": "Philippines",
            "connectivity": true
        },
        {
            "lon": 120.9183525,
            "lat": 14.3406794,
            "school_name": "Parklane ES",
            "country_name": "Philippines",
            "connectivity": true
        },
        {
            "lon": 124.9815859,
            "lat": 7.06420424,
            "school_name": "Patadon ES",
            "country_name": "Philippines",
            "connectivity": true
        },
        {
            "lon": 120.709,
            "lat": 17.6472,
            "school_name": "Dolores CS",
            "country_name": "Philippines",
            "connectivity": true
        },
        {
            "lon": 120.894779,
            "lat": 16.977824,
            "school_name": "Lagawa ES",
            "country_name": "Philippines",
            "connectivity": true
        },
        {
            "lon": -43.674084,
            "lat": -21.871511,
            "school_name": "CENTRO DE EDUCACAO INFANTIL PROFESSORA SUELY GUIMARAES MOTTA",
            "country_name": "Brazil",
            "connectivity": false
        },
        {
            "lon": -72.86440768,
            "lat": 8.006038309,
            "school_name": "SEDE BELLAVISTA",
            "country_name": "Colombia",
            "connectivity": true
        },
        {
            "lon": -73.10439975,
            "lat": 6.366967094,
            "school_name": "ESCUELA RURAL SAN RAFAEL",
            "country_name": "Colombia",
            "connectivity": true
        },
        {
            "lon": -73.177229,
            "lat": 5.605568,
            "school_name": "ESC SAN ANTONIO",
            "country_name": "Colombia",
            "connectivity": true
        },
        {
            "lon": -74.29,
            "lat": 8.52,
            "school_name": "SABANAS DE EL FIRME",
            "country_name": "Colombia",
            "connectivity": true
        },
        {
            "lon": -75.87850355,
            "lat": 6.510675917,
            "school_name": "I.E.R. EL CHORRILLO",
            "country_name": "Colombia",
            "connectivity": true
        },
        {
            "lon": -75.993889,
            "lat": 5.939167,
            "school_name": "C. E. R. ANA RESTREPO ARIAS",
            "country_name": "Colombia",
            "connectivity": true
        },
        {
            "lon": -76.05,
            "lat": 4.92,
            "school_name": "FRANCISCO JOSE DE CALDAS",
            "country_name": "Colombia",
            "connectivity": true
        },
        {
            "lon": -76.17572098,
            "lat": 2.032057034,
            "school_name": "CAPILLAS",
            "country_name": "Colombia",
            "connectivity": true
        },
        {
            "lon": -76.382222,
            "lat": 8.617222,
            "school_name": "E R SANTA LUCIA DE GARRAPATA",
            "country_name": "Colombia",
            "connectivity": true
        },
        {
            "lon": -76.5355801,
            "lat": 3.413521453,
            "school_name": "FRANCISCO MONTES IDROBO",
            "country_name": "Colombia",
            "connectivity": true
        },
        {
            "lon": -77.50988889,
            "lat": 0.83611111,
            "school_name": "CENTRO EDUCATIVO TANDAUD",
            "country_name": "Colombia",
            "connectivity": true
        },
        {
            "lon": -78.10732941,
            "lat": 2.474653304,
            "school_name": "INSTITUCION EDUCATIVA RIO TAPAJE",
            "country_name": "Colombia",
            "connectivity": true
        },
        {
            "lon": -56.7312,
            "lat": -2.6371,
            "school_name": "ESCOLA ESTADUAL IRMA SA",
            "country_name": "Brazil",
            "connectivity": true
        },
        {
            "lon": -67.0903,
            "lat": -8.9112,
            "school_name": "ESC SAO JOSE",
            "country_name": "Brazil",
            "connectivity": false
        },
        {
            "lon": -68.4107,
            "lat": -6.5351,
            "school_name": "ESC BOM PASTOR",
            "country_name": "Brazil",
            "connectivity": false
        },
        {
            "lon": -48.4026,
            "lat": -1.3471,
            "school_name": "EEEF MORADORES CRISTO REI",
            "country_name": "Brazil",
            "connectivity": true
        },
        {
            "lon": -50.1123,
            "lat": -1.2438,
            "school_name": "E M E F BELA VISTA RIO MAPUA",
            "country_name": "Brazil",
            "connectivity": false
        },
        {
            "lon": -46.659,
            "lat": -1.1189,
            "school_name": "E M E F MANOEL SANTANA DA COSTA",
            "country_name": "Brazil",
            "connectivity": false
        },
        {
            "lon": -45.7339,
            "lat": -4.2932,
            "school_name": "UE SAO JOSE",
            "country_name": "Brazil",
            "connectivity": false
        },
        {
            "lon": -45.0374,
            "lat": -4.205,
            "school_name": "UNIDADE ESCOLAR ADELINO CARVALHO",
            "country_name": "Brazil",
            "connectivity": false
        },
        {
            "lon": -44.8693,
            "lat": -5.9097,
            "school_name": "ESCOLA MUNICIPAL DE EDUCACAO BASICA TEREZA GOMES DE ANDRADE",
            "country_name": "Brazil",
            "connectivity": false
        },
        {
            "lon": -43.2887,
            "lat": -3.6146,
            "school_name": "COL APOLONIO GOMES FERREIRA",
            "country_name": "Brazil",
            "connectivity": false
        },
        {
            "lon": -43.6981,
            "lat": -4.1776,
            "school_name": "UE NOSSA SENHORA DO CARMO",
            "country_name": "Brazil",
            "connectivity": false
        },
        {
            "lon": -43.1922,
            "lat": -5.5203,
            "school_name": "UE PE DELFINO",
            "country_name": "Brazil",
            "connectivity": true
        },
        {
            "lon": -46.025,
            "lat": -4.1025,
            "school_name": "EM CENTRO DO VIDAL",
            "country_name": "Brazil",
            "connectivity": false
        },
        {
            "lon": -47.4782,
            "lat": -5.5191,
            "school_name": "CRECHE MUNICIPAL MUNDO INFANTIL",
            "country_name": "Brazil",
            "connectivity": false
        },
        {
            "lon": -42.8329,
            "lat": -4.9948,
            "school_name": "CENTRO MUNICIPAL DE EDUCACAO INFANTIL PROFESSORA HILDA MARIA LEMOS DOS SANTOS E SILVA",
            "country_name": "Brazil",
            "connectivity": true
        },
        {
            "lon": -42.7446,
            "lat": -5.0707,
            "school_name": "CENTRO MUNICIPAL DE EDUCACAO INFANTIL PROFESSOR JULIO CESAR ARAUJO DE OLIVEIRA",
            "country_name": "Brazil",
            "connectivity": false
        },
        {
            "lon": -39.582,
            "lat": -3.5056,
            "school_name": "MARIA DALVA BARBOSA AZEVEDO EEB",
            "country_name": "Brazil",
            "connectivity": true
        },
        {
            "lon": -40.2385,
            "lat": -5.3773,
            "school_name": "JOSE SOARES DA SILVA EEF",
            "country_name": "Brazil",
            "connectivity": false
        },
        {
            "lon": -38.5897,
            "lat": -3.8003,
            "school_name": "EEFM SAO JOSE",
            "country_name": "Brazil",
            "connectivity": true
        },
        {
            "lon": -36.5733,
            "lat": -10.2841,
            "school_name": "CRECHE - ESCOLA MUNICIPAL VOVO JUDITH",
            "country_name": "Brazil",
            "connectivity": true
        },
        {
            "lon": -38.6271,
            "lat": -7.4996,
            "school_name": "EMEF JOSE ANTONIO DA COSTA",
            "country_name": "Brazil",
            "connectivity": false
        },
        {
            "lon": -34.8854,
            "lat": -7.1251,
            "school_name": "EEEF IRMA SEVERINA CAVALCANTE SOUTO",
            "country_name": "Brazil",
            "connectivity": true
        },
        {
            "lon": -40.4956,
            "lat": -7.5679,
            "school_name": "ESCOLA MUNICIPAL DO IRACEMA",
            "country_name": "Brazil",
            "connectivity": true
        },
        {
            "lon": -50.7367,
            "lat": -8.3659,
            "school_name": "E M E F ROMUALDO AZEVEDO LOBATO",
            "country_name": "Brazil",
            "connectivity": true
        },
        {
            "lon": -35.7307,
            "lat": -8.4727,
            "school_name": "GRUPO ESCOLAR JOSE PIAUILINO DE MELO",
            "country_name": "Brazil",
            "connectivity": false
        },
        {
            "lon": -38.5989,
            "lat": -10.0083,
            "school_name": "ESC MUNICIPAL DE AGUA BRANCA",
            "country_name": "Brazil",
            "connectivity": false
        },
        {
            "lon": -38.2815,
            "lat": -10.6773,
            "school_name": "EMEIEF RUI BARBOSA",
            "country_name": "Brazil",
            "connectivity": true
        },
        {
            "lon": -42.3359,
            "lat": -12.2531,
            "school_name": "ESCOLA MUNICIPAL LUIZ VIANA FILHO",
            "country_name": "Brazil",
            "connectivity": false
        },
        {
            "lon": -44.2697,
            "lat": -21.7389,
            "school_name": "EM DE CACONDE",
            "country_name": "Brazil",
            "connectivity": false
        },
        {
            "lon": -44.7642,
            "lat": -20.4421,
            "school_name": "ESCOLA MUNICIPAL CORONEL JOAQUIM DA SILVA GUIMARAES",
            "country_name": "Brazil",
            "connectivity": true
        },
        {
            "lon": -44.7636,
            "lat": -22.0487,
            "school_name": "EE JOAQUIM ALVARENGA MACIEL",
            "country_name": "Brazil",
            "connectivity": true
        },
        {
            "lon": -43.7995,
            "lat": -20.2502,
            "school_name": "PRE-ESCOLA MUNICIPAL CINDERELA",
            "country_name": "Brazil",
            "connectivity": false
        },
        {
            "lon": -41.1101,
            "lat": -16.1702,
            "school_name": "ESCOLA MUNICIPAL CRAUNO",
            "country_name": "Brazil",
            "connectivity": true
        },
        {
            "lon": -40.7584,
            "lat": -19.9786,
            "school_name": "EMUEF SERRA DO GELO",
            "country_name": "Brazil",
            "connectivity": false
        },
        {
            "lon": -41.583,
            "lat": -20.2901,
            "school_name": "EU MUL TAQUARA PRETA",
            "country_name": "Brazil",
            "connectivity": false
        },
        {
            "lon": -41.0117,
            "lat": -8.513,
            "school_name": "ESCOLA DE REFERENCIA EM ENSINO MEDIO PROFESSORA IRENE MARIA RAMOS COELHO",
            "country_name": "Brazil",
            "connectivity": true
        },
        {
            "lon": -53.4989,
            "lat": -28.2928,
            "school_name": "ESC EST ENS MED PINDORAMA",
            "country_name": "Brazil",
            "connectivity": true
        },
        {
            "lon": -46.4278,
            "lat": -24.0027,
            "school_name": "JOSE JULIO MARTINS BAPTISTA ESCOLA MUNICIPAL",
            "country_name": "Brazil",
            "connectivity": true
        },
        {
            "lon": -47.9289,
            "lat": -22.5592,
            "school_name": "ONDINA MENDES PARREIRA PROFA EMEB",
            "country_name": "Brazil",
            "connectivity": false
        },
        {
            "lon": -48.7998,
            "lat": -24.1175,
            "school_name": "PEDRO LIBERATO DE ASSIS ESCOLA MUNICIPAL",
            "country_name": "Brazil",
            "connectivity": true
        },
        {
            "lon": -46.6558,
            "lat": -23.6728,
            "school_name": "CEI DIRET VILA IMPERIO",
            "country_name": "Brazil",
            "connectivity": true
        },
        {
            "lon": -48.2347,
            "lat": -21.3683,
            "school_name": "FRANCISCO ANTONIO LOUZADA EMEB",
            "country_name": "Brazil",
            "connectivity": true
        },
        {
            "lon": -39.5059,
            "lat": -13.3112,
            "school_name": "ESCOLA AURELINO BARRETO",
            "country_name": "Brazil",
            "connectivity": true
        },
        {
            "lon": -48.107,
            "lat": -21.7404,
            "school_name": "THEREZA QUADRADO BARBIERI CENTRO DE EDUCACAO E RECREACAO",
            "country_name": "Brazil",
            "connectivity": true
        },
        {
            "lon": -53.4677,
            "lat": -24.6427,
            "school_name": "RIO BRANCO E M EI EF",
            "country_name": "Brazil",
            "connectivity": true
        },
        {
            "lon": -41.7926,
            "lat": -11.4846,
            "school_name": "ESCOLA MUNICIPAL OSORIO JOSE DA SILVA",
            "country_name": "Brazil",
            "connectivity": true
        },
        {
            "lon": -49.0585,
            "lat": -26.4849,
            "school_name": "CMEI FRANCIANE RAMOS",
            "country_name": "Brazil",
            "connectivity": true
        },
        {
            "lon": -53.3314,
            "lat": -26.5348,
            "school_name": "UD DE ANCHIETA",
            "country_name": "Brazil",
            "connectivity": false
        },
        {
            "lon": -53.0403,
            "lat": -31.0262,
            "school_name": "ESC MUN ENS FUN ANTENOR ELIAS DE MATOS",
            "country_name": "Brazil",
            "connectivity": false
        },
        {
            "lon": -49.1346,
            "lat": -25.4736,
            "school_name": "ALGATE LICKFELD MAUS C E PROFA EF M",
            "country_name": "Brazil",
            "connectivity": true
        },
        {
            "lon": -43.2972,
            "lat": -16.5782,
            "school_name": "EE PROFESSORA NITA NASSAU",
            "country_name": "Brazil",
            "connectivity": true
        },
        {
            "lon": -46.8334,
            "lat": -23.5559,
            "school_name": "VILA DIRCE II",
            "country_name": "Brazil",
            "connectivity": true
        },
        {
            "lon": -46.3709,
            "lat": -20.3282,
            "school_name": "EE SAO FRANCISCO",
            "country_name": "Brazil",
            "connectivity": true
        },
        {
            "lon": -48.8519,
            "lat": -24.4288,
            "school_name": "AMBROSINA DE OLIVEIRA MATTOS PROFA",
            "country_name": "Brazil",
            "connectivity": true
        },
        {
            "lon": -47.3887,
            "lat": -22.3666,
            "school_name": "CESAR LACERDA DE VERGUEIRO SENADOR",
            "country_name": "Brazil",
            "connectivity": true
        },
        {
            "lon": -51.0748,
            "lat": -6.7598,
            "school_name": "E M E I MARIA SANTANA CABRAL",
            "country_name": "Brazil",
            "connectivity": true
        },
        {
            "lon": -49.3117,
            "lat": -16.6095,
            "school_name": "CENTRO DE ENSINO EM PERIODO INTEGRAL PROFESSOR GENESCO FERREIRA BRETAS",
            "country_name": "Brazil",
            "connectivity": true
        },
        {
            "lon": -44.5352,
            "lat": -1.9976,
            "school_name": "CENTRO DE ENSINO PEDRO NEIVA DE SANTANA",
            "country_name": "Brazil",
            "connectivity": true
        },
        {
            "lon": -38.7688,
            "lat": -7.3805,
            "school_name": "EEEP PADRE JOAO BOSCO LIMA",
            "country_name": "Brazil",
            "connectivity": true
        },
        {
            "lon": -40.4349,
            "lat": -13.4438,
            "school_name": "ESCOLA OTAVIO MANGABEIRA",
            "country_name": "Brazil",
            "connectivity": true
        },
        {
            "lon": -54.2375,
            "lat": -24.0876,
            "school_name": "TAMANDARE E M ALM EI EF",
            "country_name": "Brazil",
            "connectivity": true
        },
        {
            "lon": -42.61,
            "lat": -5.5636,
            "school_name": "CRECHE MUNICIPAL BELINHA FACANHA",
            "country_name": "Brazil",
            "connectivity": true
        },
        {
            "lon": -36.8318,
            "lat": -5.3376,
            "school_name": "ESCOLA ESTADUAL ALCIDES WANDERLEY",
            "country_name": "Brazil",
            "connectivity": true
        }
    ],
    "num_countries": 11,
    "countries": [
        "Brazil",
        "Colombia",
        "Costa Rica",
        "Honduras",
        "Kazakhstan",
        "Kyrgyzstan",
        "Namibia",
        "Palestine",
        "Philippines",
        "Sierra Leone",
        "Zimbabwe"
    ],
    "schools_no_data": [
        {
            "lon": 25.8739675,
            "lat": -24.6512318,
            "school_name": "Mophane (RPC)",
            "country_name": "Botswana",
            "connectivity": false
        },
        {
            "lon": 13.6548388,
            "lat": 9.3975596,
            "school_name": "Ecole Publique de Badjouma Centre",
            "country_name": "Cameroon",
            "connectivity": false
        },
        {
            "lon": 22.2792595,
            "lat": 44.2241355,
            "school_name": "\u0411\u0440\u0430\u043d\u043a\u043e \u0420\u0430\u0434\u0438\u0447\u0435\u0432\u0438\u045b",
            "country_name": "Serbia",
            "connectivity": false
        },
        {
            "lon": 9.6837723,
            "lat": 4.036073,
            "school_name": "\u00c9cole Petit Joss",
            "country_name": "Cameroon",
            "connectivity": false
        },
        {
            "lon": 28.29646,
            "lat": -15.43304,
            "school_name": "KAMWALA SECONDARY",
            "country_name": "Zambia",
            "connectivity": false
        },
        {
            "lon": -10.198053,
            "lat": 6.69091,
            "school_name": "Woody Foundation",
            "country_name": "Liberia",
            "connectivity": false
        },
        {
            "lon": -8.44456,
            "lat": 6.825433,
            "school_name": "Fahnmieplay Public School",
            "country_name": "Liberia",
            "connectivity": false
        },
        {
            "lon": 18.29105313,
            "lat": -0.6646651,
            "school_name": "INST NIONI",
            "country_name": "Democratic Republic of the Congo",
            "connectivity": false
        },
        {
            "lon": 33.40360223,
            "lat": 16.7155613,
            "school_name": "Name unknown",
            "country_name": "Sudan",
            "connectivity": false
        },
        {
            "lon": 33.4551612166667,
            "lat": 14.8267200833333,
            "school_name": "Name unknown",
            "country_name": "Sudan",
            "connectivity": false
        },
        {
            "lon": 33.0260765166667,
            "lat": 15.2482937333333,
            "school_name": "Name unknown",
            "country_name": "Sudan",
            "connectivity": false
        },
        {
            "lon": 32.9806735833333,
            "lat": 14.2167618333333,
            "school_name": "Name unknown",
            "country_name": "Sudan",
            "connectivity": false
        },
        {
            "lon": 32.71942805,
            "lat": 13.8493511666667,
            "school_name": "Name unknown",
            "country_name": "Sudan",
            "connectivity": false
        },
        {
            "lon": 32.35986662,
            "lat": 14.85878458,
            "school_name": "Name unknown",
            "country_name": "Sudan",
            "connectivity": false
        },
        {
            "lon": 32.44078043,
            "lat": 13.86450772,
            "school_name": "Name unknown",
            "country_name": "Sudan",
            "connectivity": false
        },
        {
            "lon": 28.41303783,
            "lat": 12.68573062,
            "school_name": "Name unknown",
            "country_name": "Sudan",
            "connectivity": false
        },
        {
            "lon": 28.8443153,
            "lat": 12.6670813,
            "school_name": "Name unknown",
            "country_name": "Sudan",
            "connectivity": false
        },
        {
            "lon": 22.80253315,
            "lat": 13.77424238,
            "school_name": "Name unknown",
            "country_name": "Sudan",
            "connectivity": false
        },
        {
            "lon": 1.0410446,
            "lat": 6.0787096,
            "school_name": "Name unknown",
            "country_name": "Ghana",
            "connectivity": false
        },
        {
            "lon": -2.8236858,
            "lat": 5.8281906,
            "school_name": "Name unknown",
            "country_name": "Ghana",
            "connectivity": false
        },
        {
            "lon": -0.7833266,
            "lat": 10.7854988,
            "school_name": "Name unknown",
            "country_name": "Ghana",
            "connectivity": false
        },
        {
            "lon": 32.02071,
            "lat": -8.93027,
            "school_name": "KALEMBE",
            "country_name": "United Republic of Tanzania",
            "connectivity": false
        },
        {
            "lon": 38.66076,
            "lat": -6.8917,
            "school_name": "MIHUGWE",
            "country_name": "United Republic of Tanzania",
            "connectivity": false
        },
        {
            "lon": 39.25135,
            "lat": -6.82652,
            "school_name": "BUGURUNI VIZIWI",
            "country_name": "United Republic of Tanzania",
            "connectivity": false
        },
        {
            "lon": 35.7289,
            "lat": -4.94951,
            "school_name": "TUNGUFU",
            "country_name": "United Republic of Tanzania",
            "connectivity": false
        },
        {
            "lon": 38.976,
            "lat": -5.14453,
            "school_name": "MARANZARA",
            "country_name": "United Republic of Tanzania",
            "connectivity": false
        },
        {
            "lon": 39.26919,
            "lat": -10.69086,
            "school_name": "MPWAPWA",
            "country_name": "United Republic of Tanzania",
            "connectivity": false
        },
        {
            "lon": 35.67807,
            "lat": -3.34178,
            "school_name": "COSTIGAN",
            "country_name": "United Republic of Tanzania",
            "connectivity": false
        },
        {
            "lon": 33.6809,
            "lat": -8.99853,
            "school_name": "KIMONDO",
            "country_name": "United Republic of Tanzania",
            "connectivity": false
        },
        {
            "lon": 35.75073,
            "lat": -6.17814,
            "school_name": "NGUJI",
            "country_name": "United Republic of Tanzania",
            "connectivity": false
        },
        {
            "lon": 33.72463,
            "lat": -2.44417,
            "school_name": "MWAMJULILA",
            "country_name": "United Republic of Tanzania",
            "connectivity": false
        },
        {
            "lon": 32.20091,
            "lat": -2.87826,
            "school_name": "NYAMALEMBO",
            "country_name": "United Republic of Tanzania",
            "connectivity": false
        },
        {
            "lon": 40.5247475,
            "lat": 0.3616964,
            "school_name": "welari Primary School",
            "country_name": "Kenya",
            "connectivity": false
        },
        {
            "lon": 1.1696,
            "lat": 6.959514,
            "school_name": "JEP TEGBE",
            "country_name": "Togo",
            "connectivity": false
        },
        {
            "lon": 1.332343,
            "lat": 8.374457,
            "school_name": "EPP MODOUKOU",
            "country_name": "Togo",
            "connectivity": false
        },
        {
            "lon": 0.591251667,
            "lat": 9.200461667,
            "school_name": "EPP DIMORI G/C",
            "country_name": "Togo",
            "connectivity": false
        },
        {
            "lon": 0.854593,
            "lat": 9.692373,
            "school_name": "EPP KPATCHIDE",
            "country_name": "Togo",
            "connectivity": false
        },
        {
            "lon": 0.133975,
            "lat": 10.829085,
            "school_name": "EPP NIOUKPOURMA G/B",
            "country_name": "Togo",
            "connectivity": false
        },
        {
            "lon": 6.520133,
            "lat": 6.282732,
            "school_name": "Name unknown",
            "country_name": "Nigeria",
            "connectivity": false
        },
        {
            "lon": 29.6248,
            "lat": -4.85602,
            "school_name": "KIHEBA",
            "country_name": "United Republic of Tanzania",
            "connectivity": false
        },
        {
            "lon": 37.66714,
            "lat": -6.76569,
            "school_name": "KIHONDA",
            "country_name": "United Republic of Tanzania",
            "connectivity": false
        },
        {
            "lon": 33.9253,
            "lat": -3.081,
            "school_name": "MWANUNUI",
            "country_name": "United Republic of Tanzania",
            "connectivity": false
        },
        {
            "lon": 33.90751492,
            "lat": -9.955833803,
            "school_name": "Maghemo DSS",
            "country_name": "Malawi",
            "connectivity": false
        },
        {
            "lon": 34.91519846,
            "lat": -14.9796251,
            "school_name": "Kapalamula",
            "country_name": "Malawi",
            "connectivity": false
        },
        {
            "lon": 33.42713622,
            "lat": -11.74244213,
            "school_name": "Yeleyele",
            "country_name": "Malawi",
            "connectivity": false
        },
        {
            "lon": 34.14536394,
            "lat": -13.98032562,
            "school_name": "Mnere Primary School",
            "country_name": "Malawi",
            "connectivity": false
        },
        {
            "lon": 24.48832371,
            "lat": 0.997508046,
            "school_name": "INSTITUT  NDJIAPANDA",
            "country_name": "Democratic Republic of the Congo",
            "connectivity": false
        },
        {
            "lon": 22.401442,
            "lat": -5.896394321,
            "school_name": "INST LUNGANDU",
            "country_name": "Democratic Republic of the Congo",
            "connectivity": false
        },
        {
            "lon": 24.862696,
            "lat": -5.579708352,
            "school_name": "INST SALOMON",
            "country_name": "Democratic Republic of the Congo",
            "connectivity": false
        },
        {
            "lon": 24.53491289,
            "lat": -5.385541463,
            "school_name": "INST MPALABA",
            "country_name": "Democratic Republic of the Congo",
            "connectivity": false
        },
        {
            "lon": 28.54022791,
            "lat": -10.24142684,
            "school_name": "INST KALAMBANGILI",
            "country_name": "Democratic Republic of the Congo",
            "connectivity": false
        },
        {
            "lon": 25.50000109,
            "lat": -10.69948925,
            "school_name": "EP KAWAYA",
            "country_name": "Democratic Republic of the Congo",
            "connectivity": false
        },
        {
            "lon": 13.85382704,
            "lat": -4.565798206,
            "school_name": "EP KILANDA",
            "country_name": "Democratic Republic of the Congo",
            "connectivity": false
        },
        {
            "lon": 12.97111111,
            "lat": -5.1727778,
            "school_name": "EP MBALA  MVUMU",
            "country_name": "Democratic Republic of the Congo",
            "connectivity": false
        },
        {
            "lon": 30.9063061,
            "lat": 3.5633831,
            "school_name": "Lunguma Primary School",
            "country_name": "South Sudan",
            "connectivity": false
        },
        {
            "lon": 19.83418465,
            "lat": 45.25003789,
            "school_name": "\u0415\u043b\u0435\u043a\u0442\u0440\u043e\u0442\u0435\u0445\u043d\u0438\u0447\u043a\u0430 \u0448\u043a\u043e\u043b\u0430 \u041c\u0438\u0445\u0430\u0458\u043b\u043e \u041f\u0443\u043f\u0438\u043d",
            "country_name": "Serbia",
            "connectivity": false
        },
        {
            "lon": -10.64779,
            "lat": 16.72451,
            "school_name": "\u0645\u062f\u0631\u0633\u0629\u0627\u0646\u0632\u064a",
            "country_name": "Mauritania",
            "connectivity": false
        },
        {
            "lon": 33.12352,
            "lat": 0.69608,
            "school_name": "KISADHAKI P/SCH",
            "country_name": "Uganda",
            "connectivity": false
        },
        {
            "lon": 34.32899,
            "lat": 1.19233,
            "school_name": "BUMATOFU PRIMARY SCHOOL",
            "country_name": "Uganda",
            "connectivity": false
        },
        {
            "lon": 34.02776,
            "lat": 0.54331,
            "school_name": "Busitema Colllege P.S.",
            "country_name": "Uganda",
            "connectivity": false
        },
        {
            "lon": 33.98905,
            "lat": 0.26248,
            "school_name": "Alupe P.S",
            "country_name": "Uganda",
            "connectivity": false
        },
        {
            "lon": 30.18111,
            "lat": 0.71311,
            "school_name": "Kibyo  Hill PS",
            "country_name": "Uganda",
            "connectivity": false
        },
        {
            "lon": 33.63999,
            "lat": 2.7067,
            "school_name": "Aninata East FAL Centre",
            "country_name": "Uganda",
            "connectivity": false
        },
        {
            "lon": 32.57623,
            "lat": 0.20946,
            "school_name": "Hillside P.S",
            "country_name": "Uganda",
            "connectivity": false
        },
        {
            "lon": 29.85064,
            "lat": -0.6331,
            "school_name": "Nyamitooma P.S.",
            "country_name": "Uganda",
            "connectivity": false
        },
        {
            "lon": 32.28885,
            "lat": 1.51814,
            "school_name": "Kyadobo P.S.",
            "country_name": "Uganda",
            "connectivity": false
        },
        {
            "lon": -64.780226,
            "lat": -16.055509,
            "school_name": "NUEVA COTOCA",
            "country_name": "Bolivia (Plurinational State of)",
            "connectivity": false
        },
        {
            "lon": 31.0203,
            "lat": -24.701,
            "school_name": "Mosipa Secondary School",
            "country_name": "South Africa",
            "connectivity": false
        },
        {
            "lon": 23.98942,
            "lat": -26.75516,
            "school_name": "Kitlanang Middle School",
            "country_name": "South Africa",
            "connectivity": false
        },
        {
            "lon": 27.09225,
            "lat": -26.72268,
            "school_name": "Mayflower Educational College",
            "country_name": "South Africa",
            "connectivity": false
        },
        {
            "lon": 23.56826,
            "lat": -27.41868,
            "school_name": "AB Kolwane Primary School",
            "country_name": "South Africa",
            "connectivity": false
        },
        {
            "lon": 18.4237,
            "lat": -33.32762,
            "school_name": "Korhaanrug Primary School",
            "country_name": "South Africa",
            "connectivity": false
        },
        {
            "lon": 27.91224,
            "lat": -25.27686,
            "school_name": "Maruatona Dikobe",
            "country_name": "South Africa",
            "connectivity": false
        },
        {
            "lon": 18.5516,
            "lat": -33.98498,
            "school_name": "Manenberg Mor Nursery School",
            "country_name": "South Africa",
            "connectivity": false
        },
        {
            "lon": 18.86612,
            "lat": -34.0784,
            "school_name": "Shalom Pre-Primary School",
            "country_name": "South Africa",
            "connectivity": false
        },
        {
            "lon": 28.10191,
            "lat": -23.567,
            "school_name": "Shongoane Primary School",
            "country_name": "South Africa",
            "connectivity": false
        },
        {
            "lon": 28.72975,
            "lat": -24.51695,
            "school_name": "BB Matlaila Public Primary School",
            "country_name": "South Africa",
            "connectivity": false
        },
        {
            "lon": 30.57628,
            "lat": -28.22043,
            "school_name": "Isibukosabasha Primary School",
            "country_name": "South Africa",
            "connectivity": false
        },
        {
            "lon": 31.00229,
            "lat": -29.85714,
            "school_name": "Mothergoose Pre School",
            "country_name": "South Africa",
            "connectivity": false
        },
        {
            "lon": 30.29662,
            "lat": -23.17947,
            "school_name": "Munwai Primary School",
            "country_name": "South Africa",
            "connectivity": false
        },
        {
            "lon": 32.60508,
            "lat": -26.90274,
            "school_name": "Mfakubheka Primary School",
            "country_name": "South Africa",
            "connectivity": false
        },
        {
            "lon": 30.90472,
            "lat": -29.87983,
            "school_name": "Queensburgh Boys Secondary School",
            "country_name": "South Africa",
            "connectivity": false
        },
        {
            "lon": 28.2303,
            "lat": -26.06266,
            "school_name": "Pokkelpens Creche",
            "country_name": "South Africa",
            "connectivity": false
        },
        {
            "lon": 28.14635,
            "lat": -25.85529,
            "school_name": "Cresta College",
            "country_name": "South Africa",
            "connectivity": false
        },
        {
            "lon": 27.99985,
            "lat": -26.0857,
            "school_name": "Swiss Hotel School",
            "country_name": "South Africa",
            "connectivity": false
        },
        {
            "lon": 28.19249,
            "lat": -26.35636,
            "school_name": "Polokegong Primary School",
            "country_name": "South Africa",
            "connectivity": false
        },
        {
            "lon": 28.39498,
            "lat": -26.30796,
            "school_name": "Zithembeni Primary School",
            "country_name": "South Africa",
            "connectivity": false
        },
        {
            "lon": 27.93838,
            "lat": -26.1664,
            "school_name": "Cosmos School",
            "country_name": "South Africa",
            "connectivity": false
        },
        {
            "lon": 28.2405,
            "lat": -26.0523,
            "school_name": "Skills Matrix The",
            "country_name": "South Africa",
            "connectivity": false
        },
        {
            "lon": 28.098,
            "lat": -26.10687,
            "school_name": "Ithute Primary School",
            "country_name": "South Africa",
            "connectivity": false
        },
        {
            "lon": 28.24853,
            "lat": -31.19403,
            "school_name": "Et Thabane Primary School",
            "country_name": "South Africa",
            "connectivity": false
        },
        {
            "lon": 28.08285,
            "lat": -26.08406,
            "school_name": "Smiley Kids - Pre School",
            "country_name": "South Africa",
            "connectivity": false
        },
        {
            "lon": 27.23483,
            "lat": -27.66473,
            "school_name": "Dru-A",
            "country_name": "South Africa",
            "connectivity": false
        },
        {
            "lon": 27.19556,
            "lat": -27.65166,
            "school_name": "Phomolong Intermediate School",
            "country_name": "South Africa",
            "connectivity": false
        },
        {
            "lon": 27.02256,
            "lat": -31.58807,
            "school_name": "Tsembeyi Primary School",
            "country_name": "South Africa",
            "connectivity": false
        },
        {
            "lon": 25.52458,
            "lat": -33.94281,
            "school_name": "Smiley Kids",
            "country_name": "South Africa",
            "connectivity": false
        },
        {
            "lon": 26.15232,
            "lat": -29.04657,
            "school_name": "Curro Bloemfontein",
            "country_name": "South Africa",
            "connectivity": false
        },
        {
            "lon": 26.70145,
            "lat": -27.87255,
            "school_name": "TS Matlaletsa Primary School",
            "country_name": "South Africa",
            "connectivity": false
        },
        {
            "lon": 28.53504,
            "lat": -30.9971,
            "school_name": "Hlangalane Junior Secondary School",
            "country_name": "South Africa",
            "connectivity": false
        },
        {
            "lon": 29.01202,
            "lat": -31.76811,
            "school_name": "Manzimahle Senior Primary School",
            "country_name": "South Africa",
            "connectivity": false
        },
        {
            "lon": -60.25137,
            "lat": -34.61564,
            "school_name": "ESCUELA PRIMARIA N\u00ba30 SAN PATRICIO",
            "country_name": "Argentina",
            "connectivity": false
        },
        {
            "lon": -57.3784537,
            "lat": -37.0895031,
            "school_name": "ESCUELA PRIMARIA N\u00ba13 BARTOLOME MITRE",
            "country_name": "Argentina",
            "connectivity": false
        },
        {
            "lon": -58.85840957,
            "lat": -38.06705851,
            "school_name": "ESCUELA PRIMARIA N\u00ba23 PARAJE EL LENGUARAZ",
            "country_name": "Argentina",
            "connectivity": false
        },
        {
            "lon": -58.2164927,
            "lat": -37.8152465,
            "school_name": "ESCUELA PRIMARIA N\u00ba12 CAROLINA M. BORGHI",
            "country_name": "Argentina",
            "connectivity": false
        },
        {
            "lon": -58.25232067,
            "lat": -34.71976288,
            "school_name": "INSTITUTO MANUEL BELGRANO",
            "country_name": "Argentina",
            "connectivity": false
        },
        {
            "lon": -60.56931716,
            "lat": -33.90661232,
            "school_name": "ESCUELA ESPECIAL N\u00ba502 DR. OVIDIO DECROLY",
            "country_name": "Argentina",
            "connectivity": false
        },
        {
            "lon": -58.19202871,
            "lat": -34.87243289,
            "school_name": "CENTRO DE ADULTOS N\u00ba706(NO NUCLEADO)",
            "country_name": "Argentina",
            "connectivity": false
        },
        {
            "lon": -59.11934645,
            "lat": -37.33481041,
            "school_name": "ESCUELA PRIMARIA N\u00ba53 COMANDANTE DON EDUARDO OLIVERA",
            "country_name": "Argentina",
            "connectivity": false
        },
        {
            "lon": -57.9399991,
            "lat": -34.9346442,
            "school_name": "INSTITUTO DE ENSE\u00d1ANZA",
            "country_name": "Argentina",
            "connectivity": false
        },
        {
            "lon": -61.1862578,
            "lat": -27.21506147,
            "school_name": "U.E.P. N\u00ba 15-INSTITUTO PRIVADO CHACO",
            "country_name": "Argentina",
            "connectivity": false
        },
        {
            "lon": -58.99997018,
            "lat": -27.43802951,
            "school_name": "PRIM.ADULTOS N\u00ba 28",
            "country_name": "Argentina",
            "connectivity": false
        },
        {
            "lon": -61.98941234,
            "lat": -24.25465342,
            "school_name": "E.E.P. N\u00ba 852",
            "country_name": "Argentina",
            "connectivity": false
        },
        {
            "lon": -63.54454713,
            "lat": -30.04917014,
            "school_name": "MARIA EVA BARIZONE",
            "country_name": "Argentina",
            "connectivity": false
        },
        {
            "lon": -63.95340394,
            "lat": -31.25624481,
            "school_name": "J.DE INF. GRUPO DE ARTILL.AEROTRANSPORTADO 4 - ANEXO COLONIA LOS ALGARROBOS",
            "country_name": "Argentina",
            "connectivity": false
        },
        {
            "lon": -77.1375,
            "lat": -11.8769,
            "school_name": "MIS DULCES PASITOS",
            "country_name": "Peru",
            "connectivity": false
        },
        {
            "lon": -58.78192252,
            "lat": -27.49354565,
            "school_name": "ESCUELA JARDIN DE INFANTES N\u00ba 37 ISONDU",
            "country_name": "Argentina",
            "connectivity": false
        },
        {
            "lon": -58.07819543,
            "lat": -29.18740133,
            "school_name": "J.I.N. N\u00ba 9 (SEDE) ESCUELA N\u00ba 83",
            "country_name": "Argentina",
            "connectivity": false
        },
        {
            "lon": -58.66010082,
            "lat": -33.71660342,
            "school_name": "INSTITUTO SUPERIOR DE FORMACION DOCENTE CONTINUA",
            "country_name": "Argentina",
            "connectivity": false
        },
        {
            "lon": -58.00634773,
            "lat": -31.39642743,
            "school_name": "CONCORDIA ESPECIAL 1",
            "country_name": "Argentina",
            "connectivity": false
        },
        {
            "lon": -60.15941448,
            "lat": -32.62551997,
            "school_name": "PRIV. INSTITUTO JOHN F. KENNEDY",
            "country_name": "Argentina",
            "connectivity": false
        },
        {
            "lon": -59.2810003,
            "lat": -31.98454161,
            "school_name": "JUAN BAUTISTA ALBERDI 35",
            "country_name": "Argentina",
            "connectivity": false
        },
        {
            "lon": -59.64493942,
            "lat": -30.74776694,
            "school_name": "JOSE DE SAN MARTIN 1",
            "country_name": "Argentina",
            "connectivity": false
        },
        {
            "lon": -57.9547994,
            "lat": -31.26813624,
            "school_name": "SERVICIO DOMICILIARIO HOSPITALARIO",
            "country_name": "Argentina",
            "connectivity": false
        },
        {
            "lon": -58.98890113,
            "lat": -33.15450509,
            "school_name": "ESCUELA SECUNDARIA 23",
            "country_name": "Argentina",
            "connectivity": false
        },
        {
            "lon": -58.66393112,
            "lat": -25.47243174,
            "school_name": "CBOSR EPEP N\u00b0 236",
            "country_name": "Argentina",
            "connectivity": false
        },
        {
            "lon": -76.1901,
            "lat": -10.4417,
            "school_name": "35003 MARIANO MELGAR",
            "country_name": "Peru",
            "connectivity": false
        },
        {
            "lon": -64.95855298,
            "lat": -24.49944307,
            "school_name": "CENTRO EDUCATIVO DE TERMINALIDAD PRIMARIA N 67",
            "country_name": "Argentina",
            "connectivity": false
        },
        {
            "lon": -68.84352393,
            "lat": -32.92586602,
            "school_name": "ESCUELA ARTISTICA 5-007 JULIAN AGUIRRE",
            "country_name": "Argentina",
            "connectivity": false
        },
        {
            "lon": -55.31983974,
            "lat": -27.59859432,
            "school_name": "B.O.P. N\u00b0 50",
            "country_name": "Argentina",
            "connectivity": false
        },
        {
            "lon": -55.02909009,
            "lat": -26.81751964,
            "school_name": "E.P.E.T. N\u00b0 10- PUERTO RICO",
            "country_name": "Argentina",
            "connectivity": false
        },
        {
            "lon": -63.91784506,
            "lat": -27.93676525,
            "school_name": "COLEGIO SECUNDARIO NTRA.SRA.DEL ROSARIO",
            "country_name": "Argentina",
            "connectivity": false
        },
        {
            "lon": -64.54365708,
            "lat": -27.60805727,
            "school_name": "ESCUELA N\u00b0 510",
            "country_name": "Argentina",
            "connectivity": false
        },
        {
            "lon": -63.97798,
            "lat": -28.23681,
            "school_name": "ESCUELA N\u00ba873",
            "country_name": "Argentina",
            "connectivity": false
        },
        {
            "lon": 7.33005,
            "lat": 5.08602,
            "school_name": "Name unknown",
            "country_name": "Nigeria",
            "connectivity": false
        },
        {
            "lon": 7.64881,
            "lat": 5.684314,
            "school_name": "Name unknown",
            "country_name": "Nigeria",
            "connectivity": false
        },
        {
            "lon": 7.290286309,
            "lat": 5.243635172,
            "school_name": "Name unknown",
            "country_name": "Nigeria",
            "connectivity": false
        },
        {
            "lon": 7.280848333,
            "lat": 5.925778333,
            "school_name": "Name unknown",
            "country_name": "Nigeria",
            "connectivity": false
        },
        {
            "lon": 7.3899,
            "lat": 5.95401,
            "school_name": "Name unknown",
            "country_name": "Nigeria",
            "connectivity": false
        },
        {
            "lon": 14.10909312,
            "lat": 11.30691295,
            "school_name": "Name unknown",
            "country_name": "Nigeria",
            "connectivity": false
        },
        {
            "lon": 13.95771716,
            "lat": 11.60822909,
            "school_name": "Name unknown",
            "country_name": "Nigeria",
            "connectivity": false
        },
        {
            "lon": 8.16449,
            "lat": 6.693156,
            "school_name": "Name unknown",
            "country_name": "Nigeria",
            "connectivity": false
        },
        {
            "lon": 8.2547933,
            "lat": 6.020045,
            "school_name": "Name unknown",
            "country_name": "Nigeria",
            "connectivity": false
        },
        {
            "lon": 8.009905,
            "lat": 6.681745,
            "school_name": "Name unknown",
            "country_name": "Nigeria",
            "connectivity": false
        },
        {
            "lon": 8.09125,
            "lat": 6.49196,
            "school_name": "Name unknown",
            "country_name": "Nigeria",
            "connectivity": false
        },
        {
            "lon": 6.47246,
            "lat": 6.741373,
            "school_name": "Name unknown",
            "country_name": "Nigeria",
            "connectivity": false
        },
        {
            "lon": 5.923428,
            "lat": 7.01709,
            "school_name": "Name unknown",
            "country_name": "Nigeria",
            "connectivity": false
        },
        {
            "lon": 7.59449,
            "lat": 6.115309,
            "school_name": "Name unknown",
            "country_name": "Nigeria",
            "connectivity": false
        },
        {
            "lon": 7.525604,
            "lat": 6.433093,
            "school_name": "Name unknown",
            "country_name": "Nigeria",
            "connectivity": false
        },
        {
            "lon": 7.504651,
            "lat": 6.381834,
            "school_name": "Name unknown",
            "country_name": "Nigeria",
            "connectivity": false
        },
        {
            "lon": 7.491573,
            "lat": 6.407156,
            "school_name": "Name unknown",
            "country_name": "Nigeria",
            "connectivity": false
        },
        {
            "lon": 7.538194,
            "lat": 6.317919,
            "school_name": "Name unknown",
            "country_name": "Nigeria",
            "connectivity": false
        },
        {
            "lon": 7.291661667,
            "lat": 6.649826667,
            "school_name": "Name unknown",
            "country_name": "Nigeria",
            "connectivity": false
        },
        {
            "lon": 11.6713,
            "lat": 9.972367,
            "school_name": "Name unknown",
            "country_name": "Nigeria",
            "connectivity": false
        },
        {
            "lon": 10.8395,
            "lat": 11.05032,
            "school_name": "Name unknown",
            "country_name": "Nigeria",
            "connectivity": false
        },
        {
            "lon": -76.9106,
            "lat": -6.33716,
            "school_name": "00917 ELIAS AGUIRRE ROMERO",
            "country_name": "Peru",
            "connectivity": false
        },
        {
            "lon": -76.6503,
            "lat": -6.8992,
            "school_name": "0215 VALENTIN PANIAGUA CORAZAO",
            "country_name": "Peru",
            "connectivity": false
        },
        {
            "lon": -77.0038,
            "lat": -12.0606,
            "school_name": "047 SE\u00d1OR DE LOS MILAGROS",
            "country_name": "Peru",
            "connectivity": false
        },
        {
            "lon": -76.3299,
            "lat": -6.1559,
            "school_name": "741",
            "country_name": "Peru",
            "connectivity": false
        },
        {
            "lon": -78.722,
            "lat": -6.59286,
            "school_name": "101111",
            "country_name": "Peru",
            "connectivity": false
        },
        {
            "lon": -75.1258,
            "lat": -4.30159,
            "school_name": "1019",
            "country_name": "Peru",
            "connectivity": false
        },
        {
            "lon": -78.2627,
            "lat": -7.68732,
            "school_name": "1115",
            "country_name": "Peru",
            "connectivity": false
        },
        {
            "lon": -76.5539,
            "lat": -8.25467,
            "school_name": "1126",
            "country_name": "Peru",
            "connectivity": false
        },
        {
            "lon": -76.2916,
            "lat": -10.3429,
            "school_name": "117",
            "country_name": "Peru",
            "connectivity": false
        },
        {
            "lon": -79.0278,
            "lat": -5.32767,
            "school_name": "1290",
            "country_name": "Peru",
            "connectivity": false
        },
        {
            "lon": -79.7864,
            "lat": -4.5509,
            "school_name": "14286",
            "country_name": "Peru",
            "connectivity": false
        },
        {
            "lon": -79.8405,
            "lat": -4.53369,
            "school_name": "14293",
            "country_name": "Peru",
            "connectivity": false
        },
        {
            "lon": -80.5422,
            "lat": -4.54627,
            "school_name": "14815",
            "country_name": "Peru",
            "connectivity": false
        },
        {
            "lon": -77.9065,
            "lat": -7.91122,
            "school_name": "1617",
            "country_name": "Peru",
            "connectivity": false
        },
        {
            "lon": -78.9269,
            "lat": -5.22608,
            "school_name": "16635",
            "country_name": "Peru",
            "connectivity": false
        },
        {
            "lon": -79.4779,
            "lat": -5.43989,
            "school_name": "20083",
            "country_name": "Peru",
            "connectivity": false
        },
        {
            "lon": -76.743,
            "lat": -10.9301,
            "school_name": "20091 SAN MARTIN DE PORRES",
            "country_name": "Peru",
            "connectivity": false
        },
        {
            "lon": -76.234,
            "lat": -12.5679,
            "school_name": "20183",
            "country_name": "Peru",
            "connectivity": false
        },
        {
            "lon": -80.4014,
            "lat": -4.8025,
            "school_name": "20524",
            "country_name": "Peru",
            "connectivity": false
        },
        {
            "lon": -77.3441,
            "lat": -5.8635,
            "school_name": "207",
            "country_name": "Peru",
            "connectivity": false
        },
        {
            "lon": -77.7658,
            "lat": -10.7409,
            "school_name": "21581 DECISION CAMPESINA",
            "country_name": "Peru",
            "connectivity": false
        },
        {
            "lon": -76.8289,
            "lat": -12.1063,
            "school_name": "219 CESAR AUGUSTO MENDOZA FALCON",
            "country_name": "Peru",
            "connectivity": false
        },
        {
            "lon": -75.5502,
            "lat": -13.2991,
            "school_name": "22077",
            "country_name": "Peru",
            "connectivity": false
        },
        {
            "lon": -74.5071,
            "lat": -11.6593,
            "school_name": "30001-109",
            "country_name": "Peru",
            "connectivity": false
        },
        {
            "lon": -74.6595,
            "lat": -11.184,
            "school_name": "30001-55",
            "country_name": "Peru",
            "connectivity": false
        },
        {
            "lon": -75.2874,
            "lat": -12.069,
            "school_name": "30072",
            "country_name": "Peru",
            "connectivity": false
        },
        {
            "lon": -76.1887,
            "lat": -9.9891,
            "school_name": "33317",
            "country_name": "Peru",
            "connectivity": false
        },
        {
            "lon": -75.9277,
            "lat": -9.9416,
            "school_name": "33346",
            "country_name": "Peru",
            "connectivity": false
        },
        {
            "lon": -79.0287,
            "lat": -8.11176,
            "school_name": "ARI INSTITUTE",
            "country_name": "Peru",
            "connectivity": false
        },
        {
            "lon": -71.5127,
            "lat": -16.382,
            "school_name": "40156 NUESTRA SE\u00d1ORA DEL CARMEN",
            "country_name": "Peru",
            "connectivity": false
        },
        {
            "lon": -77.3872,
            "lat": -9.15295,
            "school_name": "409 ANGELITOS DE SAN MIGUEL",
            "country_name": "Peru",
            "connectivity": false
        },
        {
            "lon": -70.2428,
            "lat": -18.0329,
            "school_name": "42256 ESPERANZA MARTINEZ DE LOPEZ",
            "country_name": "Peru",
            "connectivity": false
        },
        {
            "lon": -70.4252,
            "lat": -14.7857,
            "school_name": "46",
            "country_name": "Peru",
            "connectivity": false
        },
        {
            "lon": -79.9167,
            "lat": -6.8784,
            "school_name": "539",
            "country_name": "Peru",
            "connectivity": false
        },
        {
            "lon": -73.6977,
            "lat": -13.3903,
            "school_name": "54534",
            "country_name": "Peru",
            "connectivity": false
        },
        {
            "lon": 3.50959,
            "lat": 6.55173,
            "school_name": "Name unknown",
            "country_name": "Nigeria",
            "connectivity": false
        },
        {
            "lon": -70.3282,
            "lat": -13.7976,
            "school_name": "556",
            "country_name": "Peru",
            "connectivity": false
        },
        {
            "lon": -76.4513,
            "lat": -5.33006,
            "school_name": "62357",
            "country_name": "Peru",
            "connectivity": false
        },
        {
            "lon": -69.346,
            "lat": -16.2651,
            "school_name": "70231",
            "country_name": "Peru",
            "connectivity": false
        },
        {
            "lon": -77.206,
            "lat": -8.88771,
            "school_name": "CLORINDA MATTO DE TURNER DE PUMPA",
            "country_name": "Peru",
            "connectivity": false
        },
        {
            "lon": -74.3145,
            "lat": -4.63182,
            "school_name": "716",
            "country_name": "Peru",
            "connectivity": false
        },
        {
            "lon": -78.624,
            "lat": -6.71831,
            "school_name": "737",
            "country_name": "Peru",
            "connectivity": false
        },
        {
            "lon": -80.6761,
            "lat": -5.26554,
            "school_name": "747",
            "country_name": "Peru",
            "connectivity": false
        },
        {
            "lon": -78.6028,
            "lat": -7.6836,
            "school_name": "80874",
            "country_name": "Peru",
            "connectivity": false
        },
        {
            "lon": -77.8113,
            "lat": -7.68086,
            "school_name": "80971",
            "country_name": "Peru",
            "connectivity": false
        },
        {
            "lon": -78.539,
            "lat": -7.4436,
            "school_name": "821244",
            "country_name": "Peru",
            "connectivity": false
        },
        {
            "lon": -77.8077,
            "lat": -9.59603,
            "school_name": "86063",
            "country_name": "Peru",
            "connectivity": false
        },
        {
            "lon": -77.6724,
            "lat": -9.16813,
            "school_name": "86616 MARTIR JOSE OLAYA",
            "country_name": "Peru",
            "connectivity": false
        },
        {
            "lon": -77.0113,
            "lat": -11.983,
            "school_name": "ALEXANDER GRAHAM BELL",
            "country_name": "Peru",
            "connectivity": false
        },
        {
            "lon": -71.6046,
            "lat": -16.3135,
            "school_name": "CAMINEROS EMPLEADOS",
            "country_name": "Peru",
            "connectivity": false
        },
        {
            "lon": -75.2511,
            "lat": -12.0465,
            "school_name": "CARITAS FELICES",
            "country_name": "Peru",
            "connectivity": false
        },
        {
            "lon": -74.7339,
            "lat": -11.0834,
            "school_name": "CESAR VALLEJO",
            "country_name": "Peru",
            "connectivity": false
        },
        {
            "lon": -73.8218,
            "lat": -13.4349,
            "school_name": "CETPRO LOS CHANKAS",
            "country_name": "Peru",
            "connectivity": false
        },
        {
            "lon": -71.9455,
            "lat": -13.5311,
            "school_name": "CUISINE",
            "country_name": "Peru",
            "connectivity": false
        },
        {
            "lon": -77.1312,
            "lat": -12.0563,
            "school_name": "EL CASTILLO MAGICO DEL SABER",
            "country_name": "Peru",
            "connectivity": false
        },
        {
            "lon": -80.6741,
            "lat": -4.9045,
            "school_name": "FE Y ALEGRIA 18",
            "country_name": "Peru",
            "connectivity": false
        },
        {
            "lon": -71.54,
            "lat": -16.4056,
            "school_name": "IMC & MINCON",
            "country_name": "Peru",
            "connectivity": false
        },
        {
            "lon": -71.4937,
            "lat": -16.428,
            "school_name": "JOSE LUIS BUSTAMANTE SCHOOL",
            "country_name": "Peru",
            "connectivity": false
        },
        {
            "lon": -77.0559,
            "lat": -11.954,
            "school_name": "JOSE MARTI",
            "country_name": "Peru",
            "connectivity": false
        },
        {
            "lon": -71.3819,
            "lat": -13.6341,
            "school_name": "KUSY QOYLLOR",
            "country_name": "Peru",
            "connectivity": false
        },
        {
            "lon": 8.01336,
            "lat": 6.58068,
            "school_name": "Name unknown",
            "country_name": "Nigeria",
            "connectivity": false
        },
        {
            "lon": -79.0893,
            "lat": -5.64588,
            "school_name": "MAMI Y YO",
            "country_name": "Peru",
            "connectivity": false
        },
        {
            "lon": -73.5419,
            "lat": -14.179,
            "school_name": "MANANTIALES",
            "country_name": "Peru",
            "connectivity": false
        },
        {
            "lon": -79.8962,
            "lat": -6.8154,
            "school_name": "MARAVILLAS DE JESUS",
            "country_name": "Peru",
            "connectivity": false
        },
        {
            "lon": -74.8903,
            "lat": -12.3152,
            "school_name": "MARISCAL CACERES",
            "country_name": "Peru",
            "connectivity": false
        },
        {
            "lon": -75.218,
            "lat": -12.0592,
            "school_name": "MARISCAL CASTILLA",
            "country_name": "Peru",
            "connectivity": false
        },
        {
            "lon": -77.3515,
            "lat": -4.64791,
            "school_name": "NAKAKUY",
            "country_name": "Peru",
            "connectivity": false
        },
        {
            "lon": -76.9726,
            "lat": -11.9423,
            "school_name": "NIVEL A",
            "country_name": "Peru",
            "connectivity": false
        },
        {
            "lon": -80.6483,
            "lat": -5.18915,
            "school_name": "ROBERT FULLER",
            "country_name": "Peru",
            "connectivity": false
        },
        {
            "lon": -79.8355,
            "lat": -6.76202,
            "school_name": "SAGRADO CORAZON DE JESUS",
            "country_name": "Peru",
            "connectivity": false
        },
        {
            "lon": -71.2265,
            "lat": -14.273,
            "school_name": "SALESIANO DOMINGO SAVIO",
            "country_name": "Peru",
            "connectivity": false
        },
        {
            "lon": -74.712,
            "lat": -11.8228,
            "school_name": "SAN FERNANDO",
            "country_name": "Peru",
            "connectivity": false
        },
        {
            "lon": -75.7165,
            "lat": -14.0735,
            "school_name": "SAN NICOLAS",
            "country_name": "Peru",
            "connectivity": false
        },
        {
            "lon": -77.0068,
            "lat": -11.9929,
            "school_name": "SANTA MONICA DE LOS OPALOS",
            "country_name": "Peru",
            "connectivity": false
        },
        {
            "lon": -72.0949,
            "lat": -16.4952,
            "school_name": "SANTA RITA DE SIGUAS",
            "country_name": "Peru",
            "connectivity": false
        },
        {
            "lon": -71.5362,
            "lat": -16.4066,
            "school_name": "SANTA VICENTA MARIA",
            "country_name": "Peru",
            "connectivity": false
        },
        {
            "lon": -78.1733,
            "lat": -8.14537,
            "school_name": "SANTIAGO APOSTOL",
            "country_name": "Peru",
            "connectivity": false
        },
        {
            "lon": -79.4597,
            "lat": -5.11283,
            "school_name": "SE\u00d1OR DE LOS MILAGROS",
            "country_name": "Peru",
            "connectivity": false
        },
        {
            "lon": -71.8305,
            "lat": -13.9726,
            "school_name": "SIWINA",
            "country_name": "Peru",
            "connectivity": false
        },
        {
            "lon": -80.4252,
            "lat": -3.56439,
            "school_name": "TERESITA DE JESUS",
            "country_name": "Peru",
            "connectivity": false
        },
        {
            "lon": -77.1012,
            "lat": -12.0261,
            "school_name": "WESTNELL DE BOCANEGRA",
            "country_name": "Peru",
            "connectivity": false
        },
        {
            "lon": -71.5208,
            "lat": -16.3825,
            "school_name": "WILLIAM MORRIS",
            "country_name": "Peru",
            "connectivity": false
        },
        {
            "lon": 9.0377998,
            "lat": 12.3736067,
            "school_name": "Name unknown",
            "country_name": "Nigeria",
            "connectivity": false
        },
        {
            "lon": 7.41330182,
            "lat": 10.43403209,
            "school_name": "Name unknown",
            "country_name": "Nigeria",
            "connectivity": false
        },
        {
            "lon": 7.401641667,
            "lat": 10.507415,
            "school_name": "Name unknown",
            "country_name": "Nigeria",
            "connectivity": false
        },
        {
            "lon": 8.231152296,
            "lat": 9.772215487,
            "school_name": "Name unknown",
            "country_name": "Nigeria",
            "connectivity": false
        },
        {
            "lon": 9.001302,
            "lat": 11.85772,
            "school_name": "Name unknown",
            "country_name": "Nigeria",
            "connectivity": false
        },
        {
            "lon": 11.922952,
            "lat": 9.331874,
            "school_name": "Name unknown",
            "country_name": "Nigeria",
            "connectivity": false
        },
        {
            "lon": 8.273153,
            "lat": 12.13026,
            "school_name": "Name unknown",
            "country_name": "Nigeria",
            "connectivity": false
        },
        {
            "lon": 8.113222,
            "lat": 11.93461,
            "school_name": "Name unknown",
            "country_name": "Nigeria",
            "connectivity": false
        },
        {
            "lon": 8.144096,
            "lat": 11.858,
            "school_name": "Name unknown",
            "country_name": "Nigeria",
            "connectivity": false
        },
        {
            "lon": 8.743897,
            "lat": 11.66606,
            "school_name": "Name unknown",
            "country_name": "Nigeria",
            "connectivity": false
        },
        {
            "lon": 8.197665,
            "lat": 11.45879,
            "school_name": "Name unknown",
            "country_name": "Nigeria",
            "connectivity": false
        },
        {
            "lon": 12.734304,
            "lat": 10.16633,
            "school_name": "Name unknown",
            "country_name": "Nigeria",
            "connectivity": false
        },
        {
            "lon": 11.903565,
            "lat": 9.697797,
            "school_name": "Name unknown",
            "country_name": "Nigeria",
            "connectivity": false
        },
        {
            "lon": 12.282841,
            "lat": 9.351295,
            "school_name": "Name unknown",
            "country_name": "Nigeria",
            "connectivity": false
        },
        {
            "lon": 7.626942,
            "lat": 7.603443,
            "school_name": "Name unknown",
            "country_name": "Nigeria",
            "connectivity": false
        },
        {
            "lon": 7.06969,
            "lat": 7.701698,
            "school_name": "Name unknown",
            "country_name": "Nigeria",
            "connectivity": false
        },
        {
            "lon": 4.634624,
            "lat": 8.572933,
            "school_name": "Name unknown",
            "country_name": "Nigeria",
            "connectivity": false
        },
        {
            "lon": 4.690168,
            "lat": 8.834826,
            "school_name": "Name unknown",
            "country_name": "Nigeria",
            "connectivity": false
        },
        {
            "lon": 3.25989,
            "lat": 6.60384,
            "school_name": "Name unknown",
            "country_name": "Nigeria",
            "connectivity": false
        },
        {
            "lon": 3.5183,
            "lat": 6.68308,
            "school_name": "Name unknown",
            "country_name": "Nigeria",
            "connectivity": false
        },
        {
            "lon": 3.360013,
            "lat": 6.527702,
            "school_name": "Name unknown",
            "country_name": "Nigeria",
            "connectivity": false
        },
        {
            "lon": 3.11772,
            "lat": 6.49546,
            "school_name": "Name unknown",
            "country_name": "Nigeria",
            "connectivity": false
        },
        {
            "lon": 3.32085,
            "lat": 6.51439,
            "school_name": "Name unknown",
            "country_name": "Nigeria",
            "connectivity": false
        },
        {
            "lon": 6.38287,
            "lat": 8.66031,
            "school_name": "Name unknown",
            "country_name": "Nigeria",
            "connectivity": false
        },
        {
            "lon": 7.159737,
            "lat": 4.861565,
            "school_name": "Name unknown",
            "country_name": "Nigeria",
            "connectivity": false
        },
        {
            "lon": 6.148630125,
            "lat": 8.992026823,
            "school_name": "Name unknown",
            "country_name": "Nigeria",
            "connectivity": false
        },
        {
            "lon": 5.305489898,
            "lat": 10.32679975,
            "school_name": "Name unknown",
            "country_name": "Nigeria",
            "connectivity": false
        },
        {
            "lon": 5.481336423,
            "lat": 9.138735159,
            "school_name": "Name unknown",
            "country_name": "Nigeria",
            "connectivity": false
        },
        {
            "lon": 3.00438332,
            "lat": 6.88745574,
            "school_name": "Name unknown",
            "country_name": "Nigeria",
            "connectivity": false
        },
        {
            "lon": 3.261093333,
            "lat": 6.750595,
            "school_name": "Name unknown",
            "country_name": "Nigeria",
            "connectivity": false
        },
        {
            "lon": 2.84467333,
            "lat": 6.51501879,
            "school_name": "Name unknown",
            "country_name": "Nigeria",
            "connectivity": false
        },
        {
            "lon": 4.587709,
            "lat": 6.471854,
            "school_name": "Name unknown",
            "country_name": "Nigeria",
            "connectivity": false
        },
        {
            "lon": 4.78891,
            "lat": 6.49116,
            "school_name": "Name unknown",
            "country_name": "Nigeria",
            "connectivity": false
        },
        {
            "lon": 4.74189,
            "lat": 6.583411,
            "school_name": "Name unknown",
            "country_name": "Nigeria",
            "connectivity": false
        },
        {
            "lon": 7.80578,
            "lat": 4.98197,
            "school_name": "Name unknown",
            "country_name": "Nigeria",
            "connectivity": false
        },
        {
            "lon": 4.665458,
            "lat": 7.226095,
            "school_name": "Name unknown",
            "country_name": "Nigeria",
            "connectivity": false
        },
        {
            "lon": 4.177804,
            "lat": 7.327368,
            "school_name": "Name unknown",
            "country_name": "Nigeria",
            "connectivity": false
        },
        {
            "lon": 4.48854,
            "lat": 7.865173,
            "school_name": "Name unknown",
            "country_name": "Nigeria",
            "connectivity": false
        },
        {
            "lon": 7.816928,
            "lat": 4.78358,
            "school_name": "Name unknown",
            "country_name": "Nigeria",
            "connectivity": false
        },
        {
            "lon": 7.722793,
            "lat": 5.189538,
            "school_name": "Name unknown",
            "country_name": "Nigeria",
            "connectivity": false
        },
        {
            "lon": 3.757179,
            "lat": 7.467121,
            "school_name": "Name unknown",
            "country_name": "Nigeria",
            "connectivity": false
        },
        {
            "lon": 3.945846,
            "lat": 7.349821,
            "school_name": "Name unknown",
            "country_name": "Nigeria",
            "connectivity": false
        },
        {
            "lon": 3.618939,
            "lat": 8.62203,
            "school_name": "Name unknown",
            "country_name": "Nigeria",
            "connectivity": false
        },
        {
            "lon": 3.600099,
            "lat": 8.693201,
            "school_name": "Name unknown",
            "country_name": "Nigeria",
            "connectivity": false
        },
        {
            "lon": 8.813859,
            "lat": 9.062621,
            "school_name": "Name unknown",
            "country_name": "Nigeria",
            "connectivity": false
        },
        {
            "lon": 8.88822,
            "lat": 9.89086,
            "school_name": "Name unknown",
            "country_name": "Nigeria",
            "connectivity": false
        },
        {
            "lon": 9.94206,
            "lat": 9.23165,
            "school_name": "Name unknown",
            "country_name": "Nigeria",
            "connectivity": false
        },
        {
            "lon": 9.343683,
            "lat": 9.428932,
            "school_name": "Name unknown",
            "country_name": "Nigeria",
            "connectivity": false
        },
        {
            "lon": 11.3402658,
            "lat": 6.705246547,
            "school_name": "Name unknown",
            "country_name": "Nigeria",
            "connectivity": false
        },
        {
            "lon": 9.931758,
            "lat": 7.125519,
            "school_name": "Name unknown",
            "country_name": "Nigeria",
            "connectivity": false
        },
        {
            "lon": 6.775705,
            "lat": 6.154543,
            "school_name": "Name unknown",
            "country_name": "Nigeria",
            "connectivity": false
        },
        {
            "lon": 6.7832,
            "lat": 6.14256,
            "school_name": "Name unknown",
            "country_name": "Nigeria",
            "connectivity": false
        },
        {
            "lon": 7.20286071,
            "lat": 11.33579018,
            "school_name": "Name unknown",
            "country_name": "Nigeria",
            "connectivity": false
        },
        {
            "lon": 7.35393184,
            "lat": 11.95541877,
            "school_name": "Name unknown",
            "country_name": "Nigeria",
            "connectivity": false
        },
        {
            "lon": 7.6055126,
            "lat": 12.20448899,
            "school_name": "Name unknown",
            "country_name": "Nigeria",
            "connectivity": false
        },
        {
            "lon": 10.17179928,
            "lat": 9.826307914,
            "school_name": "Name unknown",
            "country_name": "Nigeria",
            "connectivity": false
        },
        {
            "lon": 10.91128667,
            "lat": 9.859906667,
            "school_name": "Name unknown",
            "country_name": "Nigeria",
            "connectivity": false
        },
        {
            "lon": 10.68691804,
            "lat": 11.39243804,
            "school_name": "Name unknown",
            "country_name": "Nigeria",
            "connectivity": false
        },
        {
            "lon": 9.932692051,
            "lat": 10.93860626,
            "school_name": "Name unknown",
            "country_name": "Nigeria",
            "connectivity": false
        },
        {
            "lon": 9.03584665,
            "lat": 11.14454423,
            "school_name": "Name unknown",
            "country_name": "Nigeria",
            "connectivity": false
        },
        {
            "lon": 3.962336183,
            "lat": 12.29771912,
            "school_name": "Name unknown",
            "country_name": "Nigeria",
            "connectivity": false
        },
        {
            "lon": 4.1452626,
            "lat": 12.25680826,
            "school_name": "Name unknown",
            "country_name": "Nigeria",
            "connectivity": false
        },
        {
            "lon": 5.408697009,
            "lat": 13.37781222,
            "school_name": "Name unknown",
            "country_name": "Nigeria",
            "connectivity": false
        },
        {
            "lon": 4.804877043,
            "lat": 13.09581041,
            "school_name": "Name unknown",
            "country_name": "Nigeria",
            "connectivity": false
        },
        {
            "lon": 7.82379,
            "lat": 7.95761,
            "school_name": "Name unknown",
            "country_name": "Nigeria",
            "connectivity": false
        },
        {
            "lon": 7.829354,
            "lat": 7.346964,
            "school_name": "Name unknown",
            "country_name": "Nigeria",
            "connectivity": false
        },
        {
            "lon": 9.6674,
            "lat": 7.54818,
            "school_name": "Name unknown",
            "country_name": "Nigeria",
            "connectivity": false
        },
        {
            "lon": 11.45871341,
            "lat": 11.52957737,
            "school_name": "Name unknown",
            "country_name": "Nigeria",
            "connectivity": false
        },
        {
            "lon": 10.45806718,
            "lat": 12.87626406,
            "school_name": "Name unknown",
            "country_name": "Nigeria",
            "connectivity": false
        },
        {
            "lon": 6.93981675,
            "lat": 12.19319675,
            "school_name": "Name unknown",
            "country_name": "Nigeria",
            "connectivity": false
        },
        {
            "lon": 8.0204267,
            "lat": 5.99442,
            "school_name": "Name unknown",
            "country_name": "Nigeria",
            "connectivity": false
        },
        {
            "lon": 7.966497,
            "lat": 5.848931,
            "school_name": "Name unknown",
            "country_name": "Nigeria",
            "connectivity": false
        },
        {
            "lon": 8.145767,
            "lat": 5.854251,
            "school_name": "Name unknown",
            "country_name": "Nigeria",
            "connectivity": false
        },
        {
            "lon": 27.86092,
            "lat": -26.27372,
            "school_name": "Mlamli Finishing Secondary School",
            "country_name": "South Africa",
            "connectivity": false
        },
        {
            "lon": -76.9766,
            "lat": -12.1647,
            "school_name": "MARBELLA ESCUELA DE BELLEZA",
            "country_name": "Peru",
            "connectivity": false
        },
        {
            "lon": 7.496036667,
            "lat": 6.983573333,
            "school_name": "Name unknown",
            "country_name": "Nigeria",
            "connectivity": false
        },
        {
            "lon": 7.407723333,
            "lat": 10.51950833,
            "school_name": "Name unknown",
            "country_name": "Nigeria",
            "connectivity": false
        },
        {
            "lon": 3.302349785,
            "lat": 6.702776092,
            "school_name": "Name unknown",
            "country_name": "Nigeria",
            "connectivity": false
        },
        {
            "lon": 9.77334,
            "lat": 7.85766,
            "school_name": "Name unknown",
            "country_name": "Nigeria",
            "connectivity": false
        },
        {
            "lon": 69.20881402,
            "lat": 41.31562115,
            "school_name": "141 -  sonli umumta\u2018lim maktabi",
            "country_name": "Uzbekistan",
            "connectivity": false
        },
        {
            "lon": 69.1812423,
            "lat": 41.31068397,
            "school_name": "245 -  sonli umumta\u2018lim maktabi",
            "country_name": "Uzbekistan",
            "connectivity": false
        },
        {
            "lon": 68.67061,
            "lat": 40.82307,
            "school_name": "28 -  sonli umumta\u2018lim maktabi",
            "country_name": "Uzbekistan",
            "connectivity": false
        },
        {
            "lon": 67.10484,
            "lat": 39.78304,
            "school_name": "35 -  sonli umumta\u2018lim maktabi",
            "country_name": "Uzbekistan",
            "connectivity": false
        },
        {
            "lon": 67.028212,
            "lat": 39.491267,
            "school_name": "46 -  sonli umumta\u2018lim maktabi",
            "country_name": "Uzbekistan",
            "connectivity": false
        },
        {
            "lon": 60.23845,
            "lat": 41.83454,
            "school_name": "38 -  sonli umumta\u2018lim maktabi",
            "country_name": "Uzbekistan",
            "connectivity": false
        },
        {
            "lon": 67.64307,
            "lat": 39.899742,
            "school_name": "79 -  sonli umumta\u2018lim maktabi",
            "country_name": "Uzbekistan",
            "connectivity": false
        },
        {
            "lon": -101.36622,
            "lat": 20.69486,
            "school_name": "SECUNDARIA TECNICA NUM. 41",
            "country_name": "Mexico",
            "connectivity": false
        },
        {
            "lon": -104.378766,
            "lat": 19.773442,
            "school_name": "EFRAIN GONZALEZ LUNA",
            "country_name": "Mexico",
            "connectivity": false
        },
        {
            "lon": -107.311,
            "lat": 25.5265,
            "school_name": "SECUNDARIA COMUNITARIA RURAL",
            "country_name": "Mexico",
            "connectivity": false
        },
        {
            "lon": -110.937943,
            "lat": 31.32576,
            "school_name": "JOSE EDUARDO CURLANGO LIMON",
            "country_name": "Mexico",
            "connectivity": false
        },
        {
            "lon": 68.4033,
            "lat": 24.7581,
            "school_name": "GBPS - ALLAH DINO DARS",
            "country_name": "Pakistan",
            "connectivity": false
        },
        {
            "lon": 68.5472,
            "lat": 24.8058,
            "school_name": "GGPS - SUKHYO MAHERI",
            "country_name": "Pakistan",
            "connectivity": false
        },
        {
            "lon": 69.0892,
            "lat": 24.835,
            "school_name": "GBPS - DR. MUHAMMAD ISMAIL",
            "country_name": "Pakistan",
            "connectivity": false
        },
        {
            "lon": 67.0746,
            "lat": 24.9735,
            "school_name": "GGPS - 11-J",
            "country_name": "Pakistan",
            "connectivity": false
        },
        {
            "lon": 67.5838,
            "lat": 27.11,
            "school_name": "GBPS - LAHORI",
            "country_name": "Pakistan",
            "connectivity": false
        },
        {
            "lon": 67.0837,
            "lat": 24.8581,
            "school_name": "KMC - BOYS LOWER SECONDARY SCHOOL",
            "country_name": "Pakistan",
            "connectivity": false
        },
        {
            "lon": 68.0019,
            "lat": 27.5251,
            "school_name": "GBPS - KEHAR MUGHARI",
            "country_name": "Pakistan",
            "connectivity": false
        },
        {
            "lon": 68.0056,
            "lat": 27.5084,
            "school_name": "GGPS - NAU GOTH",
            "country_name": "Pakistan",
            "connectivity": false
        },
        {
            "lon": 67.8896,
            "lat": 27.4867,
            "school_name": "GBPS - FATEH MUHAMMAD MACHHI.",
            "country_name": "Pakistan",
            "connectivity": false
        },
        {
            "lon": 67.8094,
            "lat": 27.4477,
            "school_name": "GBPS - MUHAMMAD HASHIM CHHUTTO.",
            "country_name": "Pakistan",
            "connectivity": false
        },
        {
            "lon": 69.0247,
            "lat": 28.3029,
            "school_name": "GBPS - NOOR-ULLAH BAJKANI",
            "country_name": "Pakistan",
            "connectivity": false
        },
        {
            "lon": 68.9454,
            "lat": 27.0533,
            "school_name": "GBPS - SADDAR UDDIN SHER",
            "country_name": "Pakistan",
            "connectivity": false
        },
        {
            "lon": 67.9688,
            "lat": 27.2386,
            "school_name": "GBPS - GULSHER CHANDIO.",
            "country_name": "Pakistan",
            "connectivity": false
        },
        {
            "lon": 68.2091,
            "lat": 27.5362,
            "school_name": "GBPS - ABDUL RAHMAN MACHHI.",
            "country_name": "Pakistan",
            "connectivity": false
        },
        {
            "lon": 69.0079,
            "lat": 25.355,
            "school_name": "GBPS - SAJAN KHASKHELI",
            "country_name": "Pakistan",
            "connectivity": false
        },
        {
            "lon": 68.4914,
            "lat": 25.5246,
            "school_name": "GBPS - PARYAL HAJANO",
            "country_name": "Pakistan",
            "connectivity": false
        },
        {
            "lon": 68.3757,
            "lat": 25.9665,
            "school_name": "GGHS Saeedabad",
            "country_name": "Pakistan",
            "connectivity": false
        },
        {
            "lon": 68.3383,
            "lat": 25.9997,
            "school_name": "GGPS - HOTE SYAL",
            "country_name": "Pakistan",
            "connectivity": false
        },
        {
            "lon": 68.1736,
            "lat": 26.6908,
            "school_name": "GBPS - HUSSAIN BUX LAGHARI",
            "country_name": "Pakistan",
            "connectivity": false
        },
        {
            "lon": 69.0306,
            "lat": 26.0722,
            "school_name": "GBPS - FATAH MUHAMMAD ALI ARAIN",
            "country_name": "Pakistan",
            "connectivity": false
        },
        {
            "lon": 68.6625,
            "lat": 27.9288,
            "school_name": "GGPS - JANO SHARIF",
            "country_name": "Pakistan",
            "connectivity": false
        },
        {
            "lon": 67.0353,
            "lat": 24.8581,
            "school_name": "GGPS - T K JIWANI",
            "country_name": "Pakistan",
            "connectivity": false
        },
        {
            "lon": 68.4308,
            "lat": 24.2872,
            "school_name": "GGPS - HAJI USMAN MALKANI",
            "country_name": "Pakistan",
            "connectivity": false
        },
        {
            "lon": 68.1803,
            "lat": 24.6694,
            "school_name": "GBPS - HAJI QASIM SOOMRO",
            "country_name": "Pakistan",
            "connectivity": false
        },
        {
            "lon": 68.8768,
            "lat": 27.7099,
            "school_name": "GBPS - NUMAISH ROAD",
            "country_name": "Pakistan",
            "connectivity": false
        },
        {
            "lon": 68.6987,
            "lat": 25.6513,
            "school_name": "GBPS - MITHO KHAN MIRJAT",
            "country_name": "Pakistan",
            "connectivity": false
        },
        {
            "lon": 68.5994,
            "lat": 24.9969,
            "school_name": "GBPS - MUHAMMAD JUMAN ZEEND PUR",
            "country_name": "Pakistan",
            "connectivity": false
        },
        {
            "lon": 70.7442,
            "lat": 25.0656,
            "school_name": "GBPS - UMER UNER MAIN",
            "country_name": "Pakistan",
            "connectivity": false
        },
        {
            "lon": -102.26615,
            "lat": 21.876641,
            "school_name": "INSTITUTO GUADALUPE VICTORIA A.C.",
            "country_name": "Mexico",
            "connectivity": false
        },
        {
            "lon": -110.024,
            "lat": 23.0745,
            "school_name": "JARDIN DE NI\u00d1OS DE NUEVA CREACION",
            "country_name": "Mexico",
            "connectivity": false
        },
        {
            "lon": -90.168889,
            "lat": 20.235833,
            "school_name": "PREESCOLAR COMUNITARIO INDIGENA",
            "country_name": "Mexico",
            "connectivity": false
        },
        {
            "lon": -102.119,
            "lat": 25.5453,
            "school_name": "PREESCOLAR COMUNITARIO",
            "country_name": "Mexico",
            "connectivity": false
        },
        {
            "lon": -103.154,
            "lat": 25.9402,
            "school_name": "JUAN DE LA BARRERA",
            "country_name": "Mexico",
            "connectivity": false
        },
        {
            "lon": -101.881,
            "lat": 25.6579,
            "school_name": "GABRIELA MISTRAL",
            "country_name": "Mexico",
            "connectivity": false
        },
        {
            "lon": -101.65,
            "lat": 27.1399,
            "school_name": "PREESCOLAR COMUNITARIO",
            "country_name": "Mexico",
            "connectivity": false
        },
        {
            "lon": -103.567,
            "lat": 19.2203,
            "school_name": "CONAFE PREESCOLAR",
            "country_name": "Mexico",
            "connectivity": false
        },
        {
            "lon": -92.193791,
            "lat": 15.21841,
            "school_name": "JOSEFA ORTIZ DE DOMINGUEZ",
            "country_name": "Mexico",
            "connectivity": false
        },
        {
            "lon": -92.302539,
            "lat": 17.374832,
            "school_name": "JACINTO CANEK",
            "country_name": "Mexico",
            "connectivity": false
        },
        {
            "lon": -93.394173,
            "lat": 17.042366,
            "school_name": "SOR JUANA INES DE LA CRUZ",
            "country_name": "Mexico",
            "connectivity": false
        },
        {
            "lon": -93.017656,
            "lat": 16.146053,
            "school_name": "MANUEL AVILA CAMACHO",
            "country_name": "Mexico",
            "connectivity": false
        },
        {
            "lon": -92.108496,
            "lat": 17.027303,
            "school_name": "PREESCOLAR CONAFE INDIGENA",
            "country_name": "Mexico",
            "connectivity": false
        },
        {
            "lon": 67.6078,
            "lat": 24.5261,
            "school_name": "GBPS - HAJI DABHOO KHASKHELI",
            "country_name": "Pakistan",
            "connectivity": false
        },
        {
            "lon": 67.67,
            "lat": 24.7936,
            "school_name": "GBPS - RAMZAN KATIAR",
            "country_name": "Pakistan",
            "connectivity": false
        },
        {
            "lon": -109.435,
            "lat": 23.3775,
            "school_name": "CURSO COMUNITARIO DE EDUCACION PRIMARIA",
            "country_name": "Mexico",
            "connectivity": false
        },
        {
            "lon": 69.4919,
            "lat": 24.9394,
            "school_name": "GBPS - MESAO BHEEL",
            "country_name": "Pakistan",
            "connectivity": false
        },
        {
            "lon": 69.3436,
            "lat": 25.42,
            "school_name": "GBPS - GHULAM NABI BURGURI",
            "country_name": "Pakistan",
            "connectivity": false
        },
        {
            "lon": 69.4866,
            "lat": 25.2641,
            "school_name": "GBPS - JHAN KHAN KAPRI",
            "country_name": "Pakistan",
            "connectivity": false
        },
        {
            "lon": 69.5759,
            "lat": 25.4861,
            "school_name": "GBPS - WADAN MANGRIO",
            "country_name": "Pakistan",
            "connectivity": false
        },
        {
            "lon": 69.759,
            "lat": 25.4524,
            "school_name": "GBPS - WALJI THAKAR",
            "country_name": "Pakistan",
            "connectivity": false
        },