{
    "name": "Patchwork Kingdom #25 | Filspal",
    "description": "The twin kingdoms of Filspal, separated by a digital divide. A bustling kingdom of 69 schools on top that are all connected to the internet, and 49 schools, not connected, hidden in the upside down kingdom | Created for Giga (GigaConnect.org) \u2014 connecting every school in the world \u2014 in celebration of UNICEF's 75th birthday, by Nadieh Bremer",
    "external_url": "https://dummyURL.com/patchwork_kingdoms_25",
    "image": "https://dummy-storage-url.com/patchwork_kingdoms_25.png",
    "attributes": [
        {
            "trait_type": "Color palette",
            "value": "kaleidoscope"
        },
        {
            "display_type": "number",
            "trait_type": "Schools",
            "value": 134,
            "max_value": 460
        },
        {
            "display_type": "number",
            "trait_type": "Ratio - Connected",
            "value": 0.51,
            "max_value": 1
        },
        {
            "display_type": "number",
            "trait_type": "Ratio - Unconnected",
            "value": 0.37,
            "max_value": 1
        },
        {
            "display_type": "number",
            "trait_type": "Ratio - Data unavailable",
            "value": 0.12,
            "max_value": 1
        },
        {
            "trait_type": "Countries",
            "value": "BR-CO-CR-HN-KZ-NA-PH-PS-RW-SL-ZW"
        },
        {
            "display_type": "number",
            "trait_type": "Symbols",
            "value": 37,
            "max_value": 51
        }
    ],
    "cluster_id": 25,
    "num_schools": 134,
    "num_schools_connected": 69,
    "num_schools_unconnected": 49,
    "num_schools_unknown": 16,
    "schools": [
        {
            "lon": -87.67756,
            "lat": 14.00214,
            "school_name": "RAMON ROSA",
            "country_name": "Honduras",
            "connectivity": true
        },
        {
            "lon": -87.91623,
            "lat": 14.23328,
            "school_name": "J.D.N TIBURCIO CARIAS ANDINO",
            "country_name": "Honduras",
            "connectivity": true
        },
        {
            "lon": -87.56743,
            "lat": 13.5356,
            "school_name": "JOSE CECILIO DEL VALLE",
            "country_name": "Honduras",
            "connectivity": true
        },
        {
            "lon": -87.52642,
            "lat": 13.69466,
            "school_name": "SAGRARIO BUSTAMANTE",
            "country_name": "Honduras",
            "connectivity": true
        },
        {
            "lon": -49.8544,
            "lat": -21.544,
            "school_name": "ORLANDO DONDA PROF",
            "country_name": "Brazil",
            "connectivity": true
        },
        {
            "lon": -88.00966,
            "lat": 14.73699,
            "school_name": "NICOLAS MONTES",
            "country_name": "Honduras",
            "connectivity": true
        },
        {
            "lon": -87.24725,
            "lat": 13.83727,
            "school_name": "JUAN LINDO",
            "country_name": "Honduras",
            "connectivity": true
        },
        {
            "lon": 32.65655,
            "lat": -17.96313,
            "school_name": "NYABEZE",
            "country_name": "Zimbabwe",
            "connectivity": true
        },
        {
            "lon": 32.26771,
            "lat": -19.52039,
            "school_name": "GONORA",
            "country_name": "Zimbabwe",
            "connectivity": true
        },
        {
            "lon": 30.92183,
            "lat": -17.47115,
            "school_name": "SHINGIRIRAYI",
            "country_name": "Zimbabwe",
            "connectivity": true
        },
        {
            "lon": 31.71007,
            "lat": -17.89204,
            "school_name": "CHIDIYA",
            "country_name": "Zimbabwe",
            "connectivity": true
        },
        {
            "lon": -48.0242,
            "lat": -16.0218,
            "school_name": "CEF 209 DE SANTA MARIA",
            "country_name": "Brazil",
            "connectivity": true
        },
        {
            "lon": -83.64058475,
            "lat": 9.23108016,
            "school_name": "MOLLEJONES",
            "country_name": "Costa Rica",
            "connectivity": true
        },
        {
            "lon": 35.132692,
            "lat": 31.85777,
            "school_name": "biet doko secondary boys school",
            "country_name": "Palestine",
            "connectivity": true
        },
        {
            "lon": 35.031418,
            "lat": 31.594285,
            "school_name": "beat owla basic girls",
            "country_name": "Palestine",
            "connectivity": true
        },
        {
            "lon": -38.075,
            "lat": -9.1057,
            "school_name": "ESCOLA DE REFERENCIA EM ENSINO MEDIO JULIA GOMES DE ARAUJO",
            "country_name": "Brazil",
            "connectivity": true
        },
        {
            "lon": -75.472222,
            "lat": 10.4,
            "school_name": "Name unknown",
            "country_name": "Colombia",
            "connectivity": false
        },
        {
            "lon": -76.52183911,
            "lat": 3.438821294,
            "school_name": "Name unknown",
            "country_name": "Colombia",
            "connectivity": false
        },
        {
            "lon": 17.08378,
            "lat": -22.57461,
            "school_name": "Deutsche HPS",
            "country_name": "Namibia",
            "connectivity": false
        },
        {
            "lon": 121.661096,
            "lat": 18.147062,
            "school_name": "Sta. Maria CS",
            "country_name": "Philippines",
            "connectivity": true
        },
        {
            "lon": 121.2872118,
            "lat": 13.89098668,
            "school_name": "San Antonio CS",
            "country_name": "Philippines",
            "connectivity": true
        },
        {
            "lon": 122.3579925,
            "lat": 13.67551135,
            "school_name": "San Roque ES",
            "country_name": "Philippines",
            "connectivity": true
        },
        {
            "lon": 121.06723,
            "lat": 12.496551,
            "school_name": "Pitogo ES",
            "country_name": "Philippines",
            "connectivity": true
        },
        {
            "lon": 124.301151,
            "lat": 13.640502,
            "school_name": "Siay ES",
            "country_name": "Philippines",
            "connectivity": true
        },
        {
            "lon": 124.03,
            "lat": 10.80666668,
            "school_name": "Campusong ES",
            "country_name": "Philippines",
            "connectivity": true
        },
        {
            "lon": 124.4325698,
            "lat": 10.92765901,
            "school_name": "Isabel CS",
            "country_name": "Philippines",
            "connectivity": true
        },
        {
            "lon": 124.583416,
            "lat": 12.38728767,
            "school_name": "Paticua Elementary School",
            "country_name": "Philippines",
            "connectivity": true
        },
        {
            "lon": -73.011389,
            "lat": 5.063889,
            "school_name": "ESC RURAL AGUA BLANCA",
            "country_name": "Colombia",
            "connectivity": true
        },
        {
            "lon": -72.9816009,
            "lat": 7.350624802,
            "school_name": "ESCUELA RURAL P\u00c1NAGA",
            "country_name": "Colombia",
            "connectivity": true
        },
        {
            "lon": -73.22002464,
            "lat": 8.083714365,
            "school_name": "SEDE DE VARONES",
            "country_name": "Colombia",
            "connectivity": true
        },
        {
            "lon": -73.99333333,
            "lat": 9.14166666,
            "school_name": "COL RUR. MIXTO MARISCAL SUCRE",
            "country_name": "Colombia",
            "connectivity": true
        },
        {
            "lon": -75.21331787,
            "lat": 4.443156719,
            "school_name": "SEDE 1 JORGE ELIECER GAITAN",
            "country_name": "Colombia",
            "connectivity": true
        },
        {
            "lon": -75.91789856,
            "lat": 8.844690344,
            "school_name": "ESC RURAL MIXTA LUSITANIA",
            "country_name": "Colombia",
            "connectivity": true
        },
        {
            "lon": -76.25666667,
            "lat": 4.91444444,
            "school_name": "CE IND\u00cdGENA NUESTRA SE\u00d1ORA DEL CARMEN - SEDE PRINCIPAL",
            "country_name": "Colombia",
            "connectivity": true
        },
        {
            "lon": -69.5673,
            "lat": -10.9403,
            "school_name": "ESC SANDOVAL BATISTA DE ARAUJO",
            "country_name": "Brazil",
            "connectivity": false
        },
        {
            "lon": -65.0744,
            "lat": -2.452,
            "school_name": "ESC MUN INDIGENA BOA UNIAO",
            "country_name": "Brazil",
            "connectivity": false
        },
        {
            "lon": -47.9255,
            "lat": -16.2514,
            "school_name": "COLEGIO ESTADUAL PROFESSORA LOURDES DE OLIVEIRA SAMPAIO",
            "country_name": "Brazil",
            "connectivity": true
        },
        {
            "lon": -47.9479,
            "lat": -0.7852,
            "school_name": "E M E FUNDAMENTAL FERREIRA BATALHA",
            "country_name": "Brazil",
            "connectivity": true
        },
        {
            "lon": -51.0201,
            "lat": -0.8542,
            "school_name": "E M E F SAO FRANCISCO - CORRE DO ARANAI",
            "country_name": "Brazil",
            "connectivity": false
        },
        {
            "lon": -42.8416,
            "lat": -5.0825,
            "school_name": "EMEF TIA CONRADA",
            "country_name": "Brazil",
            "connectivity": true
        },
        {
            "lon": -43.9131,
            "lat": -3.3462,
            "school_name": "ESCOLA MUNICIPAL PEDRO NEIVA",
            "country_name": "Brazil",
            "connectivity": true
        },
        {
            "lon": -44.4812,
            "lat": -4.8264,
            "school_name": "ESCOLA MUNICIPAL ALVES BATISTA",
            "country_name": "Brazil",
            "connectivity": false
        },
        {
            "lon": -44.5686,
            "lat": -4.3827,
            "school_name": "ESCOLA MUNICIPAL GOVERNADOR JOAO CASTELO",
            "country_name": "Brazil",
            "connectivity": false
        },
        {
            "lon": -44.0263,
            "lat": -3.405,
            "school_name": "ESCOLA MUNICIPAL SANTA CLARA",
            "country_name": "Brazil",
            "connectivity": false
        },
        {
            "lon": -45.454,
            "lat": -2.8784,
            "school_name": "UE SAO RAIMUNDO",
            "country_name": "Brazil",
            "connectivity": false
        },
        {
            "lon": -45.435,
            "lat": -5.2344,
            "school_name": "UE CENTRO DO EDIMAR",
            "country_name": "Brazil",
            "connectivity": false
        },
        {
            "lon": -41.3469,
            "lat": -6.8145,
            "school_name": "GINASIO MUNICIPAL JOAO JOSE BATISTA",
            "country_name": "Brazil",
            "connectivity": true
        },
        {
            "lon": -39.3064,
            "lat": -7.2056,
            "school_name": "CEJA CICERA GERMANO CORREIA",
            "country_name": "Brazil",
            "connectivity": true
        },
        {
            "lon": -38.6617,
            "lat": -3.7445,
            "school_name": "ANTONIO BRAGA DA ROCHA EEIEF",
            "country_name": "Brazil",
            "connectivity": true
        },
        {
            "lon": -51.333,
            "lat": -26.4244,
            "school_name": "ARLENE VENSAO LAMMEL C M E I",
            "country_name": "Brazil",
            "connectivity": true
        },
        {
            "lon": -37.7498,
            "lat": -5.6844,
            "school_name": "UNIDADE XIX FRANCISCO PEDRO COSTA",
            "country_name": "Brazil",
            "connectivity": false
        },
        {
            "lon": -37.7469,
            "lat": -6.4135,
            "school_name": "EEEF JOAQUIM VALDEVINO DE LIMA",
            "country_name": "Brazil",
            "connectivity": true
        },
        {
            "lon": -37.752,
            "lat": -7.1679,
            "school_name": "EMEF JOAO FERREIRA DE CALDAS",
            "country_name": "Brazil",
            "connectivity": false
        },
        {
            "lon": -39.732,
            "lat": -8.1798,
            "school_name": "GRUPO ESCOLAR JOSE CLEMENTINO LIMA",
            "country_name": "Brazil",
            "connectivity": false
        },
        {
            "lon": -35.5547,
            "lat": -8.4288,
            "school_name": "ESCOLA MUNICIPAL OSVALDO CRUZ",
            "country_name": "Brazil",
            "connectivity": false
        },
        {
            "lon": -36.6705,
            "lat": -9.8648,
            "school_name": "ESCOLA MUNICIPAL DE ENSINO FUNDAMENTAL PEDRO ALVARES CABRAL",
            "country_name": "Brazil",
            "connectivity": false
        },
        {
            "lon": -40.4711,
            "lat": -10.4843,
            "school_name": "ESCOLA MANOEL JOSE DE CARVALHO",
            "country_name": "Brazil",
            "connectivity": false
        },
        {
            "lon": -42.8803,
            "lat": -5.0767,
            "school_name": "CENTRO DE ENSINO ROBSON PARENTES NOLETO SILVA",
            "country_name": "Brazil",
            "connectivity": true
        },
        {
            "lon": -45.3332,
            "lat": -9.8304,
            "school_name": "U E LUSTOSA SOBRINHO",
            "country_name": "Brazil",
            "connectivity": true
        },
        {
            "lon": -38.3815,
            "lat": -12.3765,
            "school_name": "ESCOLA ANNA RIBEIRO DE A G BITENCOURT",
            "country_name": "Brazil",
            "connectivity": true
        },
        {
            "lon": -43.8921,
            "lat": -19.9072,
            "school_name": "EE NECESIO TAVARES",
            "country_name": "Brazil",
            "connectivity": true
        },
        {
            "lon": -46.0416,
            "lat": -21.5478,
            "school_name": "EM PROFA ACEIR MIGUEL MOREIRA",
            "country_name": "Brazil",
            "connectivity": true
        },
        {
            "lon": -36.6811,
            "lat": -9.6456,
            "school_name": "ESCOLA DE ENSINO FUND TEN CEL LAURY CAPISTRANO",
            "country_name": "Brazil",
            "connectivity": true
        },
        {
            "lon": -46.5925,
            "lat": -21.7951,
            "school_name": "CENTRO MUNICIPAL DE ATENDIMENTO EDUCACIONAL ESPECIALIZADO HELEN KELLER",
            "country_name": "Brazil",
            "connectivity": true
        },
        {
            "lon": -46.8216,
            "lat": -19.924,
            "school_name": "EE PROFESSORA CECILIA MARIA DE REZENDE NEVES",
            "country_name": "Brazil",
            "connectivity": true
        },
        {
            "lon": -43.9272,
            "lat": -19.8693,
            "school_name": "ESCOLA MUNICIPAL DE EDUCACAO INFANTIL PACAJA",
            "country_name": "Brazil",
            "connectivity": true
        },
        {
            "lon": -40.3173,
            "lat": -18.6572,
            "school_name": "EMEIEF CORREGO DA PALMEIRA",
            "country_name": "Brazil",
            "connectivity": false
        },
        {
            "lon": -40.8101,
            "lat": -20.7914,
            "school_name": "EMEF PADRE ASSIS",
            "country_name": "Brazil",
            "connectivity": true
        },
        {
            "lon": -42.2168,
            "lat": -20.7063,
            "school_name": "EE PEDRO DE OLIVEIRA",
            "country_name": "Brazil",
            "connectivity": true
        },
        {
            "lon": -43.2689,
            "lat": -22.8729,
            "school_name": "0312017 ESCOLA MUNICIPAL LAURO SODRE",
            "country_name": "Brazil",
            "connectivity": true
        },
        {
            "lon": -49.0342,
            "lat": -24.6303,
            "school_name": "EMEIEF JULIA DA SILVEIRA MELLO",
            "country_name": "Brazil",
            "connectivity": false
        },
        {
            "lon": -45.6282,
            "lat": -23.7632,
            "school_name": "CAVALINHO DE PAU EMEI",
            "country_name": "Brazil",
            "connectivity": false
        },
        {
            "lon": -48.9027,
            "lat": -24.1192,
            "school_name": "JOAO ANTONIO DA SILVA EMEF",
            "country_name": "Brazil",
            "connectivity": true
        },
        {
            "lon": -49.0562,
            "lat": -21.3181,
            "school_name": "INACIO DA COSTA EMEF",
            "country_name": "Brazil",
            "connectivity": true
        },
        {
            "lon": -50.4599,
            "lat": -21.2368,
            "school_name": "ANTONIO RODRIGUES MARTINS NETO PROFESSOR EMEB",
            "country_name": "Brazil",
            "connectivity": true
        },
        {
            "lon": -45.7897,
            "lat": -23.1683,
            "school_name": "EMMANUEL ANTONIO DOS SANTOS EMEF",
            "country_name": "Brazil",
            "connectivity": true
        },
        {
            "lon": -48.5282,
            "lat": -27.578,
            "school_name": "NEIM NOSSA SENHORA DE LURDES",
            "country_name": "Brazil",
            "connectivity": true
        },
        {
            "lon": -50.3142,
            "lat": -27.795,
            "school_name": "CEIM SEPE TIARAJU",
            "country_name": "Brazil",
            "connectivity": true
        },
        {
            "lon": -49.0309,
            "lat": -28.2514,
            "school_name": "CASA FAMILIAR RURAL DE ARMAZEM",
            "country_name": "Brazil",
            "connectivity": false
        },
        {
            "lon": -55.0794,
            "lat": -28.205,
            "school_name": "ESC MUN DE ENS FUND SANTA TEREZINHA",
            "country_name": "Brazil",
            "connectivity": true
        },
        {
            "lon": -50.1489,
            "lat": -30.0047,
            "school_name": "NUCLEO MUN EDUC JOVENS E ADULTOS SEU TEMPO - SEU ESPACO",
            "country_name": "Brazil",
            "connectivity": true
        },
        {
            "lon": -68.7507,
            "lat": -11.0071,
            "school_name": "CRECHE MUNICIPAL ROMA EMILSE SILVA",
            "country_name": "Brazil",
            "connectivity": true
        },
        {
            "lon": -52.3234,
            "lat": -28.0043,
            "school_name": "ESC EST ENS FUN ENG LUIZ ENGLERT",
            "country_name": "Brazil",
            "connectivity": true
        },
        {
            "lon": -38.6251,
            "lat": -3.8775,
            "school_name": "CENTRO DE EJA DE MARACANAU-CEJAM",
            "country_name": "Brazil",
            "connectivity": true
        }
    ],
    "num_countries": 11,
    "countries": [
        "Brazil",
        "Colombia",
        "Costa Rica",
        "Honduras",
        "Kazakhstan",
        "Namibia",
        "Palestine",
        "Philippines",
        "Rwanda",
        "Sierra Leone",
        "Zimbabwe"
    ],
    "schools_no_data": [
        {
            "lon": 22.6832053,
            "lat": -25.7952632,
            "school_name": "Maralaleng",
            "country_name": "Botswana",
            "connectivity": false
        },
        {
            "lon": 1.6912057,
            "lat": 12.8368016,
            "school_name": "Name unknown",
            "country_name": "Niger",
            "connectivity": false
        },
        {
            "lon": 9.239784,
            "lat": 4.148143,
            "school_name": "Linguistic Center",
            "country_name": "Cameroon",
            "connectivity": false
        },
        {
            "lon": -9.029545,
            "lat": 7.030403,
            "school_name": "Gbellie Elementary",
            "country_name": "Liberia",
            "connectivity": false
        },
        {
            "lon": 7.339397,
            "lat": 6.899083,
            "school_name": "Name unknown",
            "country_name": "Nigeria",
            "connectivity": false
        },
        {
            "lon": 30.68777092,
            "lat": 18.30452532,
            "school_name": "Name unknown",
            "country_name": "Sudan",
            "connectivity": false
        },
        {
            "lon": 30.4733845,
            "lat": 19.1473634,
            "school_name": "Name unknown",
            "country_name": "Sudan",
            "connectivity": false
        },
        {
            "lon": 33.9679796,
            "lat": 17.579833,
            "school_name": "Name unknown",
            "country_name": "Sudan",
            "connectivity": false
        },
        {
            "lon": 33.6221654833333,
            "lat": 14.9489185,
            "school_name": "Name unknown",
            "country_name": "Sudan",
            "connectivity": false
        },
        {
            "lon": 32.53945592,
            "lat": 13.46372322,
            "school_name": "Name unknown",
            "country_name": "Sudan",
            "connectivity": false
        },
        {
            "lon": 25.54598523,
            "lat": 11.54949342,
            "school_name": "Name unknown",
            "country_name": "Sudan",
            "connectivity": false
        },
        {
            "lon": -1.6550678,
            "lat": 6.9089623,
            "school_name": "Name unknown",
            "country_name": "Ghana",
            "connectivity": false
        },
        {
            "lon": -1.6434317,
            "lat": 6.7076503,
            "school_name": "Name unknown",
            "country_name": "Ghana",
            "connectivity": false
        },
        {
            "lon": -2.3237599,
            "lat": 7.3278603,
            "school_name": "Name unknown",
            "country_name": "Ghana",
            "connectivity": false
        },
        {
            "lon": -0.2054862,
            "lat": 5.5829819,
            "school_name": "Name unknown",
            "country_name": "Ghana",
            "connectivity": false
        },
        {
            "lon": -2.2970814,
            "lat": 6.9737608,
            "school_name": "Name unknown",
            "country_name": "Ghana",
            "connectivity": false
        },
        {
            "lon": 36.69218,
            "lat": -3.35518,
            "school_name": "GOODWILL",
            "country_name": "United Republic of Tanzania",
            "connectivity": false
        },
        {
            "lon": 31.545,
            "lat": -1.92739,
            "school_name": "KANGOMA",
            "country_name": "United Republic of Tanzania",
            "connectivity": false
        },
        {
            "lon": 35.9763,
            "lat": -7.97202,
            "school_name": "VITONO",
            "country_name": "United Republic of Tanzania",
            "connectivity": false
        },
        {
            "lon": 32.55778,
            "lat": -4.07127,
            "school_name": "IGALULA",
            "country_name": "United Republic of Tanzania",
            "connectivity": false
        },
        {
            "lon": 30.31594,
            "lat": -4.74134,
            "school_name": "MALALO",
            "country_name": "United Republic of Tanzania",
            "connectivity": false
        },
        {
            "lon": -1.97391,
            "lat": 7.7890911,
            "school_name": "Name unknown",
            "country_name": "Ghana",
            "connectivity": false
        },
        {
            "lon": 1.345516,
            "lat": 9.700857,
            "school_name": "JEP TERODA",
            "country_name": "Togo",
            "connectivity": false
        },
        {
            "lon": 1.247544,
            "lat": 9.611952,
            "school_name": "JEP SAMALA BAS",
            "country_name": "Togo",
            "connectivity": false
        },
        {
            "lon": 0.658241667,
            "lat": 10.885105,
            "school_name": "JEP GNANLE",
            "country_name": "Togo",
            "connectivity": false
        },
        {
            "lon": 0.399961,
            "lat": 10.888907,
            "school_name": "JEP NAMOUNDJOGA",
            "country_name": "Togo",
            "connectivity": false
        },
        {
            "lon": 1.25646602,
            "lat": 6.20847389,
            "school_name": "EPL DIVINE CLEMENCE FILEO",
            "country_name": "Togo",
            "connectivity": false
        },
        {
            "lon": 1.697183,
            "lat": 6.533922,
            "school_name": "EPP GBANDI AVEGBO",
            "country_name": "Togo",
            "connectivity": false
        },
        {
            "lon": 0.831064,
            "lat": 6.507684,
            "school_name": "EPP ANDO KPOMEY WOLENU",
            "country_name": "Togo",
            "connectivity": false
        },
        {
            "lon": 1.311562,
            "lat": 7.902036,
            "school_name": "EPP SAMA COPE",
            "country_name": "Togo",
            "connectivity": false
        },
        {
            "lon": 0.240554,
            "lat": 10.827877,
            "school_name": "EPP BANTAMBOARE G/A",
            "country_name": "Togo",
            "connectivity": false
        },
        {
            "lon": 0.099339,
            "lat": 10.815146,
            "school_name": "EPP TONTE G/A",
            "country_name": "Togo",
            "connectivity": false
        },
        {
            "lon": 0.618564,
            "lat": 9.686926,
            "school_name": "LYCEE GUERIN KOUKA II",
            "country_name": "Togo",
            "connectivity": false
        },
        {
            "lon": 1.414381,
            "lat": 6.206763,
            "school_name": "CPL LA REFERENCE",
            "country_name": "Togo",
            "connectivity": false
        },
        {
            "lon": 32.80349,
            "lat": -8.84193,
            "school_name": "HANGOMBA",
            "country_name": "United Republic of Tanzania",
            "connectivity": false
        },
        {
            "lon": 38.73142,
            "lat": -6.71038,
            "school_name": "MLANDIZI",
            "country_name": "United Republic of Tanzania",
            "connectivity": false
        },
        {
            "lon": 37.90756,
            "lat": -6.76784,
            "school_name": "MIKESE",
            "country_name": "United Republic of Tanzania",
            "connectivity": false
        },
        {
            "lon": 31.77432,
            "lat": -2.6416,
            "school_name": "KITELA",
            "country_name": "United Republic of Tanzania",
            "connectivity": false
        },
        {
            "lon": 34.3288,
            "lat": -2.01143,
            "school_name": "IHARARA",
            "country_name": "United Republic of Tanzania",
            "connectivity": false
        },
        {
            "lon": 33.73643438,
            "lat": -12.32938698,
            "school_name": "Kagunda",
            "country_name": "Malawi",
            "connectivity": false
        },
        {
            "lon": 34.65013253,
            "lat": -15.03163847,
            "school_name": "Katsekera CDSS",
            "country_name": "Malawi",
            "connectivity": false
        },
        {
            "lon": 34.72639362,
            "lat": -16.48492341,
            "school_name": "Nkumaniza CDSS",
            "country_name": "Malawi",
            "connectivity": false
        },
        {
            "lon": 35.38687024,
            "lat": -15.69327465,
            "school_name": "Ndanga",
            "country_name": "Malawi",
            "connectivity": false
        },
        {
            "lon": 35.50076608,
            "lat": -16.02588024,
            "school_name": "Njedza",
            "country_name": "Malawi",
            "connectivity": false
        },
        {
            "lon": 35.18237012,
            "lat": -16.14393457,
            "school_name": "Namileme",
            "country_name": "Malawi",
            "connectivity": false
        },
        {
            "lon": 28.11650758,
            "lat": -1.64578513,
            "school_name": "INST SHUKURU",
            "country_name": "Democratic Republic of the Congo",
            "connectivity": false
        },
        {
            "lon": 20.31477831,
            "lat": 1.799995273,
            "school_name": "INST BOSO KODE",
            "country_name": "Democratic Republic of the Congo",
            "connectivity": false
        },
        {
            "lon": 19.79248561,
            "lat": 3.249123607,
            "school_name": "COLLEGE ELIKYA",
            "country_name": "Democratic Republic of the Congo",
            "connectivity": false
        },
        {
            "lon": 19.2458246,
            "lat": 2.467197075,
            "school_name": "INST SEBE",
            "country_name": "Democratic Republic of the Congo",
            "connectivity": false
        },
        {
            "lon": 28.20215,
            "lat": -3.051658333,
            "school_name": "EP KITO",
            "country_name": "Democratic Republic of the Congo",
            "connectivity": false
        },
        {
            "lon": 28.83254487,
            "lat": -2.464713441,
            "school_name": "EP UMOJA",
            "country_name": "Democratic Republic of the Congo",
            "connectivity": false
        },
        {
            "lon": -15.97691,
            "lat": 18.00969,
            "school_name": "MOUBARAKATT",
            "country_name": "Mauritania",
            "connectivity": false
        },
        {
            "lon": 33.29725,
            "lat": 0.50997,
            "school_name": "KAKIRA FACTORY PRIMARY SCHOOL",
            "country_name": "Uganda",
            "connectivity": false
        },
        {
            "lon": 33.03092,
            "lat": 1.00614,
            "school_name": "NAKAWOFU PRIMARY SCHOOL",
            "country_name": "Uganda",
            "connectivity": false
        },
        {
            "lon": 33.26456,
            "lat": 0.91727,
            "school_name": "TRUST NURSERY AND PRI.SCHOOL",
            "country_name": "Uganda",
            "connectivity": false
        },
        {
            "lon": 34.29216,
            "lat": 1.32413,
            "school_name": "MUYEMBE PARENTS SCHOOL",
            "country_name": "Uganda",
            "connectivity": false
        },
        {
            "lon": 34.37023,
            "lat": 1.17652,
            "school_name": "BUMASIFWA P/SCH",
            "country_name": "Uganda",
            "connectivity": false
        },
        {
            "lon": 32.57879,
            "lat": 0.3694,
            "school_name": "Bright Junior School",
            "country_name": "Uganda",
            "connectivity": false
        },
        {
            "lon": 30.44571,
            "lat": 0.32243,
            "school_name": "Kyabenda S.S",
            "country_name": "Uganda",
            "connectivity": false
        },
        {
            "lon": 30.88142,
            "lat": 2.94813,
            "school_name": "Ayiova P.S.",
            "country_name": "Uganda",
            "connectivity": false
        },
        {
            "lon": 31.01388,
            "lat": 2.62384,
            "school_name": "Aiibu P.S.",
            "country_name": "Uganda",
            "connectivity": false
        },
        {
            "lon": 31.52309,
            "lat": -0.21856,
            "school_name": "Kitagabana P.S.",
            "country_name": "Uganda",
            "connectivity": false
        },
        {
            "lon": -59.9819107,
            "lat": -37.3125191,
            "school_name": "CENTRO DE EDUCACION FISICA N\u00ba140",
            "country_name": "Argentina",
            "connectivity": false
        },
        {
            "lon": 32.90916,
            "lat": 1.60878,
            "school_name": "Muntu P.S.",
            "country_name": "Uganda",
            "connectivity": false
        },
        {
            "lon": 30.59498,
            "lat": -26.72891,
            "school_name": "Cangasa Primary School",
            "country_name": "South Africa",
            "connectivity": false
        },
        {
            "lon": 29.05222,
            "lat": -25.1366,
            "school_name": "Phakgamang Primary School",
            "country_name": "South Africa",
            "connectivity": false
        },
        {
            "lon": 31.16838,
            "lat": -25.24205,
            "school_name": "Mntungwa Secondary School",
            "country_name": "South Africa",
            "connectivity": false
        },
        {
            "lon": 24.71825,
            "lat": -27.33512,
            "school_name": "Boijane High School",
            "country_name": "South Africa",
            "connectivity": false
        },
        {
            "lon": 18.22956,
            "lat": -32.69709,
            "school_name": "Slimkoppies Akademie",
            "country_name": "South Africa",
            "connectivity": false
        },
        {
            "lon": 19.3114,
            "lat": -33.37597,
            "school_name": "Ceres Primary School",
            "country_name": "South Africa",
            "connectivity": false
        },
        {
            "lon": 29.54529,
            "lat": -24.74036,
            "school_name": "Mangolwane Senior Secondary",
            "country_name": "South Africa",
            "connectivity": false
        },
        {
            "lon": 29.97186,
            "lat": -24.84443,
            "school_name": "Sengange Senior Secondary",
            "country_name": "South Africa",
            "connectivity": false
        },
        {
            "lon": 30.13867,
            "lat": -23.1994,
            "school_name": "Shinguwa High",
            "country_name": "South Africa",
            "connectivity": false
        },
        {
            "lon": 30.2276,
            "lat": -23.19076,
            "school_name": "Mutsetweni Primary",
            "country_name": "South Africa",
            "connectivity": false
        },
        {
            "lon": 29.09653,
            "lat": -23.06322,
            "school_name": "Boikhutso Primary School",
            "country_name": "South Africa",
            "connectivity": false
        },
        {
            "lon": 29.71499,
            "lat": -30.25368,
            "school_name": "Thembalihle Junior Secondary School",
            "country_name": "South Africa",
            "connectivity": false
        },
        {
            "lon": 30.30109,
            "lat": -29.61012,
            "school_name": "Tetelegu Primary School",
            "country_name": "South Africa",
            "connectivity": false
        },
        {
            "lon": 30.73747,
            "lat": -29.85542,
            "school_name": "Edamini Primary School",
            "country_name": "South Africa",
            "connectivity": false
        },
        {
            "lon": 30.78672,
            "lat": -29.12868,
            "school_name": "Zakhele Primary School",
            "country_name": "South Africa",
            "connectivity": false
        },
        {
            "lon": 32.10629,
            "lat": -28.33092,
            "school_name": "Somkhele Primary School",
            "country_name": "South Africa",
            "connectivity": false
        },
        {
            "lon": 30.90389,
            "lat": -29.90302,
            "school_name": "Kharwastan Secondary School",
            "country_name": "South Africa",
            "connectivity": false
        },
        {
            "lon": 28.06299,
            "lat": -26.0961,
            "school_name": "Grayston Preparatory School",
            "country_name": "South Africa",
            "connectivity": false
        },
        {
            "lon": 28.72833,
            "lat": -25.80722,
            "school_name": "Voetjies",
            "country_name": "South Africa",
            "connectivity": false
        },
        {
            "lon": 27.95541,
            "lat": -26.25493,
            "school_name": "Nandi Primary School",
            "country_name": "South Africa",
            "connectivity": false
        },
        {
            "lon": 28.04435,
            "lat": -25.56897,
            "school_name": "Ho?\u0192?\u00abrskool Hercules",
            "country_name": "South Africa",
            "connectivity": false
        },
        {
            "lon": 28.19733,
            "lat": -26.09612,
            "school_name": "Edleen Primary School",
            "country_name": "South Africa",
            "connectivity": false
        },
        {
            "lon": 28.35442,
            "lat": -26.37102,
            "school_name": "Tsakane Ext8 Secondary School",
            "country_name": "South Africa",
            "connectivity": false
        },
        {
            "lon": 27.56447,
            "lat": -31.79037,
            "school_name": "Mnqanqeni Junior Secondary School",
            "country_name": "South Africa",
            "connectivity": false
        },
        {
            "lon": 26.63735,
            "lat": -32.75602,
            "school_name": "Imvisiswano Primary School",
            "country_name": "South Africa",
            "connectivity": false
        },
        {
            "lon": 26.7183,
            "lat": -32.57645,
            "school_name": "Hertzog Primary School",
            "country_name": "South Africa",
            "connectivity": false
        },
        {
            "lon": 27.96721,
            "lat": -28.30415,
            "school_name": "School",
            "country_name": "South Africa",
            "connectivity": false
        },
        {
            "lon": 26.83497,
            "lat": -32.78695,
            "school_name": "Christ the King Day-Care and Pre-School",
            "country_name": "South Africa",
            "connectivity": false
        },
        {
            "lon": 25.66994,
            "lat": -33.99883,
            "school_name": "Cape Recife School",
            "country_name": "South Africa",
            "connectivity": false
        },
        {
            "lon": 26.50326,
            "lat": -33.64648,
            "school_name": "Warwick Ford State Aided School",
            "country_name": "South Africa",
            "connectivity": false
        },
        {
            "lon": 29.66827,
            "lat": -30.78339,
            "school_name": "Qungebe Senior Primary School",
            "country_name": "South Africa",
            "connectivity": false
        },
        {
            "lon": 28.93426,
            "lat": -30.93706,
            "school_name": "Zibokwana Secondary School",
            "country_name": "South Africa",
            "connectivity": false
        },
        {
            "lon": 28.55559,
            "lat": -31.50097,
            "school_name": "Lwandlana Primary School",
            "country_name": "South Africa",
            "connectivity": false
        },
        {
            "lon": 29.58875,
            "lat": -30.86924,
            "school_name": "Mbiba Senior Primary School",
            "country_name": "South Africa",
            "connectivity": false
        },
        {
            "lon": 29.45018,
            "lat": -31.23964,
            "school_name": "Mjobo Senior Primary School",
            "country_name": "South Africa",
            "connectivity": false
        },
        {
            "lon": -60.4167,
            "lat": -35.07322,
            "school_name": "ESCUELA PRIMARIA N\u00ba36 SANTIAGO DEL ESTERO",
            "country_name": "Argentina",
            "connectivity": false
        },
        {
            "lon": -58.34086602,
            "lat": -34.75354078,
            "school_name": "ESCUELA PRIMARIA N\u00ba80 ROSARIO VERA PE\u00d1ALOZA",
            "country_name": "Argentina",
            "connectivity": false
        },
        {
            "lon": -59.02056213,
            "lat": -34.42817309,
            "school_name": "ESCUELA SECUNDARIA N\u00ba9 MARIA GARCHITORENA DE CALVAGNO",
            "country_name": "Argentina",
            "connectivity": false
        },
        {
            "lon": -58.60623637,
            "lat": -34.72621071,
            "school_name": "ESCUELA PRIMARIA N\u00ba166 CECILIA GRIERSON",
            "country_name": "Argentina",
            "connectivity": false
        },
        {
            "lon": -58.23202578,
            "lat": -34.80426958,
            "school_name": "JARDIN MUNICIPAL N\u00ba10",
            "country_name": "Argentina",
            "connectivity": false
        },
        {
            "lon": -57.59136019,
            "lat": -38.03397053,
            "school_name": "ESC. SECUNDARIA BASICA N\u00ba23",
            "country_name": "Argentina",
            "connectivity": false
        },
        {
            "lon": -57.96035795,
            "lat": -34.9168383,
            "school_name": "INSTITUTO RAUL DUYOS",
            "country_name": "Argentina",
            "connectivity": false
        },
        {
            "lon": -58.52163337,
            "lat": -34.52992523,
            "school_name": "ESC. SECUNDARIA BASICA N\u00ba8",
            "country_name": "Argentina",
            "connectivity": false
        },
        {
            "lon": -58.74708871,
            "lat": -34.70723619,
            "school_name": "ESC. SECUNDARIA BASICA N\u00ba18",
            "country_name": "Argentina",
            "connectivity": false
        },
        {
            "lon": -59.0071746,
            "lat": -27.45304125,
            "school_name": "E.E.P. N\u00ba 698-MARTIN MIGUEL DE GUEMES",
            "country_name": "Argentina",
            "connectivity": false
        },
        {
            "lon": -58.52275227,
            "lat": -34.62837147,
            "school_name": "ESTADOS UNIDOS DE AMERICA",
            "country_name": "Argentina",
            "connectivity": false
        },
        {
            "lon": -62.39170902,
            "lat": -31.82678159,
            "school_name": "JUAN XXIII",
            "country_name": "Argentina",
            "connectivity": false
        },
        {
            "lon": -58.54989972,
            "lat": -33.01243338,
            "school_name": "PRIV. INSTITUTO AGROTECNICA GUALEGUAYCHU",
            "country_name": "Argentina",
            "connectivity": false
        },
        {
            "lon": -59.31522094,
            "lat": -33.1327835,
            "school_name": "VICTORIANO E. MONTES 6",
            "country_name": "Argentina",
            "connectivity": false
        },
        {
            "lon": -60.17253879,
            "lat": -32.60514853,
            "school_name": "ESCUELA SECUNDARIA 8",
            "country_name": "Argentina",
            "connectivity": false
        },
        {
            "lon": -65.1942537,
            "lat": -24.25771411,
            "school_name": "ESCUELA N 207 GRAL. DE BRIGADA ARMANDO PEDRO PIO MARTIJENA",
            "country_name": "Argentina",
            "connectivity": false
        },
        {
            "lon": -71.35182834,
            "lat": -40.15477364,
            "school_name": "C.P.E.M. 13",
            "country_name": "Argentina",
            "connectivity": false
        },
        {
            "lon": -74.6804,
            "lat": -12.4098,
            "school_name": "35020",
            "country_name": "Peru",
            "connectivity": false
        },
        {
            "lon": -63.88840361,
            "lat": -25.57451804,
            "school_name": "PASTORA LOBO DE PAUNA EX N\u00b0651",
            "country_name": "Argentina",
            "connectivity": false
        },
        {
            "lon": -68.92235956,
            "lat": -46.5398325,
            "school_name": "E.P.J.A. PRIMARIA N\u00ba 14",
            "country_name": "Argentina",
            "connectivity": false
        },
        {
            "lon": -74.7637,
            "lat": -12.7789,
            "school_name": "36303 JOSE CARLOS MARIATEGUI",
            "country_name": "Peru",
            "connectivity": false
        },
        {
            "lon": -74.7389,
            "lat": -13.6198,
            "school_name": "38595 ANTACOCHA-VILCANCHOS",
            "country_name": "Peru",
            "connectivity": false
        },
        {
            "lon": -63.64016,
            "lat": -25.77517,
            "school_name": "ESCUELA N\u00ba548",
            "country_name": "Argentina",
            "connectivity": false
        },
        {
            "lon": -64.55317,
            "lat": -27.52073,
            "school_name": "ESCUELA N\u00b0 10 PROVINCIA DEL TUCUMAN J/N.19",
            "country_name": "Argentina",
            "connectivity": false
        },
        {
            "lon": -62.83325973,
            "lat": -25.8070932,
            "school_name": "CENTRO DE EDUCACION BASICA DE ADULTOS N.103",
            "country_name": "Argentina",
            "connectivity": false
        },
        {
            "lon": 5.680226,
            "lat": 5.900028,
            "school_name": "Name unknown",
            "country_name": "Nigeria",
            "connectivity": false
        },
        {
            "lon": 5.669348,
            "lat": 5.892979,
            "school_name": "Name unknown",
            "country_name": "Nigeria",
            "connectivity": false
        },
        {
            "lon": 5.834034,
            "lat": 5.504406,
            "school_name": "Name unknown",
            "country_name": "Nigeria",
            "connectivity": false
        },
        {
            "lon": 5.72694,
            "lat": 5.57283,
            "school_name": "Name unknown",
            "country_name": "Nigeria",
            "connectivity": false
        },
        {
            "lon": 7.62247,
            "lat": 5.359677,
            "school_name": "Name unknown",
            "country_name": "Nigeria",
            "connectivity": false
        },
        {
            "lon": 13.06918923,
            "lat": 11.2045069,
            "school_name": "Name unknown",
            "country_name": "Nigeria",
            "connectivity": false
        },
        {
            "lon": 8.079543333,
            "lat": 6.183305,
            "school_name": "Name unknown",
            "country_name": "Nigeria",
            "connectivity": false
        },
        {
            "lon": 7.704391667,
            "lat": 6.58385,
            "school_name": "Name unknown",
            "country_name": "Nigeria",
            "connectivity": false
        },
        {
            "lon": 7.553823,
            "lat": 5.894349,
            "school_name": "Name unknown",
            "country_name": "Nigeria",
            "connectivity": false
        },
        {
            "lon": 8.26122,
            "lat": 6.56039,
            "school_name": "Name unknown",
            "country_name": "Nigeria",
            "connectivity": false
        },
        {
            "lon": 6.228894,
            "lat": 6.745348,
            "school_name": "Name unknown",
            "country_name": "Nigeria",
            "connectivity": false
        },
        {
            "lon": 6.242418,
            "lat": 6.645398,
            "school_name": "Name unknown",
            "country_name": "Nigeria",
            "connectivity": false
        },
        {
            "lon": 5.548322,
            "lat": 6.766451,
            "school_name": "Name unknown",
            "country_name": "Nigeria",
            "connectivity": false
        },
        {
            "lon": 7.4991017,
            "lat": 6.4844833,
            "school_name": "Name unknown",
            "country_name": "Nigeria",
            "connectivity": false
        },
        {
            "lon": 7.41263,
            "lat": 6.659566,
            "school_name": "Name unknown",
            "country_name": "Nigeria",
            "connectivity": false
        },
        {
            "lon": 7.285231,
            "lat": 6.117275,
            "school_name": "Name unknown",
            "country_name": "Nigeria",
            "connectivity": false
        },
        {
            "lon": 7.442654,
            "lat": 6.852918,
            "school_name": "Name unknown",
            "country_name": "Nigeria",
            "connectivity": false
        },
        {
            "lon": 11.21001,
            "lat": 10.34885,
            "school_name": "Name unknown",
            "country_name": "Nigeria",
            "connectivity": false
        },
        {
            "lon": 7.176163333,
            "lat": 5.462688333,
            "school_name": "Name unknown",
            "country_name": "Nigeria",
            "connectivity": false
        },
        {
            "lon": -76.7766,
            "lat": -6.3706,
            "school_name": "30",
            "country_name": "Peru",
            "connectivity": false
        },
        {
            "lon": -76.7875,
            "lat": -6.21369,
            "school_name": "867",
            "country_name": "Peru",
            "connectivity": false
        },
        {
            "lon": -78.0207,
            "lat": -6.8364,
            "school_name": "42",
            "country_name": "Peru",
            "connectivity": false
        },
        {
            "lon": -76.7701,
            "lat": -11.9703,
            "school_name": "0502 ENRIQUE LOPEZ ALBUJAR",
            "country_name": "Peru",
            "connectivity": false
        },
        {
            "lon": -76.5167,
            "lat": -6.6372,
            "school_name": "604",
            "country_name": "Peru",
            "connectivity": false
        },
        {
            "lon": -71.8495,
            "lat": -13.7958,
            "school_name": "1001",
            "country_name": "Peru",
            "connectivity": false
        },
        {
            "lon": -79.4974,
            "lat": -5.93266,
            "school_name": "10071",
            "country_name": "Peru",
            "connectivity": false
        },
        {
            "lon": -79.4677,
            "lat": -6.19403,
            "school_name": "11044",
            "country_name": "Peru",
            "connectivity": false
        },
        {
            "lon": -76.9621,
            "lat": -12.038,
            "school_name": "1210 SAN MARCOS",
            "country_name": "Peru",
            "connectivity": false
        },
        {
            "lon": -81.275,
            "lat": -4.56359,
            "school_name": "14901 MAXIMO HERACLIO CORNEJO PACORA",
            "country_name": "Peru",
            "connectivity": false
        },
        {
            "lon": -79.7063,
            "lat": -4.97401,
            "school_name": "15141",
            "country_name": "Peru",
            "connectivity": false
        },
        {
            "lon": -75.4424,
            "lat": -11.7824,
            "school_name": "1519",
            "country_name": "Peru",
            "connectivity": false
        },
        {
            "lon": -74.623,
            "lat": -12.8677,
            "school_name": "153",
            "country_name": "Peru",
            "connectivity": false
        },
        {
            "lon": -78.0808,
            "lat": -4.68642,
            "school_name": "16310",
            "country_name": "Peru",
            "connectivity": false
        },
        {
            "lon": -78.4433,
            "lat": -5.42807,
            "school_name": "16588",
            "country_name": "Peru",
            "connectivity": false
        },
        {
            "lon": -74.5177,
            "lat": -11.3549,
            "school_name": "1712",
            "country_name": "Peru",
            "connectivity": false
        },
        {
            "lon": -77.7794,
            "lat": -5.93161,
            "school_name": "18095",
            "country_name": "Peru",
            "connectivity": false
        },
        {
            "lon": -77.6659,
            "lat": -6.0809,
            "school_name": "18365",
            "country_name": "Peru",
            "connectivity": false
        },
        {
            "lon": -77.2304,
            "lat": -6.2279,
            "school_name": "18427",
            "country_name": "Peru",
            "connectivity": false
        },
        {
            "lon": -72.8783,
            "lat": -13.6386,
            "school_name": "199 DIVINA PROVIDENCIA",
            "country_name": "Peru",
            "connectivity": false
        },
        {
            "lon": -79.7979,
            "lat": -5.32085,
            "school_name": "20105",
            "country_name": "Peru",
            "connectivity": false
        },
        {
            "lon": -75.0065,
            "lat": -12.2999,
            "school_name": "202",
            "country_name": "Peru",
            "connectivity": false
        },
        {
            "lon": -79.6385,
            "lat": -5.33235,
            "school_name": "20410",
            "country_name": "Peru",
            "connectivity": false
        },
        {
            "lon": -79.5698,
            "lat": -5.64334,
            "school_name": "20862",
            "country_name": "Peru",
            "connectivity": false
        },
        {
            "lon": -74.2579,
            "lat": -11.0259,
            "school_name": "2224",
            "country_name": "Peru",
            "connectivity": false
        },
        {
            "lon": -77.3202,
            "lat": -8.44429,
            "school_name": "2240",
            "country_name": "Peru",
            "connectivity": false
        },
        {
            "lon": -71.3493,
            "lat": -17.659,
            "school_name": "231",
            "country_name": "Peru",
            "connectivity": false
        },
        {
            "lon": -76.976,
            "lat": -11.9601,
            "school_name": "27 DE MARZO",
            "country_name": "Peru",
            "connectivity": false
        },
        {
            "lon": -73.9369,
            "lat": -11.998,
            "school_name": "30001-249",
            "country_name": "Peru",
            "connectivity": false
        },
        {
            "lon": -74.0684,
            "lat": -9.92984,
            "school_name": "65318-B",
            "country_name": "Peru",
            "connectivity": false
        },
        {
            "lon": -74.969,
            "lat": -12.5215,
            "school_name": "308 LOS ANGELITOS",
            "country_name": "Peru",
            "connectivity": false
        },
        {
            "lon": -76.5862,
            "lat": -9.7175,
            "school_name": "32296",
            "country_name": "Peru",
            "connectivity": false
        },
        {
            "lon": -75.7868,
            "lat": -9.81492,
            "school_name": "32963",
            "country_name": "Peru",
            "connectivity": false
        },
        {
            "lon": -76.4522,
            "lat": -10.4751,
            "school_name": "34152",
            "country_name": "Peru",
            "connectivity": false
        },
        {
            "lon": -79.8112,
            "lat": -6.42803,
            "school_name": "344 VIRGEN DE LORETO",
            "country_name": "Peru",
            "connectivity": false
        },
        {
            "lon": -75.5173,
            "lat": -11.7111,
            "school_name": "345 GOTITAS DE LA LAGUNA",
            "country_name": "Peru",
            "connectivity": false
        },
        {
            "lon": 3.322916787,
            "lat": 6.659786173,
            "school_name": "Name unknown",
            "country_name": "Nigeria",
            "connectivity": false
        },
        {
            "lon": -74.9859,
            "lat": -12.5323,
            "school_name": "36788",
            "country_name": "Peru",
            "connectivity": false
        },
        {
            "lon": -73.8956,
            "lat": -13.2216,
            "school_name": "38430 /MX-P",
            "country_name": "Peru",
            "connectivity": false
        },
        {
            "lon": -77.3211,
            "lat": -6.70646,
            "school_name": "391",
            "country_name": "Peru",
            "connectivity": false
        },
        {
            "lon": -72.5793,
            "lat": -12.7698,
            "school_name": "50243",
            "country_name": "Peru",
            "connectivity": false
        },
        {
            "lon": -77.1024,
            "lat": -12.0429,
            "school_name": "5031 CESAR VALLEJO",
            "country_name": "Peru",
            "connectivity": false
        },
        {
            "lon": -80.5737,
            "lat": -4.7919,
            "school_name": "521 (COMPLEJO)",
            "country_name": "Peru",
            "connectivity": false
        },
        {
            "lon": -73.34,
            "lat": -3.84385,
            "school_name": "530",
            "country_name": "Peru",
            "connectivity": false
        },
        {
            "lon": -70.5089,
            "lat": -3.90002,
            "school_name": "6010336 - SAN MARTIN",
            "country_name": "Peru",
            "connectivity": false
        },
        {
            "lon": -73.8097,
            "lat": -2.32862,
            "school_name": "601495",
            "country_name": "Peru",
            "connectivity": false
        },
        {
            "lon": -74.7222,
            "lat": -3.79965,
            "school_name": "601592",
            "country_name": "Peru",
            "connectivity": false
        },
        {
            "lon": -74.5018,
            "lat": -5.6863,
            "school_name": "60725",
            "country_name": "Peru",
            "connectivity": false
        },
        {
            "lon": -76.9239,
            "lat": -4.78271,
            "school_name": "62454",
            "country_name": "Peru",
            "connectivity": false
        },
        {
            "lon": -76.4876,
            "lat": -12.2653,
            "school_name": "636",
            "country_name": "Peru",
            "connectivity": false
        },
        {
            "lon": -74.1774,
            "lat": -9.46565,
            "school_name": "64162-B",
            "country_name": "Peru",
            "connectivity": false
        },
        {
            "lon": -70.6873,
            "lat": -14.8918,
            "school_name": "70520",
            "country_name": "Peru",
            "connectivity": false
        },
        {
            "lon": -76.9337,
            "lat": -12.2309,
            "school_name": "7215 NACIONES UNIDAS",
            "country_name": "Peru",
            "connectivity": false
        },
        {
            "lon": -78.5584,
            "lat": -6.61098,
            "school_name": "728",
            "country_name": "Peru",
            "connectivity": false
        },
        {
            "lon": -77.1244,
            "lat": -11.9964,
            "school_name": "80 LOS NI\u00d1OS DE JESUS",
            "country_name": "Peru",
            "connectivity": false
        },
        {
            "lon": -78.6212,
            "lat": -7.5465,
            "school_name": "80707",
            "country_name": "Peru",
            "connectivity": false
        },
        {
            "lon": -78.3704,
            "lat": -8.11341,
            "school_name": "80945 JAVIER HERAUD",
            "country_name": "Peru",
            "connectivity": false
        },
        {
            "lon": -79.2209,
            "lat": -7.8892,
            "school_name": "81531 OLGA PEREDA NORIEGA",
            "country_name": "Peru",
            "connectivity": false
        },
        {
            "lon": -78.1832,
            "lat": -7.70873,
            "school_name": "821189",
            "country_name": "Peru",
            "connectivity": false
        },
        {
            "lon": -70.0943,
            "lat": -15.0098,
            "school_name": "828",
            "country_name": "Peru",
            "connectivity": false
        },
        {
            "lon": -77.1552,
            "lat": -8.57386,
            "school_name": "84081",
            "country_name": "Peru",
            "connectivity": false
        },
        {
            "lon": -77.2687,
            "lat": -8.8123,
            "school_name": "84120 MARINO ROCA OCA\u00d1A",
            "country_name": "Peru",
            "connectivity": false
        },
        {
            "lon": -77.6936,
            "lat": -9.2624,
            "school_name": "86288",
            "country_name": "Peru",
            "connectivity": false
        },
        {
            "lon": -77.6516,
            "lat": -9.17575,
            "school_name": "86627",
            "country_name": "Peru",
            "connectivity": false
        },
        {
            "lon": -78.0279,
            "lat": -8.32611,
            "school_name": "88184",
            "country_name": "Peru",
            "connectivity": false
        },
        {
            "lon": -78.5601,
            "lat": -9.0284,
            "school_name": "88403",
            "country_name": "Peru",
            "connectivity": false
        },
        {
            "lon": -77.0083,
            "lat": -11.9134,
            "school_name": "ALFREDO DELP",
            "country_name": "Peru",
            "connectivity": false
        },
        {
            "lon": -74.902,
            "lat": -7.79282,
            "school_name": "ANGEL SANCHEZ VARGAS-B",
            "country_name": "Peru",
            "connectivity": false
        },
        {
            "lon": -70.3477,
            "lat": -15.6421,
            "school_name": "CABANILLAS",
            "country_name": "Peru",
            "connectivity": false
        },
        {
            "lon": -75.239,
            "lat": -12.0273,
            "school_name": "CAHUIDE",
            "country_name": "Peru",
            "connectivity": false
        },
        {
            "lon": -77.1864,
            "lat": -11.4282,
            "school_name": "CARRUSEL DE AMOR",
            "country_name": "Peru",
            "connectivity": false
        },
        {
            "lon": -75.0228,
            "lat": -14.0082,
            "school_name": "CELESTINO MANCHEGO MU\u00d1OZ",
            "country_name": "Peru",
            "connectivity": false
        },
        {
            "lon": -75.6928,
            "lat": -11.4282,
            "school_name": "CESAR VALLEJO",
            "country_name": "Peru",
            "connectivity": false
        },
        {
            "lon": -79.0432,
            "lat": -8.11288,
            "school_name": "CIENCIA Y ARTE",
            "country_name": "Peru",
            "connectivity": false
        },
        {
            "lon": -76.517,
            "lat": -5.53457,
            "school_name": "CRFA ANTIOQUIA",
            "country_name": "Peru",
            "connectivity": false
        },
        {
            "lon": -78.9705,
            "lat": -5.24657,
            "school_name": "CRFA LA CUMBRE DEL CORAZON",
            "country_name": "Peru",
            "connectivity": false
        },
        {
            "lon": -73.172,
            "lat": -15.9824,
            "school_name": "CRISTO REY DE REYES",
            "country_name": "Peru",
            "connectivity": false
        },
        {
            "lon": -80.6489,
            "lat": -5.20469,
            "school_name": "EL MILAGRO DE JESUS Y MARIA",
            "country_name": "Peru",
            "connectivity": false
        },
        {
            "lon": -70.6652,
            "lat": -16.0097,
            "school_name": "ESTATAL DE TOLAPALCA",
            "country_name": "Peru",
            "connectivity": false
        },
        {
            "lon": -79.0079,
            "lat": -7.39593,
            "school_name": "GRANERO SAN LORENZO",
            "country_name": "Peru",
            "connectivity": false
        },
        {
            "lon": -78.5302,
            "lat": -7.11623,
            "school_name": "HUAMBOCANCHA",
            "country_name": "Peru",
            "connectivity": false
        },
        {
            "lon": -75.246,
            "lat": -12.0546,
            "school_name": "HUELLITAS DE COLORES",
            "country_name": "Peru",
            "connectivity": false
        },
        {
            "lon": -75.0374,
            "lat": -12.4359,
            "school_name": "INDOAMERICA",
            "country_name": "Peru",
            "connectivity": false
        },
        {
            "lon": -76.9544,
            "lat": -12.0302,
            "school_name": "INGENIEROS DE LUCUMOS",
            "country_name": "Peru",
            "connectivity": false
        },
        {
            "lon": -79.0566,
            "lat": -8.07383,
            "school_name": "JESUS ME GUIA",
            "country_name": "Peru",
            "connectivity": false
        },
        {
            "lon": -71.5843,
            "lat": -16.3356,
            "school_name": "KAROL WOJTYLA",
            "country_name": "Peru",
            "connectivity": false
        },
        {
            "lon": -77.9347,
            "lat": -6.84044,
            "school_name": "LOS ANGELES",
            "country_name": "Peru",
            "connectivity": false
        },
        {
            "lon": -77.8119,
            "lat": -9.05433,
            "school_name": "LOS NI\u00d1OS INNOVADORES",
            "country_name": "Peru",
            "connectivity": false
        },
        {
            "lon": -77.6622,
            "lat": -9.80916,
            "school_name": "LOS ROCOTITOS",
            "country_name": "Peru",
            "connectivity": false
        },
        {
            "lon": -74.1422,
            "lat": -13.6318,
            "school_name": "MARIA PARADO DE BELLIDO",
            "country_name": "Peru",
            "connectivity": false
        },
        {
            "lon": -76.3224,
            "lat": -9.74359,
            "school_name": "MARIAN",
            "country_name": "Peru",
            "connectivity": false
        },
        {
            "lon": -71.4975,
            "lat": -16.376,
            "school_name": "MI AMIGUITO JESUS",
            "country_name": "Peru",
            "connectivity": false
        },
        {
            "lon": -76.1563,
            "lat": -13.7014,
            "school_name": "PERU SUIZO",
            "country_name": "Peru",
            "connectivity": false
        },
        {
            "lon": -76.8075,
            "lat": -12.3517,
            "school_name": "RAYITOS DE SOL",
            "country_name": "Peru",
            "connectivity": false
        },
        {
            "lon": -76.9744,
            "lat": -12.1877,
            "school_name": "RICARDO PALMA",
            "country_name": "Peru",
            "connectivity": false
        },
        {
            "lon": -76.1348,
            "lat": -13.4287,
            "school_name": "SAGRADO CORAZON",
            "country_name": "Peru",
            "connectivity": false
        },
        {
            "lon": -77.0025,
            "lat": -11.9517,
            "school_name": "SAN JOSE EL MAESTRO",
            "country_name": "Peru",
            "connectivity": false
        },
        {
            "lon": -79.0243,
            "lat": -8.10679,
            "school_name": "SANTA RITA DE CASIA",
            "country_name": "Peru",
            "connectivity": false
        },
        {
            "lon": -71.4873,
            "lat": -14.7882,
            "school_name": "SEPILLATA",
            "country_name": "Peru",
            "connectivity": false
        },
        {
            "lon": -69.8162,
            "lat": -16.7249,
            "school_name": "SOL NACIENTES",
            "country_name": "Peru",
            "connectivity": false
        },
        {
            "lon": -78.1922,
            "lat": -6.89306,
            "school_name": "SOLIDARIOS",
            "country_name": "Peru",
            "connectivity": false
        },
        {
            "lon": -72.7981,
            "lat": -13.5137,
            "school_name": "TAYROMA - ALTA",
            "country_name": "Peru",
            "connectivity": false
        },
        {
            "lon": 7.46149703,
            "lat": 10.44904372,
            "school_name": "Name unknown",
            "country_name": "Nigeria",
            "connectivity": false
        },
        {
            "lon": 7.50617355,
            "lat": 10.39973792,
            "school_name": "Name unknown",
            "country_name": "Nigeria",
            "connectivity": false
        },
        {
            "lon": 7.40405019,
            "lat": 10.41288002,
            "school_name": "Name unknown",
            "country_name": "Nigeria",
            "connectivity": false
        },
        {
            "lon": 8.22131931,
            "lat": 11.17728466,
            "school_name": "Name unknown",
            "country_name": "Nigeria",
            "connectivity": false
        },
        {
            "lon": 7.421803333,
            "lat": 10.47546,
            "school_name": "Name unknown",
            "country_name": "Nigeria",
            "connectivity": false
        },
        {
            "lon": 8.607485,
            "lat": 9.806705,
            "school_name": "Name unknown",
            "country_name": "Nigeria",
            "connectivity": false
        },
        {
            "lon": 8.552218333,
            "lat": 9.743881668,
            "school_name": "Name unknown",
            "country_name": "Nigeria",
            "connectivity": false
        },
        {
            "lon": 8.33695293,
            "lat": 10.99470595,
            "school_name": "Name unknown",
            "country_name": "Nigeria",
            "connectivity": false
        },
        {
            "lon": 8.20737461,
            "lat": 11.05674875,
            "school_name": "Name unknown",
            "country_name": "Nigeria",
            "connectivity": false
        },
        {
            "lon": 8.096333,
            "lat": 12.25831,
            "school_name": "Name unknown",
            "country_name": "Nigeria",
            "connectivity": false
        },
        {
            "lon": 8.902426,
            "lat": 11.41334,
            "school_name": "Name unknown",
            "country_name": "Nigeria",
            "connectivity": false
        },
        {
            "lon": 8.452608,
            "lat": 11.32711,
            "school_name": "Name unknown",
            "country_name": "Nigeria",
            "connectivity": false
        },
        {
            "lon": 11.681986,
            "lat": 7.812631,
            "school_name": "Name unknown",
            "country_name": "Nigeria",
            "connectivity": false
        },
        {
            "lon": 7.304224,
            "lat": 7.306375,
            "school_name": "Name unknown",
            "country_name": "Nigeria",
            "connectivity": false
        },
        {
            "lon": 6.202293,
            "lat": 7.532373,
            "school_name": "Name unknown",
            "country_name": "Nigeria",
            "connectivity": false
        },
        {
            "lon": 7.379725,
            "lat": 7.057331667,
            "school_name": "Name unknown",
            "country_name": "Nigeria",
            "connectivity": false
        },
        {
            "lon": 7.40655,
            "lat": 7.19235,
            "school_name": "Name unknown",
            "country_name": "Nigeria",
            "connectivity": false
        },
        {
            "lon": 4.823225,
            "lat": 9.083854,
            "school_name": "Name unknown",
            "country_name": "Nigeria",
            "connectivity": false
        },
        {
            "lon": 3.2705,
            "lat": 6.58004,
            "school_name": "Name unknown",
            "country_name": "Nigeria",
            "connectivity": false
        },
        {
            "lon": 3.247490599,
            "lat": 6.653468554,
            "school_name": "Name unknown",
            "country_name": "Nigeria",
            "connectivity": false
        },
        {
            "lon": 2.94451,
            "lat": 6.43806,
            "school_name": "Name unknown",
            "country_name": "Nigeria",
            "connectivity": false
        },
        {
            "lon": 3.665623,
            "lat": 6.468392,
            "school_name": "Name unknown",
            "country_name": "Nigeria",
            "connectivity": false
        },
        {
            "lon": 3.326286737,
            "lat": 6.656585326,
            "school_name": "Name unknown",
            "country_name": "Nigeria",
            "connectivity": false
        },
        {
            "lon": 3.358089926,
            "lat": 6.63607123,
            "school_name": "Name unknown",
            "country_name": "Nigeria",
            "connectivity": false
        },
        {
            "lon": 3.344162294,
            "lat": 6.521056391,
            "school_name": "Name unknown",
            "country_name": "Nigeria",
            "connectivity": false
        },
        {
            "lon": 3.16316,
            "lat": 6.45195,
            "school_name": "Name unknown",
            "country_name": "Nigeria",
            "connectivity": false
        },
        {
            "lon": 3.379025,
            "lat": 6.482985,
            "school_name": "Name unknown",
            "country_name": "Nigeria",
            "connectivity": false
        },
        {
            "lon": 6.44194,
            "lat": 9.68359,
            "school_name": "Name unknown",
            "country_name": "Nigeria",
            "connectivity": false
        },
        {
            "lon": 4.845905796,
            "lat": 9.179695117,
            "school_name": "Name unknown",
            "country_name": "Nigeria",
            "connectivity": false
        },
        {
            "lon": 3.18677856,
            "lat": 6.882113,
            "school_name": "Name unknown",
            "country_name": "Nigeria",
            "connectivity": false
        },
        {
            "lon": 2.83795,
            "lat": 7.447881667,
            "school_name": "Name unknown",
            "country_name": "Nigeria",
            "connectivity": false
        },
        {
            "lon": 2.7905785,
            "lat": 6.72875887,
            "school_name": "Name unknown",
            "country_name": "Nigeria",
            "connectivity": false
        },
        {
            "lon": 3.729487914,
            "lat": 7.21272987,
            "school_name": "Name unknown",
            "country_name": "Nigeria",
            "connectivity": false
        },
        {
            "lon": 5.759235921,
            "lat": 7.678061952,
            "school_name": "Name unknown",
            "country_name": "Nigeria",
            "connectivity": false
        },
        {
            "lon": 5.718820953,
            "lat": 7.374056375,
            "school_name": "Name unknown",
            "country_name": "Nigeria",
            "connectivity": false
        },
        {
            "lon": 5.112701,
            "lat": 7.153589,
            "school_name": "Name unknown",
            "country_name": "Nigeria",
            "connectivity": false
        },
        {
            "lon": 4.358531,
            "lat": 7.17404,
            "school_name": "Name unknown",
            "country_name": "Nigeria",
            "connectivity": false
        },
        {
            "lon": 4.484868,
            "lat": 7.869284,
            "school_name": "Name unknown",
            "country_name": "Nigeria",
            "connectivity": false
        },
        {
            "lon": 4.544731,
            "lat": 7.770733,
            "school_name": "Name unknown",
            "country_name": "Nigeria",
            "connectivity": false
        },
        {
            "lon": 7.562547,
            "lat": 5.000303,
            "school_name": "Name unknown",
            "country_name": "Nigeria",
            "connectivity": false
        },
        {
            "lon": 7.755929,
            "lat": 5.253562,
            "school_name": "Name unknown",
            "country_name": "Nigeria",
            "connectivity": false
        },
        {
            "lon": 7.57041,
            "lat": 4.734192,
            "school_name": "Name unknown",
            "country_name": "Nigeria",
            "connectivity": false
        },
        {
            "lon": 3.861985,
            "lat": 9.079675,
            "school_name": "Name unknown",
            "country_name": "Nigeria",
            "connectivity": false
        },
        {
            "lon": 3.630608,
            "lat": 7.941404,
            "school_name": "Name unknown",
            "country_name": "Nigeria",
            "connectivity": false
        },
        {
            "lon": 8.893518,
            "lat": 9.686901,
            "school_name": "Name unknown",
            "country_name": "Nigeria",
            "connectivity": false
        },
        {
            "lon": 8.764422,
            "lat": 9.954399,
            "school_name": "Name unknown",
            "country_name": "Nigeria",
            "connectivity": false
        },
        {
            "lon": 7.469787,
            "lat": 4.500947,
            "school_name": "Name unknown",
            "country_name": "Nigeria",
            "connectivity": false
        },
        {
            "lon": 6.922081484,
            "lat": 4.902626052,
            "school_name": "Name unknown",
            "country_name": "Nigeria",
            "connectivity": false
        },
        {
            "lon": 10.5068178,
            "lat": 7.3688145,
            "school_name": "Name unknown",
            "country_name": "Nigeria",
            "connectivity": false
        },
        {
            "lon": 9.988228527,
            "lat": 7.250326498,
            "school_name": "Name unknown",
            "country_name": "Nigeria",
            "connectivity": false
        },
        {
            "lon": 6.82574,
            "lat": 6.02709,
            "school_name": "Name unknown",
            "country_name": "Nigeria",
            "connectivity": false
        },
        {
            "lon": 6.776331,
            "lat": 6.133991,
            "school_name": "Name unknown",
            "country_name": "Nigeria",
            "connectivity": false
        },
        {
            "lon": 7.26004543,
            "lat": 12.19090527,
            "school_name": "Name unknown",
            "country_name": "Nigeria",
            "connectivity": false
        },
        {
            "lon": 7.70415922,
            "lat": 11.80494909,
            "school_name": "Name unknown",
            "country_name": "Nigeria",
            "connectivity": false
        },
        {
            "lon": 6.985920668,
            "lat": 11.26332521,
            "school_name": "Name unknown",
            "country_name": "Nigeria",
            "connectivity": false
        },
        {
            "lon": 9.715700323,
            "lat": 10.155534,
            "school_name": "Name unknown",
            "country_name": "Nigeria",
            "connectivity": false
        },
        {
            "lon": 10.312557,
            "lat": 10.902482,
            "school_name": "Name unknown",
            "country_name": "Nigeria",
            "connectivity": false
        },
        {
            "lon": 9.676787853,
            "lat": 11.21406913,
            "school_name": "Name unknown",
            "country_name": "Nigeria",
            "connectivity": false
        },
        {
            "lon": 4.32851924,
            "lat": 11.91198127,
            "school_name": "Name unknown",
            "country_name": "Nigeria",
            "connectivity": false
        },
        {
            "lon": 5.14048,
            "lat": 11.62918,
            "school_name": "Name unknown",
            "country_name": "Nigeria",
            "connectivity": false
        },
        {
            "lon": 5.198280303,
            "lat": 12.96385199,
            "school_name": "Name unknown",
            "country_name": "Nigeria",
            "connectivity": false
        },
        {
            "lon": 8.789692,
            "lat": 7.20979,
            "school_name": "Name unknown",
            "country_name": "Nigeria",
            "connectivity": false
        },
        {
            "lon": 9.195062,
            "lat": 6.799456,
            "school_name": "Name unknown",
            "country_name": "Nigeria",
            "connectivity": false
        },
        {
            "lon": 9.255278,
            "lat": 6.814706,
            "school_name": "Name unknown",
            "country_name": "Nigeria",
            "connectivity": false
        },
        {
            "lon": 8.841876,
            "lat": 7.589286,
            "school_name": "Name unknown",
            "country_name": "Nigeria",
            "connectivity": false
        },
        {
            "lon": 9.032214,
            "lat": 6.889449,
            "school_name": "Name unknown",
            "country_name": "Nigeria",
            "connectivity": false
        },
        {
            "lon": 10.42271787,
            "lat": 12.87288896,
            "school_name": "Name unknown",
            "country_name": "Nigeria",
            "connectivity": false
        },
        {
            "lon": 4.92151022,
            "lat": 12.10098445,
            "school_name": "Name unknown",
            "country_name": "Nigeria",
            "connectivity": false
        },
        {
            "lon": 8.017005,
            "lat": 5.6534367,
            "school_name": "Name unknown",
            "country_name": "Nigeria",
            "connectivity": false
        },
        {
            "lon": 7.94187,
            "lat": 5.5845783,
            "school_name": "Name unknown",
            "country_name": "Nigeria",
            "connectivity": false
        },
        {
            "lon": 8.6610783,
            "lat": 6.3458882,
            "school_name": "Name unknown",
            "country_name": "Nigeria",
            "connectivity": false
        },
        {
            "lon": 8.605326667,
            "lat": 6.151178333,
            "school_name": "Name unknown",
            "country_name": "Nigeria",
            "connectivity": false
        },
        {
            "lon": 8.4388,
            "lat": 5.932253333,
            "school_name": "Name unknown",
            "country_name": "Nigeria",
            "connectivity": false
        },
        {
            "lon": 8.27763,
            "lat": 5.996151667,
            "school_name": "Name unknown",
            "country_name": "Nigeria",
            "connectivity": false
        },
        {
            "lon": -58.53515775,
            "lat": -34.63259161,
            "school_name": "ESCUELA PRIMARIA N\u00ba27 NUESTROS HIJOS",
            "country_name": "Argentina",
            "connectivity": false
        },
        {
            "lon": -65.95125047,
            "lat": -21.9360141,
            "school_name": "ESCUELA N 384",
            "country_name": "Argentina",
            "connectivity": false
        },
        {
            "lon": -73.6497,
            "lat": -14.1083,
            "school_name": "24410 INCA GARCILAZO DE LA VEGA",
            "country_name": "Peru",
            "connectivity": false
        },
        {
            "lon": -74.349,
            "lat": -9.62032,
            "school_name": "742 - B",
            "country_name": "Peru",
            "connectivity": false
        },
        {
            "lon": -80.6573,
            "lat": -5.16055,
            "school_name": "EMMANUEL",
            "country_name": "Peru",
            "connectivity": false
        },
        {
            "lon": -77.089,
            "lat": -12.0364,
            "school_name": "MARIA MONTESSORI STOPPANI",
            "country_name": "Peru",
            "connectivity": false
        },
        {
            "lon": -76.1511,
            "lat": -13.7124,
            "school_name": "SANTA ROSA DE LIMA",
            "country_name": "Peru",
            "connectivity": false
        },
        {
            "lon": 7.097281,
            "lat": 5.431853,
            "school_name": "Name unknown",
            "country_name": "Nigeria",
            "connectivity": false
        },
        {
            "lon": 7.632917762,
            "lat": 9.522008301,
            "school_name": "Name unknown",
            "country_name": "Nigeria",
            "connectivity": false
        },
        {
            "lon": 3.235712602,
            "lat": 6.553072663,
            "school_name": "Name unknown",
            "country_name": "Nigeria",
            "connectivity": false
        },
        {
            "lon": 3.67261,
            "lat": 6.923043333,
            "school_name": "Name unknown",
            "country_name": "Nigeria",
            "connectivity": false
        },
        {
            "lon": 4.936267,
            "lat": 8.02086,
            "school_name": "Name unknown",
            "country_name": "Nigeria",
            "connectivity": false
        },
        {
            "lon": 4.591192,
            "lat": 7.82443,
            "school_name": "Name unknown",
            "country_name": "Nigeria",
            "connectivity": false
        },
        {
            "lon": 5.14525,
            "lat": 12.83724,
            "school_name": "Name unknown",
            "country_name": "Nigeria",
            "connectivity": false
        },
        {
            "lon": 2.1011056,
            "lat": 13.5212558,
            "school_name": "Lyc\u00e9e La Fontaine",
            "country_name": "Niger",
            "connectivity": false
        },
        {
            "lon": 69.303971,
            "lat": 41.333149,
            "school_name": "O`zRes.XTV tasarrufidagi Filologiya fanlariga ixtisoslashtirilgan davlat umumta`lim maktabi",
            "country_name": "Uzbekistan",
            "connectivity": false
        },
        {
            "lon": 67.675089,
            "lat": 38.398598,
            "school_name": "97 - sonli umumta\u2018lim maktabi",
            "country_name": "Uzbekistan",
            "connectivity": false
        },
        {
            "lon": 66.98753,
            "lat": 39.76685,
            "school_name": "7 -  sonli umumta\u2018lim maktabi",
            "country_name": "Uzbekistan",
            "connectivity": false
        },
        {
            "lon": 65.71626,
            "lat": 39.98027,
            "school_name": "29 -  sonli umumta\u2018lim maktabi",
            "country_name": "Uzbekistan",
            "connectivity": false
        },
        {
            "lon": 65.36884,
            "lat": 40.10394,
            "school_name": "44 -  sonli umumta\u2018lim maktabi",
            "country_name": "Uzbekistan",
            "connectivity": false
        },
        {
            "lon": 66.95879,
            "lat": 39.69292,
            "school_name": "11 -  sonli umumta\u2018lim maktabi",
            "country_name": "Uzbekistan",
            "connectivity": false
        },
        {
            "lon": 65.65514,
            "lat": 38.82139,
            "school_name": "21 -  sonli umumta\u2018lim maktabi",
            "country_name": "Uzbekistan",
            "connectivity": false
        },
        {
            "lon": 60.27966528,
            "lat": 41.88261572,
            "school_name": "31 -  sonli umumta\u2018lim maktabi",
            "country_name": "Uzbekistan",
            "connectivity": false
        },
        {
            "lon": 71.929724,
            "lat": 41.071001,
            "school_name": "7 -  sonli umumta\u2018lim maktabi",
            "country_name": "Uzbekistan",
            "connectivity": false
        },
        {
            "lon": 67.18005,
            "lat": 40.41693,
            "school_name": "55 -  sonli umumta\u2018lim maktabi",
            "country_name": "Uzbekistan",
            "connectivity": false
        },
        {
            "lon": 64.27682,
            "lat": 39.94756,
            "school_name": "24 -  sonli umumta\u2018lim maktabi",
            "country_name": "Uzbekistan",
            "connectivity": false
        },
        {
            "lon": -105.949205,
            "lat": 25.935568,
            "school_name": "ESCUELA SECUNDARIA TECNICA NUM. 33",
            "country_name": "Mexico",
            "connectivity": false
        },
        {
            "lon": -104.858365,
            "lat": 24.848801,
            "school_name": "TELESECUNDARIA NUM. 310",
            "country_name": "Mexico",
            "connectivity": false
        },
        {
            "lon": -104.044035,
            "lat": 23.6419,
            "school_name": "TELESECUNDARIA NUM. 500",
            "country_name": "Mexico",
            "connectivity": false
        },
        {
            "lon": -105.735046,
            "lat": 24.221222,
            "school_name": "TELESECUNDARIA NUM. 495",
            "country_name": "Mexico",
            "connectivity": false
        },
        {
            "lon": -100.99279,
            "lat": 20.5154,
            "school_name": "ESCUELA SECUNDARIA GENERAL CONSTITUCION DE 1917",
            "country_name": "Mexico",
            "connectivity": false
        },
        {
            "lon": -99.93445,
            "lat": 21.39444,
            "school_name": "POSPRIMARIA COMUNITARIA",
            "country_name": "Mexico",
            "connectivity": false
        },
        {
            "lon": -98.726486,
            "lat": 20.070558,
            "school_name": "ESCUELA SECUNDARIA GENERAL",
            "country_name": "Mexico",
            "connectivity": false
        },
        {
            "lon": -106.407369,
            "lat": 23.224349,
            "school_name": "SOLIDARIDAD",
            "country_name": "Mexico",
            "connectivity": false
        },
        {
            "lon": 68.7611,
            "lat": 25.1264,
            "school_name": "GBPS - MUREED PARHIAR",
            "country_name": "Pakistan",
            "connectivity": false
        },
        {
            "lon": 68.8592,
            "lat": 24.7711,
            "school_name": "GBPS - UMER CHANDIO",
            "country_name": "Pakistan",
            "connectivity": false
        },
        {
            "lon": 69.1997,
            "lat": 24.8197,
            "school_name": "GBLSS - SAIFAL CHANDIO",
            "country_name": "Pakistan",
            "connectivity": false
        },
        {
            "lon": 69.1769,
            "lat": 24.8861,
            "school_name": "GBPS - ALLAH DAD CHANDIO",
            "country_name": "Pakistan",
            "connectivity": false
        },
        {
            "lon": 67.038,
            "lat": 24.8806,
            "school_name": "GGHS - SAFIA KHAN MEMORIAL",
            "country_name": "Pakistan",
            "connectivity": false
        },
        {
            "lon": 69.6,
            "lat": 27.9394,
            "school_name": "GBLSS - SABAR BOZDAR",
            "country_name": "Pakistan",
            "connectivity": false
        },
        {
            "lon": 69.4019,
            "lat": 27.7686,
            "school_name": "GBPS - JUMRO MAGANHAR",
            "country_name": "Pakistan",
            "connectivity": false
        },
        {
            "lon": 69.7778,
            "lat": 28.1417,
            "school_name": "GBPS - DODO BHUTTO",
            "country_name": "Pakistan",
            "connectivity": false
        },
        {
            "lon": 67.8782,
            "lat": 25.4366,
            "school_name": "GBPS - YAR MUHAMMAD PALARI",
            "country_name": "Pakistan",
            "connectivity": false
        },
        {
            "lon": 68.0553,
            "lat": 27.9034,
            "school_name": "GBPS - HASSAN BHATTI.",
            "country_name": "Pakistan",
            "connectivity": false
        },
        {
            "lon": 69.3486,
            "lat": 28.2485,
            "school_name": "GGPS - GUBLO",
            "country_name": "Pakistan",
            "connectivity": false
        },
        {
            "lon": 68.4986,
            "lat": 27.5158,
            "school_name": "GBPS - HAJI MEERAL NAREJO",
            "country_name": "Pakistan",
            "connectivity": false
        },
        {
            "lon": 67.1641,
            "lat": 24.8176,
            "school_name": "KMC - BOYS PRIMARY SCHOOL",
            "country_name": "Pakistan",
            "connectivity": false
        },
        {
            "lon": 68.0791,
            "lat": 27.4334,
            "school_name": "GGHS - GERELLO.",
            "country_name": "Pakistan",
            "connectivity": false
        },
        {
            "lon": 68.4782,
            "lat": 25.9754,
            "school_name": "GBPS - GULAM MUHAMMAD BAGRANI",
            "country_name": "Pakistan",
            "connectivity": false
        },
        {
            "lon": 68.2084,
            "lat": 26.7944,
            "school_name": "GBPS - SOBAN SOLANGI",
            "country_name": "Pakistan",
            "connectivity": false
        },
        {
            "lon": 68.3301,
            "lat": 27.0282,
            "school_name": "GBPS DURANI KHAN LASHARI",
            "country_name": "Pakistan",
            "connectivity": false
        },
        {
            "lon": 68.0578,
            "lat": 26.6368,
            "school_name": "GBPS - MUHAMMAD BACHAL ZARDARI",
            "country_name": "Pakistan",
            "connectivity": false
        },
        {
            "lon": 67.9958,
            "lat": 26.7903,
            "school_name": "GBPS - NEW JATOI",
            "country_name": "Pakistan",
            "connectivity": false
        },
        {
            "lon": 68.0158,
            "lat": 26.8708,
            "school_name": "GBPS - NIAZ ALI MASHORI",
            "country_name": "Pakistan",
            "connectivity": false
        },
        {
            "lon": 68.9839,
            "lat": 26.0594,
            "school_name": "GBPS - GHULAM HUSSAIN HINGORO",
            "country_name": "Pakistan",
            "connectivity": false
        },
        {
            "lon": 68.2265,
            "lat": 26.2372,
            "school_name": "GBPS - MISARE ZARDARI",
            "country_name": "Pakistan",
            "connectivity": false
        },
        {
            "lon": 68.7313,
            "lat": 25.4921,
            "school_name": "GBPS - JALAL THEBO",
            "country_name": "Pakistan",
            "connectivity": false
        },
        {
            "lon": 68.8893,
            "lat": 25.668,
            "school_name": "GBPS - NANGO SHAH",
            "country_name": "Pakistan",
            "connectivity": false
        },
        {
            "lon": 68.5306,
            "lat": 25.1237,
            "school_name": "GBPS - BEHRANI MUHALLA",
            "country_name": "Pakistan",
            "connectivity": false
        },
        {
            "lon": 70.7422,
            "lat": 25.0611,
            "school_name": "GBPS - HARIJAN COLONY UMER UNER",
            "country_name": "Pakistan",
            "connectivity": false
        },
        {
            "lon": 70.4475,
            "lat": 25.0575,
            "school_name": "GBPS - WAVRI DORA",
            "country_name": "Pakistan",
            "connectivity": false
        },
        {
            "lon": 70.3828,
            "lat": 25.4306,
            "school_name": "GBPS - HAJI SHAFI MUHAMMAD SHAH",
            "country_name": "Pakistan",
            "connectivity": false
        },
        {
            "lon": 69.1589,
            "lat": 24.3589,
            "school_name": "GBPS - DANDRI",
            "country_name": "Pakistan",
            "connectivity": false
        },
        {
            "lon": 70.583,
            "lat": 24.5548,
            "school_name": "GBPS - MUHAMMAD ZAMAN SAMOON",
            "country_name": "Pakistan",
            "connectivity": false
        },
        {
            "lon": 69.2347,
            "lat": 24.6961,
            "school_name": "GBPS - CHIN FARM",
            "country_name": "Pakistan",
            "connectivity": false
        },
        {
            "lon": 70.6142,
            "lat": 24.7075,
            "school_name": "GBPS - AHMED BAJEER",
            "country_name": "Pakistan",
            "connectivity": false
        },
        {
            "lon": 70.6116,
            "lat": 24.7088,
            "school_name": "GBPS - HAFIZ PARO MATHENO BAJEER",
            "country_name": "Pakistan",
            "connectivity": false
        },
        {
            "lon": -102.071389,
            "lat": 21.788056,
            "school_name": "PREESCOLAR COMUNITARIO",
            "country_name": "Mexico",
            "connectivity": false
        },
        {
            "lon": -90.548913,
            "lat": 19.815894,
            "school_name": "ADELAIDA MARTINEZ DE VARGAS",
            "country_name": "Mexico",
            "connectivity": false
        },
        {
            "lon": -103.054,
            "lat": 25.7697,
            "school_name": "JUAN DE DIOS PEZA",
            "country_name": "Mexico",
            "connectivity": false
        },
        {
            "lon": -92.213216,
            "lat": 17.647716,
            "school_name": "JAIME SABINES GUTIERREZ",
            "country_name": "Mexico",
            "connectivity": false
        },
        {
            "lon": -92.657023,
            "lat": 17.355771,
            "school_name": "LEONA VICARIO",
            "country_name": "Mexico",
            "connectivity": false
        },
        {
            "lon": -93.308985,
            "lat": 16.940537,
            "school_name": "ELISEO PALACIOS AGUILERA",
            "country_name": "Mexico",
            "connectivity": false
        },
        {
            "lon": -92.974368,
            "lat": 16.70179,
            "school_name": "LAURO AGUIRRE",
            "country_name": "Mexico",
            "connectivity": false
        },
        {
            "lon": -91.491605,
            "lat": 16.293434,
            "school_name": "DR. BELISARIO DOMINGUEZ PALENCIA",
            "country_name": "Mexico",
            "connectivity": false
        },
        {
            "lon": -102.245693,
            "lat": 21.86549,
            "school_name": "JESUS MARIA ROMO ROMO",
            "country_name": "Mexico",
            "connectivity": false
        },
        {
            "lon": 67.5935,
            "lat": 24.7388,
            "school_name": "GBPS - HAJI SHER KHAN",
            "country_name": "Pakistan",
            "connectivity": false
        },
        {
            "lon": 69.4708,
            "lat": 25.3858,
            "school_name": "GBPS - MAHBOOB SHAH",
            "country_name": "Pakistan",
            "connectivity": false
        },
        {
            "lon": 69.5698,
            "lat": 25.3914,
            "school_name": "GBPS - RAJA KARAM ELLAHI",
            "country_name": "Pakistan",
            "connectivity": false
        },