{
    "name": "Patchwork Kingdom #314 | Wunkamar",
    "description": "The twin kingdoms of Wunkamar, separated by a digital divide. A bustling kingdom of 191 schools on top that are all connected to the internet, and 138 schools, not connected, hidden in the upside down kingdom | Created for Giga (GigaConnect.org) \u2014 connecting every school in the world \u2014 in celebration of UNICEF's 75th birthday, by Nadieh Bremer",
    "external_url": "https://dummyURL.com/patchwork_kingdoms_314",
    "image": "https://dummy-storage-url.com/patchwork_kingdoms_314.png",
    "attributes": [
        {
            "trait_type": "Color palette",
            "value": "rubik's cube"
        },
        {
            "display_type": "number",
            "trait_type": "Schools",
            "value": 350,
            "max_value": 460
        },
        {
            "display_type": "number",
            "trait_type": "Ratio - Connected",
            "value": 0.55,
            "max_value": 1
        },
        {
            "display_type": "number",
            "trait_type": "Ratio - Unconnected",
            "value": 0.39,
            "max_value": 1
        },
        {
            "display_type": "number",
            "trait_type": "Ratio - Data unavailable",
            "value": 0.06,
            "max_value": 1
        },
        {
            "trait_type": "Countries",
            "value": "BJ-BR-CO-CR-GD-HN-KZ-NA-PH-PS-RW-SL-ZW"
        },
        {
            "display_type": "number",
            "trait_type": "Symbols",
            "value": 45,
            "max_value": 51
        }
    ],
    "cluster_id": 314,
    "num_schools": 350,
    "num_schools_connected": 191,
    "num_schools_unconnected": 138,
    "num_schools_unknown": 21,
    "schools": [
        {
            "lon": -87.17531,
            "lat": 15.57641,
            "school_name": "CARLOS HARTLING",
            "country_name": "Honduras",
            "connectivity": true
        },
        {
            "lon": -88.30405,
            "lat": 14.98034,
            "school_name": "WENCESLAO CABALLERO LEIVA",
            "country_name": "Honduras",
            "connectivity": true
        },
        {
            "lon": -48.6832,
            "lat": -28.0865,
            "school_name": "ESCOLA MUNICIPAL JANUARIO DOMINGOS FERREIRA",
            "country_name": "Brazil",
            "connectivity": true
        },
        {
            "lon": -88.28542,
            "lat": 14.89055,
            "school_name": "LA PRIMAVERA",
            "country_name": "Honduras",
            "connectivity": true
        },
        {
            "lon": -87.48594,
            "lat": 13.53837,
            "school_name": "CAMARA JUNIOR",
            "country_name": "Honduras",
            "connectivity": true
        },
        {
            "lon": -87.7085,
            "lat": 13.42388,
            "school_name": "ANGELA DE FLORES",
            "country_name": "Honduras",
            "connectivity": true
        },
        {
            "lon": -87.66259,
            "lat": 15.55201,
            "school_name": "FRANCISCO MORAZAN",
            "country_name": "Honduras",
            "connectivity": true
        },
        {
            "lon": -50.0935,
            "lat": -29.899,
            "school_name": "EMEI VO JOVINO",
            "country_name": "Brazil",
            "connectivity": true
        },
        {
            "lon": -60.6185,
            "lat": -3.2938,
            "school_name": "ESCOLA ESTADUAL CASTELLO BRANCO",
            "country_name": "Brazil",
            "connectivity": true
        },
        {
            "lon": -48.6839,
            "lat": -21.2615,
            "school_name": "FRANCISCO SALES DE ALMEIDA LEITE",
            "country_name": "Brazil",
            "connectivity": true
        },
        {
            "lon": -49.2516,
            "lat": -25.4481,
            "school_name": "MANOEL RIBAS C E ED EM TEMPO INT EF M",
            "country_name": "Brazil",
            "connectivity": true
        },
        {
            "lon": -86.57116,
            "lat": 14.003,
            "school_name": "NORMAL ESPA\u00c3\u2018A",
            "country_name": "Honduras",
            "connectivity": true
        },
        {
            "lon": -87.48689,
            "lat": 13.85581,
            "school_name": "FUENTE DE BENDICION",
            "country_name": "Honduras",
            "connectivity": true
        },
        {
            "lon": 32.3776,
            "lat": -18.20913,
            "school_name": "BINGAGURU",
            "country_name": "Zimbabwe",
            "connectivity": true
        },
        {
            "lon": 31.52071,
            "lat": -17.59666,
            "school_name": "ST JUDE",
            "country_name": "Zimbabwe",
            "connectivity": true
        },
        {
            "lon": 31.11148,
            "lat": -19.07906,
            "school_name": "MADONDO",
            "country_name": "Zimbabwe",
            "connectivity": true
        },
        {
            "lon": -49.4044,
            "lat": -20.7991,
            "school_name": "JOSE MARIA ROLLEMBERG SAMPAIO DR EM",
            "country_name": "Brazil",
            "connectivity": true
        },
        {
            "lon": -42.4476,
            "lat": -5.043,
            "school_name": "CENTRO DE DUCACAO INFANTIL MUNICIPAL TIA ZEZITA BARBOSA",
            "country_name": "Brazil",
            "connectivity": true
        },
        {
            "lon": 31.3469,
            "lat": -19.14016,
            "school_name": "MUDZAMIRI",
            "country_name": "Zimbabwe",
            "connectivity": true
        },
        {
            "lon": -44.6966,
            "lat": -22.581,
            "school_name": "BARAO DA BOCAINA",
            "country_name": "Brazil",
            "connectivity": true
        },
        {
            "lon": 30.14767,
            "lat": -1.9125,
            "school_name": "EP KARAMA",
            "country_name": "Rwanda",
            "connectivity": false
        },
        {
            "lon": -84.23437251,
            "lat": 9.84661251,
            "school_name": "LISIMACO CHAVARRIA PALMA",
            "country_name": "Costa Rica",
            "connectivity": true
        },
        {
            "lon": -83.50055981,
            "lat": 9.28908898,
            "school_name": "SANTIAGO",
            "country_name": "Costa Rica",
            "connectivity": true
        },
        {
            "lon": -84.23224021,
            "lat": 10.02725639,
            "school_name": "TUETAL SUR",
            "country_name": "Costa Rica",
            "connectivity": true
        },
        {
            "lon": -84.10428364,
            "lat": 10.02164571,
            "school_name": "MIGUEL AGUILAR BONILLA",
            "country_name": "Costa Rica",
            "connectivity": true
        },
        {
            "lon": -83.01313833,
            "lat": 8.38870028,
            "school_name": "SANTA ROSA",
            "country_name": "Costa Rica",
            "connectivity": true
        },
        {
            "lon": -82.95023435,
            "lat": 8.74228681,
            "school_name": "COOPA BUENA",
            "country_name": "Costa Rica",
            "connectivity": true
        },
        {
            "lon": 35.284863,
            "lat": 32.463831,
            "school_name": "jenin bassic second girls",
            "country_name": "Palestine",
            "connectivity": true
        },
        {
            "lon": 35.254388,
            "lat": 32.221627,
            "school_name": "elkarmel basic for girls",
            "country_name": "Palestine",
            "connectivity": true
        },
        {
            "lon": 35.103007,
            "lat": 31.621375,
            "school_name": "hettean alnamuthjya",
            "country_name": "Palestine",
            "connectivity": true
        },
        {
            "lon": -83.12384938,
            "lat": 8.85225979,
            "school_name": "LICEO RURAL PARAISO",
            "country_name": "Costa Rica",
            "connectivity": true
        },
        {
            "lon": 30.68871,
            "lat": -17.10912,
            "school_name": "CHROME MINE",
            "country_name": "Zimbabwe",
            "connectivity": true
        },
        {
            "lon": 28.01079,
            "lat": -17.13067,
            "school_name": "LUUNGA PRIMARY",
            "country_name": "Zimbabwe",
            "connectivity": true
        },
        {
            "lon": 27.8293,
            "lat": -19.82781,
            "school_name": "MAGAMA SECONDARY",
            "country_name": "Zimbabwe",
            "connectivity": true
        },
        {
            "lon": -50.2035,
            "lat": -13.7987,
            "school_name": "ESCOLA ESTADUAL MUNDO NOVO",
            "country_name": "Brazil",
            "connectivity": true
        },
        {
            "lon": -46.0032,
            "lat": -23.217,
            "school_name": "MARIA APARECIDA RICO PROFA",
            "country_name": "Brazil",
            "connectivity": true
        },
        {
            "lon": -52.9024,
            "lat": -26.9015,
            "school_name": "EEB RUDOLFO LUZINA",
            "country_name": "Brazil",
            "connectivity": true
        },
        {
            "lon": 121.468964,
            "lat": 12.924177,
            "school_name": "Bulbugan NHS",
            "country_name": "Philippines",
            "connectivity": true
        },
        {
            "lon": 117.327155,
            "lat": 8.612038,
            "school_name": "Tagpas PS",
            "country_name": "Philippines",
            "connectivity": true
        },
        {
            "lon": 123.533607,
            "lat": 13.693858,
            "school_name": "Tambangan ES",
            "country_name": "Philippines",
            "connectivity": true
        },
        {
            "lon": 124.796019,
            "lat": 12.240707,
            "school_name": "Beslig PS",
            "country_name": "Philippines",
            "connectivity": true
        },
        {
            "lon": 125.423,
            "lat": 11.60361111,
            "school_name": "Taboc ES",
            "country_name": "Philippines",
            "connectivity": true
        },
        {
            "lon": 124.730843,
            "lat": 10.43681805,
            "school_name": "Tabok Elementary School",
            "country_name": "Philippines",
            "connectivity": true
        },
        {
            "lon": 124.585934,
            "lat": 12.250437,
            "school_name": "Tarabucan Central Elementary School",
            "country_name": "Philippines",
            "connectivity": true
        },
        {
            "lon": 124.6002968,
            "lat": 8.3437302,
            "school_name": "Mambuaya ES",
            "country_name": "Philippines",
            "connectivity": true
        },
        {
            "lon": 125.83278,
            "lat": 8.852200765,
            "school_name": "San Juan ES",
            "country_name": "Philippines",
            "connectivity": true
        },
        {
            "lon": 120.8764395,
            "lat": 16.52358345,
            "school_name": "Naswak ES",
            "country_name": "Philippines",
            "connectivity": true
        },
        {
            "lon": 120.587,
            "lat": 17.4797,
            "school_name": "Olo ES",
            "country_name": "Philippines",
            "connectivity": true
        },
        {
            "lon": 120.602,
            "lat": 16.23,
            "school_name": "Piminggan ES",
            "country_name": "Philippines",
            "connectivity": true
        },
        {
            "lon": -44.318043,
            "lat": -19.762264,
            "school_name": "PRE ESCOLAR MUNICIPAL MUNDO MAGICO",
            "country_name": "Brazil",
            "connectivity": true
        },
        {
            "lon": -40.41189,
            "lat": -20.2577,
            "school_name": "EMEF IRMA DULCE",
            "country_name": "Brazil",
            "connectivity": true
        },
        {
            "lon": -85.68457,
            "lat": 15.73244,
            "school_name": "JOSE RAMON CALIX",
            "country_name": "Honduras",
            "connectivity": true
        },
        {
            "lon": 123.162826,
            "lat": 13.552802,
            "school_name": "Irayang Solong ES",
            "country_name": "Philippines",
            "connectivity": true
        },
        {
            "lon": -71.4175,
            "lat": 7.0225,
            "school_name": "ANTONIO NARI\u00d1O",
            "country_name": "Colombia",
            "connectivity": true
        },
        {
            "lon": -71.790833,
            "lat": 6.787222,
            "school_name": "DOMINGO SAVIO",
            "country_name": "Colombia",
            "connectivity": true
        },
        {
            "lon": -72.484167,
            "lat": 6.603333,
            "school_name": "I.E. LAS CA\u00d1AS - SEDE PRINCIPAL",
            "country_name": "Colombia",
            "connectivity": true
        },
        {
            "lon": -72.21864338,
            "lat": 11.40788427,
            "school_name": "SEDE CANTAWAMANA",
            "country_name": "Colombia",
            "connectivity": true
        },
        {
            "lon": -73.054242,
            "lat": 5.527397,
            "school_name": "CENT EDUC CHAVIGA",
            "country_name": "Colombia",
            "connectivity": true
        },
        {
            "lon": -72.889722,
            "lat": 11.345556,
            "school_name": "BRASIL",
            "country_name": "Colombia",
            "connectivity": true
        },
        {
            "lon": -73.05330081,
            "lat": 10.35579424,
            "school_name": "SEDE LA DUDA",
            "country_name": "Colombia",
            "connectivity": true
        },
        {
            "lon": -73.27208355,
            "lat": 6.81164296,
            "school_name": "INSTITUTO T\u00c9CNICO  JUAN XXIII",
            "country_name": "Colombia",
            "connectivity": true
        },
        {
            "lon": -73.500839,
            "lat": 5.382508,
            "school_name": "CENT EDUC SUPATA",
            "country_name": "Colombia",
            "connectivity": true
        },
        {
            "lon": -73.54820983,
            "lat": 6.095640424,
            "school_name": "ESCUELA RURAL SAN LORENZO",
            "country_name": "Colombia",
            "connectivity": true
        },
        {
            "lon": -73.55426946,
            "lat": 7.711288089,
            "school_name": "SEDE VEINTE DE JULIO",
            "country_name": "Colombia",
            "connectivity": true
        },
        {
            "lon": -74.19,
            "lat": 6.48,
            "school_name": "ESCUELA RURAL SAN BERNARDO",
            "country_name": "Colombia",
            "connectivity": true
        },
        {
            "lon": -75.507222,
            "lat": 10.368889,
            "school_name": "SEDE  DE ALBORNOZ",
            "country_name": "Colombia",
            "connectivity": true
        },
        {
            "lon": -75.95083333,
            "lat": 4.764444444,
            "school_name": "LUIS CARLOS PE\u00d1A",
            "country_name": "Colombia",
            "connectivity": true
        },
        {
            "lon": -75.76,
            "lat": 9.32,
            "school_name": "ESC. NUEVA BAJO GRANDE N\u00ba 2",
            "country_name": "Colombia",
            "connectivity": true
        },
        {
            "lon": -75.98891676,
            "lat": 2.018039983,
            "school_name": "VEGAGRANDE",
            "country_name": "Colombia",
            "connectivity": true
        },
        {
            "lon": -76.26536076,
            "lat": 0.507982809,
            "school_name": "ESC RUR MIX PENEYA",
            "country_name": "Colombia",
            "connectivity": true
        },
        {
            "lon": -76.26,
            "lat": 8.84,
            "school_name": "ESC NVA JALISCO",
            "country_name": "Colombia",
            "connectivity": true
        },
        {
            "lon": -76.5950208,
            "lat": 2.708797974,
            "school_name": "ESCUELA RURAL MIXTA VALPARAISO",
            "country_name": "Colombia",
            "connectivity": true
        },
        {
            "lon": -76.76903321,
            "lat": 2.864095373,
            "school_name": "C.E. SANTA ANA",
            "country_name": "Colombia",
            "connectivity": true
        },
        {
            "lon": -76.86057792,
            "lat": 6.377055693,
            "school_name": "SEDE IND\u00cdGENA DE AMPARRADO",
            "country_name": "Colombia",
            "connectivity": true
        },
        {
            "lon": -77.02209581,
            "lat": 1.577937206,
            "school_name": "CENTRO EDUCATIVO SAN ANTONIO BELEN",
            "country_name": "Colombia",
            "connectivity": true
        },
        {
            "lon": -77.02116667,
            "lat": 0.63831111,
            "school_name": "C.E.R. EL LIBANO - SEDE PRINCIPAL",
            "country_name": "Colombia",
            "connectivity": true
        },
        {
            "lon": -77.26803587,
            "lat": 1.236012852,
            "school_name": "ESC PRIMERO DE MAYO",
            "country_name": "Colombia",
            "connectivity": true
        },
        {
            "lon": -77.34392361,
            "lat": 1.40055555,
            "school_name": "CENTRO EDUCATIVO RICAURTE",
            "country_name": "Colombia",
            "connectivity": true
        },
        {
            "lon": -40.51508,
            "lat": -9.45469,
            "school_name": "ESCOLA MUNICIPAL DOM JOSE RODRIGUES",
            "country_name": "Brazil",
            "connectivity": true
        },
        {
            "lon": -78.40320977,
            "lat": 2.488420193,
            "school_name": "CENTRO EDUCATIVO PAMPA CHAPILA",
            "country_name": "Colombia",
            "connectivity": true
        },
        {
            "lon": -61.9227,
            "lat": -10.898,
            "school_name": "CMEI PEDRO GONCALVES",
            "country_name": "Brazil",
            "connectivity": true
        },
        {
            "lon": -59.1105,
            "lat": -3.9702,
            "school_name": "ESCOLA MUNICIPAL SAO JOSE",
            "country_name": "Brazil",
            "connectivity": false
        },
        {
            "lon": -66.8946,
            "lat": -5.0164,
            "school_name": "ESC MUN RAIMUNDO MARCOS",
            "country_name": "Brazil",
            "connectivity": false
        },
        {
            "lon": -60.096,
            "lat": 2.9812,
            "school_name": "ESCOLA MUNICIPAL INDIGENA LAURIANO JOAO DA SILVA",
            "country_name": "Brazil",
            "connectivity": false
        },
        {
            "lon": -55.0555,
            "lat": -2.8604,
            "school_name": "E M E F SANTA MARIA",
            "country_name": "Brazil",
            "connectivity": false
        },
        {
            "lon": -48.8717,
            "lat": -1.3939,
            "school_name": "CENTRO MUNICIPAL DE EDUCACAO INFANTIL PADRE GUIDO FOSSATTI",
            "country_name": "Brazil",
            "connectivity": true
        },
        {
            "lon": -46.7897,
            "lat": -0.9938,
            "school_name": "E M E F MARIA PEREIRA DE SOUSA",
            "country_name": "Brazil",
            "connectivity": true
        },
        {
            "lon": -46.1978,
            "lat": -1.2514,
            "school_name": "E M E I F ANESIO MACHADO - ITACUPIM",
            "country_name": "Brazil",
            "connectivity": false
        },
        {
            "lon": -47.6145,
            "lat": -1.7014,
            "school_name": "E M E F DAMASCO",
            "country_name": "Brazil",
            "connectivity": false
        },
        {
            "lon": -47.5205,
            "lat": -1.5821,
            "school_name": "E M E I F ALTAMIRA MARIA OLIVEIRA CORREA",
            "country_name": "Brazil",
            "connectivity": false
        },
        {
            "lon": -52.1577,
            "lat": -3.0715,
            "school_name": "E M E I E F FRANCISCA DE OLIVEIRA LEMOS JURUNA",
            "country_name": "Brazil",
            "connectivity": true
        },
        {
            "lon": -46.7282,
            "lat": -1.0172,
            "school_name": "E M E F JOSE MARIA MACHADO CARDOSO",
            "country_name": "Brazil",
            "connectivity": true
        },
        {
            "lon": -50.8194,
            "lat": -1.9316,
            "school_name": "E M E F DILMA DOS SANTOS CARVALHO",
            "country_name": "Brazil",
            "connectivity": true
        },
        {
            "lon": -54.9012,
            "lat": -2.7151,
            "school_name": "E M E F NOSSA SENHORA DO PERPETUO SOCORRO",
            "country_name": "Brazil",
            "connectivity": false
        },
        {
            "lon": -49.9267,
            "lat": -12.5362,
            "school_name": "ESCOLA MUNICIPAL CANTINHO DO SABER",
            "country_name": "Brazil",
            "connectivity": true
        },
        {
            "lon": -48.2714,
            "lat": -15.9509,
            "school_name": "EMEF MACHADO DE ASSIS",
            "country_name": "Brazil",
            "connectivity": true
        },
        {
            "lon": -43.1932,
            "lat": -2.7064,
            "school_name": "EM ALVARO AZEVEDO SILVA",
            "country_name": "Brazil",
            "connectivity": false
        },
        {
            "lon": -45.0609,
            "lat": -3.6651,
            "school_name": "EM BEIRA DO CAMPO",
            "country_name": "Brazil",
            "connectivity": false
        },
        {
            "lon": -45.3397,
            "lat": -3.6179,
            "school_name": "EM ALUISIO AZEVEDO",
            "country_name": "Brazil",
            "connectivity": false
        },
        {
            "lon": -45.0218,
            "lat": -5.8779,
            "school_name": "ESCOLA MUNICIPAL DE EDUCACAO BASICA SANTA ISABEL",
            "country_name": "Brazil",
            "connectivity": false
        },
        {
            "lon": -43.1843,
            "lat": -4.3629,
            "school_name": "EM AGOSTINHO JOSE DE AGUIAR",
            "country_name": "Brazil",
            "connectivity": true
        },
        {
            "lon": -43.5313,
            "lat": -6.6302,
            "school_name": "EM CASSIMIRO DE ABREU",
            "country_name": "Brazil",
            "connectivity": true
        },
        {
            "lon": -47.4639,
            "lat": -4.9626,
            "school_name": "CRECHE VOVO NAIR BARROS DE SOUZA",
            "country_name": "Brazil",
            "connectivity": true
        },
        {
            "lon": -44.6372,
            "lat": -4.3426,
            "school_name": "ESCOLA MUNICIPAL SAO FRANCISCO VII",
            "country_name": "Brazil",
            "connectivity": false
        },
        {
            "lon": -42.7488,
            "lat": -2.5708,
            "school_name": "UE GONCALVES DIAS",
            "country_name": "Brazil",
            "connectivity": false
        },
        {
            "lon": -41.5596,
            "lat": -5.3324,
            "school_name": "UNID ESC PROFA HILDA CARDOSO VIEIRA",
            "country_name": "Brazil",
            "connectivity": true
        },
        {
            "lon": -42.4313,
            "lat": -9.2817,
            "school_name": "UNIDADE ESCOLAR NOE RODRIGUES DE SOUSA",
            "country_name": "Brazil",
            "connectivity": false
        },
        {
            "lon": -41.6867,
            "lat": -7.8051,
            "school_name": "ESCOLA MUNICIPAL EUCLIDES RODRIGUES FILHO",
            "country_name": "Brazil",
            "connectivity": false
        },
        {
            "lon": -41.0389,
            "lat": -8.1693,
            "school_name": "UNIDADE ESCOLAR FRANCISCO ANSELMO RODRIGUES",
            "country_name": "Brazil",
            "connectivity": true
        },
        {
            "lon": -40.8921,
            "lat": -4.0231,
            "school_name": "TOMAZ GREGORIO EMEB",
            "country_name": "Brazil",
            "connectivity": false
        },
        {
            "lon": -39.4931,
            "lat": -5.2202,
            "school_name": "ANTO JOSE DE MEDEIROS EEF",
            "country_name": "Brazil",
            "connectivity": false
        },
        {
            "lon": -48.1076,
            "lat": -15.8311,
            "school_name": "CEM 04 DE CEILANDIA",
            "country_name": "Brazil",
            "connectivity": true
        },
        {
            "lon": -38.6118,
            "lat": -3.7857,
            "school_name": "ESCOLA MUNICIPAL DOUTOR SERVULO MENDES BARROSO",
            "country_name": "Brazil",
            "connectivity": true
        },
        {
            "lon": -38.0387,
            "lat": -6.0299,
            "school_name": "ESCOLA MUNICIPAL PROFESSORA ELVIRA GOMES DE MOURA",
            "country_name": "Brazil",
            "connectivity": true
        },
        {
            "lon": -35.7349,
            "lat": -7.1756,
            "school_name": "EMEIEF ENEAS DIAS CORREIA",
            "country_name": "Brazil",
            "connectivity": true
        },
        {
            "lon": -35.1873,
            "lat": -6.8023,
            "school_name": "ESCOLA MUNICIPAL DE E F MIGUEL DALIA",
            "country_name": "Brazil",
            "connectivity": false
        },
        {
            "lon": -35.2008,
            "lat": -7.2409,
            "school_name": "EM HENRIQUE VIEIRA DE ALBUQUERQUE",
            "country_name": "Brazil",
            "connectivity": true
        },
        {
            "lon": -36.0046,
            "lat": -6.9051,
            "school_name": "EMEF HILDA LINS DOS SANTOS",
            "country_name": "Brazil",
            "connectivity": true
        },
        {
            "lon": -35.5329,
            "lat": -6.8437,
            "school_name": "EMEF MARLENE ALVES MENDES",
            "country_name": "Brazil",
            "connectivity": true
        },
        {
            "lon": -35.9046,
            "lat": -6.6325,
            "school_name": "EMEI JOSEFA DOS SANTOS SILVA",
            "country_name": "Brazil",
            "connectivity": true
        },
        {
            "lon": -35.9081,
            "lat": -8.2667,
            "school_name": "ESCOLA MUNICIPAL MARIA ALICE",
            "country_name": "Brazil",
            "connectivity": true
        },
        {
            "lon": -36.582,
            "lat": -7.9878,
            "school_name": "GRUPO ESC MUL JOSE PEREIRA DO NASCIMENTO",
            "country_name": "Brazil",
            "connectivity": false
        },
        {
            "lon": -36.6562,
            "lat": -8.9198,
            "school_name": "COLEGIO MUNICIPAL DOM VITAL ENSINO FUNDAMENTAL E EJA",
            "country_name": "Brazil",
            "connectivity": true
        },
        {
            "lon": -35.4036,
            "lat": -8.8458,
            "school_name": "ESCOLA MUNICIPAL MARIA ELISA PEDROSA",
            "country_name": "Brazil",
            "connectivity": false
        },
        {
            "lon": -38.8414,
            "lat": -8.4442,
            "school_name": "CRECHE CARROSSEL",
            "country_name": "Brazil",
            "connectivity": false
        },
        {
            "lon": -51.0822,
            "lat": 0.0119,
            "school_name": "ESC MUL PROF RAIMUNDO OLIVEIRA ALENCAR",
            "country_name": "Brazil",
            "connectivity": true
        },
        {
            "lon": -35.7334,
            "lat": -9.6677,
            "school_name": "UFAL - ESCOLA TECNICA DE ARTES",
            "country_name": "Brazil",
            "connectivity": true
        },
        {
            "lon": -37.0954,
            "lat": -10.2871,
            "school_name": "ESCOLA MUNICIPAL JACKSON DE FIGUEIREDO",
            "country_name": "Brazil",
            "connectivity": false
        },
        {
            "lon": -38.0079,
            "lat": -11.1667,
            "school_name": "IFS - CAMPUS TOBIAS BARRETO",
            "country_name": "Brazil",
            "connectivity": true
        },
        {
            "lon": -38.3811,
            "lat": -9.1212,
            "school_name": "ESCOLA MUNICIPAL JOSE DE ALENCAR",
            "country_name": "Brazil",
            "connectivity": false
        },
        {
            "lon": -43.4049,
            "lat": -13.2523,
            "school_name": "ESCOLA MUNICIPALIZADA BENJAMIM FARAH",
            "country_name": "Brazil",
            "connectivity": false
        },
        {
            "lon": -43.5688,
            "lat": -13.6805,
            "school_name": "ESCOLA MUNICIPAL NOSSA SENHORA DE FATIMA",
            "country_name": "Brazil",
            "connectivity": true
        },
        {
            "lon": -42.7927,
            "lat": -5.0687,
            "school_name": "CETI PROFESSOR DARCY ARAUJO",
            "country_name": "Brazil",
            "connectivity": true
        },
        {
            "lon": -40.2321,
            "lat": -12.152,
            "school_name": "ESC MUL ALTO DOS NAVEGANTES",
            "country_name": "Brazil",
            "connectivity": false
        },
        {
            "lon": -39.1992,
            "lat": -12.2154,
            "school_name": "PREDIO ESCOLAR SAO JOSE",
            "country_name": "Brazil",
            "connectivity": true
        },
        {
            "lon": -38.4217,
            "lat": -10.2914,
            "school_name": "ESCOLA MUNICIPAL LUIS EDUARDO MAGALHAES",
            "country_name": "Brazil",
            "connectivity": false
        },
        {
            "lon": -51.5786,
            "lat": -24.7787,
            "school_name": "CHICO MENDES E M C EI EF",
            "country_name": "Brazil",
            "connectivity": true
        },
        {
            "lon": -38.3521,
            "lat": -12.8663,
            "school_name": "ESCOLA MUNICIPAL TENENTE GUSTAVO DOS SANTOS",
            "country_name": "Brazil",
            "connectivity": true
        },
        {
            "lon": -38.4777,
            "lat": -12.8897,
            "school_name": "ESCOLA MUNICIPAL SENHOR DO BONFIM",
            "country_name": "Brazil",
            "connectivity": true
        },
        {
            "lon": -42.6906,
            "lat": -12.9533,
            "school_name": "ESCOLA MUNICIPAL DE TELHA",
            "country_name": "Brazil",
            "connectivity": false
        },
        {
            "lon": -41.3614,
            "lat": -14.3704,
            "school_name": "ESCOLA MUNICIPAL CAPITAO JOAO JOSE DAS VIRGENS",
            "country_name": "Brazil",
            "connectivity": false
        },
        {
            "lon": -40.6842,
            "lat": -13.8606,
            "school_name": "ESCOLA MUNICIPAL RIO DAS CONTAS",
            "country_name": "Brazil",
            "connectivity": true
        },
        {
            "lon": -44.1862,
            "lat": -19.9605,
            "school_name": "EE TITO LIVIO DE SOUZA",
            "country_name": "Brazil",
            "connectivity": true
        },
        {
            "lon": -45.2604,
            "lat": -21.6928,
            "school_name": "IFSULDEMINAS - CAMPUS AVANCADO TRES CORACOES",
            "country_name": "Brazil",
            "connectivity": true
        },
        {
            "lon": -43.2964,
            "lat": -21.0128,
            "school_name": "EM MONSENHOR MESSIAS DE SENA BATISTA",
            "country_name": "Brazil",
            "connectivity": false
        },
        {
            "lon": -42.6622,
            "lat": -18.1664,
            "school_name": "EM DA FAZ OVIDIO N DA SILVA",
            "country_name": "Brazil",
            "connectivity": true
        },
        {
            "lon": -42.9861,
            "lat": -15.111,
            "school_name": "EM DE BARRINHA",
            "country_name": "Brazil",
            "connectivity": false
        },
        {
            "lon": -43.0097,
            "lat": -15.8019,
            "school_name": "EM DONA CACULA MENDES",
            "country_name": "Brazil",
            "connectivity": false
        },
        {
            "lon": -41.3158,
            "lat": -16.3633,
            "school_name": "EM MIN CLOVIS SALGADO",
            "country_name": "Brazil",
            "connectivity": true
        },
        {
            "lon": -42.5469,
            "lat": -19.452,
            "school_name": "EE WILSON ALVARENGA",
            "country_name": "Brazil",
            "connectivity": true
        },
        {
            "lon": -44.0964,
            "lat": -20.0172,
            "school_name": "EE MARIA ALVES NAGY VARGA",
            "country_name": "Brazil",
            "connectivity": true
        },
        {
            "lon": -43.9277,
            "lat": -19.8296,
            "school_name": "ESCOLA MUNICIPAL RUI DA COSTA VAL",
            "country_name": "Brazil",
            "connectivity": true
        },
        {
            "lon": -46.4912,
            "lat": -18.5781,
            "school_name": "C MUN DE EDUC INF BALAOZINHO AZUL",
            "country_name": "Brazil",
            "connectivity": false
        },
        {
            "lon": -46.1771,
            "lat": -19.7021,
            "school_name": "C MUN DE EDUC INF NILDA CAPORALI CORDEIRO",
            "country_name": "Brazil",
            "connectivity": true
        },
        {
            "lon": -43.3391,
            "lat": -21.7633,
            "school_name": "CENTRO DE ATENDIMENTO EDUCACIONAL ESPECIALIZADO OESTE-SUDESTE - CAEE OESTE-SUDESTE",
            "country_name": "Brazil",
            "connectivity": true
        },
        {
            "lon": -40.6344,
            "lat": -19.5385,
            "school_name": "EEEFM RUBENS RANGEL",
            "country_name": "Brazil",
            "connectivity": true
        },
        {
            "lon": -40.2552,
            "lat": -18.3993,
            "school_name": "EEEF MARGEM DO ITAUNINHAS",
            "country_name": "Brazil",
            "connectivity": true
        },
        {
            "lon": -40.7099,
            "lat": -20.7466,
            "school_name": "EMEIEF EMBOACICA",
            "country_name": "Brazil",
            "connectivity": true
        },
        {
            "lon": -41.5361,
            "lat": -20.4128,
            "school_name": "EMEF MARIA SCARDINI JUSTO",
            "country_name": "Brazil",
            "connectivity": false
        },
        {
            "lon": -40.1925,
            "lat": -20.1502,
            "school_name": "EMEF DOM HELDER PESSOA CAMARA",
            "country_name": "Brazil",
            "connectivity": true
        },
        {
            "lon": -41.1527,
            "lat": -21.7208,
            "school_name": "ESCOLA ESTADUAL MUNICIPALIZADA MANOEL DUCAS DE BRITO",
            "country_name": "Brazil",
            "connectivity": true
        },
        {
            "lon": -50.309,
            "lat": -22.0732,
            "school_name": "PEDRO SOMMERHAUZER PROF EMEF",
            "country_name": "Brazil",
            "connectivity": true
        },
        {
            "lon": -44.5889,
            "lat": -22.3209,
            "school_name": "CRECHE MUNICIPAL ANTONIA DOS SANTOS PAIVA",
            "country_name": "Brazil",
            "connectivity": false
        },
        {
            "lon": -43.4019,
            "lat": -22.7361,
            "school_name": "CRECHE MUNICIPAL SAO PEDRO",
            "country_name": "Brazil",
            "connectivity": true
        },
        {
            "lon": -39.1905,
            "lat": -11.4531,
            "school_name": "COLEGIO ESTADUAL JOSE FERREIRA DE OLIVEIRA",
            "country_name": "Brazil",
            "connectivity": true
        },
        {
            "lon": -50.5745,
            "lat": -21.114,
            "school_name": "VICTOR RIBEIRO MAZZEI MONSENHOR",
            "country_name": "Brazil",
            "connectivity": false
        },
        {
            "lon": -46.8172,
            "lat": -21.9668,
            "school_name": "HELIO DE ORNELLAS BORGES EMEB",
            "country_name": "Brazil",
            "connectivity": true
        },
        {
            "lon": -46.7137,
            "lat": -23.4947,
            "school_name": "EMEI OLGA CALIL MENAH PROFA",
            "country_name": "Brazil",
            "connectivity": true
        },
        {
            "lon": -46.8526,
            "lat": -23.6799,
            "school_name": "JEQUITIBA EM",
            "country_name": "Brazil",
            "connectivity": false
        },
        {
            "lon": -46.9102,
            "lat": -23.6046,
            "school_name": "FRANCISCA MANOEL DE OLIVEIRA EM",
            "country_name": "Brazil",
            "connectivity": true
        },
        {
            "lon": -53.4813,
            "lat": -25.9232,
            "school_name": "LEOPOLDO DE WITT E M PROF EI EF",
            "country_name": "Brazil",
            "connectivity": true
        },
        {
            "lon": -60.0148,
            "lat": -3.1432,
            "school_name": "CMEI PROF JOSE ERICO PEREIRA DE SOUZA",
            "country_name": "Brazil",
            "connectivity": true
        },
        {
            "lon": -46.7214,
            "lat": -23.4681,
            "school_name": "EMEI ANTONIO MUNHOZ BONILHA",
            "country_name": "Brazil",
            "connectivity": true
        },
        {
            "lon": -45.2738,
            "lat": -22.8284,
            "school_name": "AMADOR GALVAO CESAR EMEIEF",
            "country_name": "Brazil",
            "connectivity": true
        },
        {
            "lon": -46.5369,
            "lat": -23.701,
            "school_name": "GOFREDO TEIXEIRA DA SILVA EMEB",
            "country_name": "Brazil",
            "connectivity": true
        },
        {
            "lon": -45.8402,
            "lat": -22.9556,
            "school_name": "NUCLEO DE EDUCACAO INFANTIL NARIZINHO ARREBITADO NO REINO DAS AGUAS CLARAS",
            "country_name": "Brazil",
            "connectivity": true
        },
        {
            "lon": -46.9472,
            "lat": -22.3845,
            "school_name": "MARIA DIVA FRANCO DE OLIVEIRA PROFA EMEF",
            "country_name": "Brazil",
            "connectivity": true
        },
        {
            "lon": -46.8566,
            "lat": -23.6809,
            "school_name": "JOSSEI TODA PROF EM",
            "country_name": "Brazil",
            "connectivity": false
        },
        {
            "lon": -46.3706,
            "lat": -23.9617,
            "school_name": "VOVO PERO CRECHE MUNICIPAL",
            "country_name": "Brazil",
            "connectivity": false
        },
        {
            "lon": -52.1421,
            "lat": -28.1283,
            "school_name": "EMEF CECILIA MEIRELES",
            "country_name": "Brazil",
            "connectivity": true
        },
        {
            "lon": -45.6967,
            "lat": -22.7743,
            "school_name": "BENEDITO DA COSTA MANSO EM",
            "country_name": "Brazil",
            "connectivity": false
        },
        {
            "lon": -46.5121,
            "lat": -23.4132,
            "school_name": "EPG - EPG JEAN PIAGET",
            "country_name": "Brazil",
            "connectivity": true
        },
        {
            "lon": -47.7782,
            "lat": -22.5069,
            "school_name": "ANTONIO FURLAN ESCOLA MUNICIPAL DE EDUCACAO BASICA EMEB",
            "country_name": "Brazil",
            "connectivity": true
        },
        {
            "lon": -48.5523,
            "lat": -20.5298,
            "school_name": "ANA KERULIS SILVEIRA PROFA CEMEI",
            "country_name": "Brazil",
            "connectivity": true
        },
        {
            "lon": -44.7743,
            "lat": -3.4547,
            "school_name": "EM MONSENHOR BRANDT",
            "country_name": "Brazil",
            "connectivity": true
        },
        {
            "lon": -46.896,
            "lat": -23.5432,
            "school_name": "JOAO BATISTA SOLDE EMEB",
            "country_name": "Brazil",
            "connectivity": true
        },
        {
            "lon": -49.3991,
            "lat": -23.4535,
            "school_name": "DELMIRA TERESINHA VILLA GOBBO PROFA EMEI",
            "country_name": "Brazil",
            "connectivity": true
        },
        {
            "lon": -50.9243,
            "lat": -20.2128,
            "school_name": "ROZALIA ALVES GARCIA EMEI",
            "country_name": "Brazil",
            "connectivity": true
        },
        {
            "lon": -47.5157,
            "lat": -23.1999,
            "school_name": "JANDIRA DIEZ ALCALA CENTRO ED INFANTIL MUNICIPAL",
            "country_name": "Brazil",
            "connectivity": false
        },
        {
            "lon": -46.2682,
            "lat": -23.2818,
            "school_name": "ESCOLA MUNICIPAL DE EDUCACAO BASICA RURAL TEIJI KITA",
            "country_name": "Brazil",
            "connectivity": true
        },
        {
            "lon": -51.0264,
            "lat": -22.8579,
            "school_name": "ANA FERREIRA GOES C M E I",
            "country_name": "Brazil",
            "connectivity": true
        },
        {
            "lon": -46.3548,
            "lat": -23.5079,
            "school_name": "LACY LENSKI LOPES PROFESSORA",
            "country_name": "Brazil",
            "connectivity": true
        },
        {
            "lon": -41.0882,
            "lat": -20.6354,
            "school_name": "EMEB UNIDOCENTE ALTO SAO VICENTE",
            "country_name": "Brazil",
            "connectivity": true
        },
        {
            "lon": -52.0052,
            "lat": -26.3633,
            "school_name": "SANTINA PERRET CARRARO E M DO C EI EF",
            "country_name": "Brazil",
            "connectivity": true
        },
        {
            "lon": -53.3143,
            "lat": -25.0291,
            "school_name": "ZUMBI DOS PALMARES - E M DO CAMPO - EI EF",
            "country_name": "Brazil",
            "connectivity": true
        },
        {
            "lon": -49.5816,
            "lat": -27.9564,
            "school_name": "ESCOLA NUCLEADA AGUAS BRANCAS",
            "country_name": "Brazil",
            "connectivity": true
        },
        {
            "lon": -49.6227,
            "lat": -29.1431,
            "school_name": "EEF ALBINO BERNARDINO DE MELO",
            "country_name": "Brazil",
            "connectivity": true
        },
        {
            "lon": -50.7919,
            "lat": -26.2407,
            "school_name": "CURSO DE EDUCACAO DE JOVENS E ADULTOSEJA",
            "country_name": "Brazil",
            "connectivity": true
        },
        {
            "lon": -51.4201,
            "lat": -27.7485,
            "school_name": "ESC MUN DE ENS FUND ALIPIO DOS SANTOS",
            "country_name": "Brazil",
            "connectivity": true
        },
        {
            "lon": -51.4414,
            "lat": -30.664,
            "school_name": "EMEI SOLANGE PEREIRA ALENCASTRO -",
            "country_name": "Brazil",
            "connectivity": true
        },
        {
            "lon": -49.2687,
            "lat": -25.3425,
            "school_name": "EDIMAR WRIGHT C E PROF EM N",
            "country_name": "Brazil",
            "connectivity": true
        },
        {
            "lon": -54.3211,
            "lat": -30.3363,
            "school_name": "ESC TEC MUN SAO GABRIEL",
            "country_name": "Brazil",
            "connectivity": true
        },
        {
            "lon": -46.6049,
            "lat": -23.7093,
            "school_name": "ANECONDES ALVES FERREIRA",
            "country_name": "Brazil",
            "connectivity": true
        },
        {
            "lon": -46.3995,
            "lat": -23.4061,
            "school_name": "EPG - EPG ZUMBI DOS PALMARES",
            "country_name": "Brazil",
            "connectivity": true
        },
        {
            "lon": -49.2489,
            "lat": -16.7573,
            "school_name": "CENTRO MUNICIPAL DE EDUCACAO INFANTIL PARQUE PRIMAVERA",
            "country_name": "Brazil",
            "connectivity": true
        },
        {
            "lon": -61.9555,
            "lat": -10.8686,
            "school_name": "EEEF PROF\u00aa CARMEM ROCHA BORGES",
            "country_name": "Brazil",
            "connectivity": true
        },
        {
            "lon": -48.0005,
            "lat": -21.959,
            "school_name": "FULVIO MORGANTI",
            "country_name": "Brazil",
            "connectivity": true
        },
        {
            "lon": -54.7447,
            "lat": -2.4559,
            "school_name": "E M E F STA LUZIA",
            "country_name": "Brazil",
            "connectivity": true
        },
        {
            "lon": -51.2245,
            "lat": -23.8953,
            "school_name": "JOAO PLATH C E EF M N",
            "country_name": "Brazil",
            "connectivity": true
        },
        {
            "lon": -44.9877,
            "lat": -21.2392,
            "school_name": "COMPLEXO EDUCACIONAL JURACI ELISA DA COSTA",
            "country_name": "Brazil",
            "connectivity": true
        },
        {
            "lon": -44.1537,
            "lat": -19.9397,
            "school_name": "CENTRO INFANTIL MUNICIPAL CANTINHO DO BEIJA-FLOR",
            "country_name": "Brazil",
            "connectivity": true
        },
        {
            "lon": -49.9618,
            "lat": -14.5269,
            "school_name": "ESCOLA MUNICIPAL DE EDUCACAO EM TEMPO INTEGRAL URSULINO TAVARES LEAO",
            "country_name": "Brazil",
            "connectivity": true
        },
        {
            "lon": -38.9898,
            "lat": -4.3789,
            "school_name": "FRANCISCO NUNES NETO EMEIEF",
            "country_name": "Brazil",
            "connectivity": true
        },
        {
            "lon": -46.987,
            "lat": -4.6933,
            "school_name": "EM NOVO BACABAL",
            "country_name": "Brazil",
            "connectivity": true
        },
        {
            "lon": -43.4951,
            "lat": -22.8558,
            "school_name": "0817060 ESCOLA MUNICIPAL JOAO DAUDT DE OLIVEIRA",
            "country_name": "Brazil",
            "connectivity": true
        },
        {
            "lon": -48.1056,
            "lat": -9.2211,
            "school_name": "ESC EST GIRASSOL DE TEMPO INTEGRAL COMENDADOR PADUA FLEURY",
            "country_name": "Brazil",
            "connectivity": true
        },
        {
            "lon": -47.6178,
            "lat": -15.4491,
            "school_name": "CENTRO MUNICIPAL DE EDUCACAO INFANTIL SONHO ENCANTADO",
            "country_name": "Brazil",
            "connectivity": true
        },
        {
            "lon": -38.3886,
            "lat": -6.4155,
            "school_name": "ESCOLA MUNICIPAL PROF MARIA FONTES ROCHA",
            "country_name": "Brazil",
            "connectivity": true
        },
        {
            "lon": -35.4291,
            "lat": -6.4787,
            "school_name": "ESC MUL ANTONIO PEIXOTO MARIANO",
            "country_name": "Brazil",
            "connectivity": true
        }
    ],
    "num_countries": 13,
    "countries": [
        "Benin",
        "Brazil",
        "Colombia",
        "Costa Rica",
        "Grenada",
        "Honduras",
        "Kazakhstan",
        "Namibia",
        "Palestine",
        "Philippines",
        "Rwanda",
        "Sierra Leone",
        "Zimbabwe"
    ],
    "schools_no_data": [
        {
            "lon": 27.3760197,
            "lat": -20.4956895,
            "school_name": "Gungwe",
            "country_name": "Botswana",
            "connectivity": false
        },
        {
            "lon": 9.2202645,
            "lat": 4.1365242,
            "school_name": "Bishop Jules Peter High School",
            "country_name": "Cameroon",
            "connectivity": false
        },
        {
            "lon": 9.230351,
            "lat": 4.141079,
            "school_name": "Governement High School",
            "country_name": "Cameroon",
            "connectivity": false
        },
        {
            "lon": 22.45354167,
            "lat": 2.664433333,
            "school_name": "EP LIMASA",
            "country_name": "Democratic Republic of the Congo",
            "connectivity": false
        },
        {
            "lon": 30.41707632,
            "lat": 19.56949232,
            "school_name": "Name unknown",
            "country_name": "Sudan",
            "connectivity": false
        },
        {
            "lon": 32.78244995,
            "lat": 16.4061308,
            "school_name": "Name unknown",
            "country_name": "Sudan",
            "connectivity": false
        },
        {
            "lon": 33.2927669,
            "lat": 14.6128780333333,
            "school_name": "Name unknown",
            "country_name": "Sudan",
            "connectivity": false
        },
        {
            "lon": 32.9431909833333,
            "lat": 14.5986306833333,
            "school_name": "Name unknown",
            "country_name": "Sudan",
            "connectivity": false
        },
        {
            "lon": 33.0529275333333,
            "lat": 14.0785466833333,
            "school_name": "Name unknown",
            "country_name": "Sudan",
            "connectivity": false
        },
        {
            "lon": 32.7519085166667,
            "lat": 14.46802685,
            "school_name": "Name unknown",
            "country_name": "Sudan",
            "connectivity": false
        },
        {
            "lon": 32.22740677,
            "lat": 14.67415513,
            "school_name": "Name unknown",
            "country_name": "Sudan",
            "connectivity": false
        },
        {
            "lon": 11.10449,
            "lat": 10.28805,
            "school_name": "Name unknown",
            "country_name": "Nigeria",
            "connectivity": false
        },
        {
            "lon": 24.1556023,
            "lat": 13.1263377,
            "school_name": "Name unknown",
            "country_name": "Sudan",
            "connectivity": false
        },
        {
            "lon": -1.6470878,
            "lat": 5.0169258,
            "school_name": "Name unknown",
            "country_name": "Ghana",
            "connectivity": false
        },
        {
            "lon": -1.8630676,
            "lat": 9.2221665,
            "school_name": "Name unknown",
            "country_name": "Ghana",
            "connectivity": false
        },
        {
            "lon": -1.8635649,
            "lat": 9.2217022,
            "school_name": "Name unknown",
            "country_name": "Ghana",
            "connectivity": false
        },
        {
            "lon": 36.776478,
            "lat": -1.308649,
            "school_name": "Tenderlings School",
            "country_name": "Kenya",
            "connectivity": false
        },
        {
            "lon": -1.6829065,
            "lat": 6.198259,
            "school_name": "Name unknown",
            "country_name": "Ghana",
            "connectivity": false
        },
        {
            "lon": 37.33862,
            "lat": -11.19966,
            "school_name": "MDINGULA",
            "country_name": "United Republic of Tanzania",
            "connectivity": false
        },
        {
            "lon": 0.480523,
            "lat": 6.7556689,
            "school_name": "Name unknown",
            "country_name": "Ghana",
            "connectivity": false
        },
        {
            "lon": 35.7001,
            "lat": -2.95685,
            "school_name": "ALAILELAI",
            "country_name": "United Republic of Tanzania",
            "connectivity": false
        },
        {
            "lon": 32.92122,
            "lat": -1.94361,
            "school_name": "NAMAKWEKWE",
            "country_name": "United Republic of Tanzania",
            "connectivity": false
        },
        {
            "lon": 38.91067,
            "lat": -7.73848,
            "school_name": "MWANGIA",
            "country_name": "United Republic of Tanzania",
            "connectivity": false
        },
        {
            "lon": 33.97304,
            "lat": -3.31078,
            "school_name": "BUHANGIJA",
            "country_name": "United Republic of Tanzania",
            "connectivity": false
        },
        {
            "lon": 0.4738652,
            "lat": 6.8253907,
            "school_name": "Name unknown",
            "country_name": "Ghana",
            "connectivity": false
        },
        {
            "lon": 36.769327,
            "lat": -1.2996832,
            "school_name": "The Netherlands School Society",
            "country_name": "Kenya",
            "connectivity": false
        },
        {
            "lon": 39.3092482,
            "lat": 1.3914737,
            "school_name": "Baragothey Primary School",
            "country_name": "Kenya",
            "connectivity": false
        },
        {
            "lon": 1.235976667,
            "lat": 6.313205,
            "school_name": "JEPL LA REFERENCE",
            "country_name": "Togo",
            "connectivity": false
        },
        {
            "lon": 1.21824,
            "lat": 6.265256667,
            "school_name": "EPL LE SCORE",
            "country_name": "Togo",
            "connectivity": false
        },
        {
            "lon": 0.986935,
            "lat": 6.380083,
            "school_name": "EPC BADJA",
            "country_name": "Togo",
            "connectivity": false
        },
        {
            "lon": 1.495227,
            "lat": 6.684393,
            "school_name": "EPP AYANOUKONDJI",
            "country_name": "Togo",
            "connectivity": false
        },
        {
            "lon": 1.420573,
            "lat": 6.668847,
            "school_name": "EPC KOUVE GBOLI",
            "country_name": "Togo",
            "connectivity": false
        },
        {
            "lon": 1.212133333,
            "lat": 6.30047,
            "school_name": "EPP TSIKPLONOUKONDJI",
            "country_name": "Togo",
            "connectivity": false
        },
        {
            "lon": 1.165522,
            "lat": 7.426694,
            "school_name": "EPC AVETE",
            "country_name": "Togo",
            "connectivity": false
        },
        {
            "lon": 0.663087,
            "lat": 7.320368,
            "school_name": "EPP AHLON DENOU",
            "country_name": "Togo",
            "connectivity": false
        },
        {
            "lon": 0.93874,
            "lat": 8.365098,
            "school_name": "EPP KPAWA G/A",
            "country_name": "Togo",
            "connectivity": false
        },
        {
            "lon": 1.181113,
            "lat": 8.021174,
            "school_name": "EPP MALOMI",
            "country_name": "Togo",
            "connectivity": false
        },
        {
            "lon": 0.635953,
            "lat": 9.142781,
            "school_name": "EPP TCHEBOU",
            "country_name": "Togo",
            "connectivity": false
        },
        {
            "lon": 0.142658333,
            "lat": 10.981945,
            "school_name": "EPC DJIPIENI",
            "country_name": "Togo",
            "connectivity": false
        },
        {
            "lon": 1.222666667,
            "lat": 6.13403,
            "school_name": "CPL LE BRILLANT",
            "country_name": "Togo",
            "connectivity": false
        },
        {
            "lon": 1.603466,
            "lat": 6.337135,
            "school_name": "CEG ANFOIN",
            "country_name": "Togo",
            "connectivity": false
        },
        {
            "lon": 36.66667,
            "lat": -2.71667,
            "school_name": "ORBOMBA",
            "country_name": "United Republic of Tanzania",
            "connectivity": false
        },
        {
            "lon": 33.89964,
            "lat": -1.26771,
            "school_name": "NYIHARA",
            "country_name": "United Republic of Tanzania",
            "connectivity": false
        },
        {
            "lon": 31.62735,
            "lat": -7.9807,
            "school_name": "NDUA",
            "country_name": "United Republic of Tanzania",
            "connectivity": false
        },
        {
            "lon": 36.08404,
            "lat": -8.34488,
            "school_name": "ITONGOWA",
            "country_name": "United Republic of Tanzania",
            "connectivity": false
        },
        {
            "lon": 33.4198,
            "lat": -8.9361,
            "school_name": "IKUTI",
            "country_name": "United Republic of Tanzania",
            "connectivity": false
        },
        {
            "lon": 0.6317,
            "lat": 7.1708,
            "school_name": "CPL L'ENVOL DE DANYI DZEDRAME",
            "country_name": "Togo",
            "connectivity": false
        },
        {
            "lon": 1.17714,
            "lat": 9.716355,
            "school_name": "LYCEE KOUMEA",
            "country_name": "Togo",
            "connectivity": false
        },
        {
            "lon": 34.19710368,
            "lat": -10.55059043,
            "school_name": "Khwawa CDSS",
            "country_name": "Malawi",
            "connectivity": false
        },
        {
            "lon": 34.08009631,
            "lat": -14.45315004,
            "school_name": "Mkwinda F. P.",
            "country_name": "Malawi",
            "connectivity": false
        },
        {
            "lon": 33.98394595,
            "lat": -14.28139094,
            "school_name": "Kabwazi F. P.",
            "country_name": "Malawi",
            "connectivity": false
        },
        {
            "lon": 34.91564851,
            "lat": -15.44537258,
            "school_name": "Namwiri",
            "country_name": "Malawi",
            "connectivity": false
        },
        {
            "lon": 35.67973685,
            "lat": -14.87266264,
            "school_name": "Nampeya",
            "country_name": "Malawi",
            "connectivity": false
        },
        {
            "lon": 35.63548077,
            "lat": -14.75215033,
            "school_name": "Tambalale",
            "country_name": "Malawi",
            "connectivity": false
        },
        {
            "lon": 24.12769039,
            "lat": 0.637419126,
            "school_name": "INST. BOSAU",
            "country_name": "Democratic Republic of the Congo",
            "connectivity": false
        },
        {
            "lon": 7.170696,
            "lat": 5.513546,
            "school_name": "Name unknown",
            "country_name": "Nigeria",
            "connectivity": false
        },
        {
            "lon": 27.04297581,
            "lat": 3.070835131,
            "school_name": "EP GBADI",
            "country_name": "Democratic Republic of the Congo",
            "connectivity": false
        },
        {
            "lon": 24.05390289,
            "lat": -3.679673582,
            "school_name": "INST ETETE",
            "country_name": "Democratic Republic of the Congo",
            "connectivity": false
        },
        {
            "lon": 23.88568574,
            "lat": -3.983134901,
            "school_name": "EP OPETA",
            "country_name": "Democratic Republic of the Congo",
            "connectivity": false
        },
        {
            "lon": 21.24133587,
            "lat": 43.89938058,
            "school_name": "\u0420\u0430\u0434\u0438\u0441\u043b\u0430\u0432 \u041d\u0438\u043a\u0447\u0435\u0432\u0438\u045b",
            "country_name": "Serbia",
            "connectivity": false
        },
        {
            "lon": 25.0495788,
            "lat": -10.90458856,
            "school_name": "INSTITUT KAPANDA",
            "country_name": "Democratic Republic of the Congo",
            "connectivity": false
        },
        {
            "lon": 25.90019359,
            "lat": -4.012078171,
            "school_name": "EP ULINDI",
            "country_name": "Democratic Republic of the Congo",
            "connectivity": false
        },
        {
            "lon": 21.76624536,
            "lat": 1.855469567,
            "school_name": "INST EPOKO",
            "country_name": "Democratic Republic of the Congo",
            "connectivity": false
        },
        {
            "lon": 19.77402339,
            "lat": 3.218714523,
            "school_name": "ITA MUTABU",
            "country_name": "Democratic Republic of the Congo",
            "connectivity": false
        },
        {
            "lon": 13.0598959,
            "lat": -5.701045142,
            "school_name": "EP  REV MADUKA",
            "country_name": "Democratic Republic of the Congo",
            "connectivity": false
        },
        {
            "lon": -67.266827,
            "lat": -15.884223,
            "school_name": "EDUARDO ABAROA",
            "country_name": "Bolivia (Plurinational State of)",
            "connectivity": false
        },
        {
            "lon": -12.49804,
            "lat": 15.01983,
            "school_name": "\u0627\u062f\u0628\u0627\u064a\u0627\u0644\u0627\u0633\u0644\u0627\u0645",
            "country_name": "Mauritania",
            "connectivity": false
        },
        {
            "lon": 32.87786,
            "lat": 1.88756,
            "school_name": "Nambieco Agro. S.S.",
            "country_name": "Uganda",
            "connectivity": false
        },
        {
            "lon": 30.31644,
            "lat": -0.69719,
            "school_name": "Ryakasinga Ctr for Higher Educ.",
            "country_name": "Uganda",
            "connectivity": false
        },
        {
            "lon": 32.57761,
            "lat": 0.34554,
            "school_name": "St.Martin Mulago P.S",
            "country_name": "Uganda",
            "connectivity": false
        },
        {
            "lon": 31.96004,
            "lat": 0.7039,
            "school_name": "Muwanga St. Lawrence",
            "country_name": "Uganda",
            "connectivity": false
        },
        {
            "lon": 31.66208,
            "lat": 0.99607,
            "school_name": "Nabulembeko COU",
            "country_name": "Uganda",
            "connectivity": false
        },
        {
            "lon": 31.09639,
            "lat": -0.01831,
            "school_name": "Kirowooza P.S",
            "country_name": "Uganda",
            "connectivity": false
        },
        {
            "lon": 31.00292,
            "lat": 3.30802,
            "school_name": "Oliapi P.S.",
            "country_name": "Uganda",
            "connectivity": false
        },
        {
            "lon": 18.58078,
            "lat": -33.94533,
            "school_name": "Bishop Lavis Primary School",
            "country_name": "South Africa",
            "connectivity": false
        },
        {
            "lon": 18.58714,
            "lat": -33.93827,
            "school_name": "Holy Trinity Catholic Church Campus",
            "country_name": "South Africa",
            "connectivity": false
        },
        {
            "lon": 19.31445,
            "lat": -33.60914,
            "school_name": "Placemark",
            "country_name": "South Africa",
            "connectivity": false
        },
        {
            "lon": 29.8023,
            "lat": -24.03364,
            "school_name": "Boshego High School",
            "country_name": "South Africa",
            "connectivity": false
        },
        {
            "lon": 27.39112,
            "lat": -24.32531,
            "school_name": "Heuningvlei Primary School",
            "country_name": "South Africa",
            "connectivity": false
        },
        {
            "lon": 32.42978,
            "lat": -27.28564,
            "school_name": "Mshanguzana High School",
            "country_name": "South Africa",
            "connectivity": false
        },
        {
            "lon": 32.7544,
            "lat": -27.05066,
            "school_name": "Mnyayiza Primary School",
            "country_name": "South Africa",
            "connectivity": false
        },
        {
            "lon": 31.39099,
            "lat": -28.56503,
            "school_name": "Ethubalethu Combined School",
            "country_name": "South Africa",
            "connectivity": false
        },
        {
            "lon": 31.14322,
            "lat": -28.56348,
            "school_name": "Zikhali Primary School",
            "country_name": "South Africa",
            "connectivity": false
        },
        {
            "lon": 31.27465,
            "lat": -27.27385,
            "school_name": "Lalela Finishing High School",
            "country_name": "South Africa",
            "connectivity": false
        },
        {
            "lon": 27.85378,
            "lat": -26.21303,
            "school_name": "Nkone Maruping Primary School",
            "country_name": "South Africa",
            "connectivity": false
        },
        {
            "lon": 28.16013,
            "lat": -25.79062,
            "school_name": "SA National Defence College",
            "country_name": "South Africa",
            "connectivity": false
        },
        {
            "lon": 28.19387,
            "lat": -25.74238,
            "school_name": "Meridian College",
            "country_name": "South Africa",
            "connectivity": false
        },
        {
            "lon": 27.92784,
            "lat": -26.22862,
            "school_name": "Zithathele Primary School",
            "country_name": "South Africa",
            "connectivity": false
        },
        {
            "lon": 28.15127,
            "lat": -26.12792,
            "school_name": "Toddlers Corner",
            "country_name": "South Africa",
            "connectivity": false
        },
        {
            "lon": 27.3704,
            "lat": -33.10932,
            "school_name": "Dube Primary School",
            "country_name": "South Africa",
            "connectivity": false
        },
        {
            "lon": 28.43642,
            "lat": -32.60563,
            "school_name": "Nibe Senior Primary School",
            "country_name": "South Africa",
            "connectivity": false
        },
        {
            "lon": 28.6987,
            "lat": -31.55838,
            "school_name": "Ngwayibanjwa Secondary School",
            "country_name": "South Africa",
            "connectivity": false
        },
        {
            "lon": 29.60427,
            "lat": -30.8779,
            "school_name": "Kubha Senior Primary School",
            "country_name": "South Africa",
            "connectivity": false
        },
        {
            "lon": 29.02207,
            "lat": -32.0723,
            "school_name": "Manzibomvu Junior Secondary School",
            "country_name": "South Africa",
            "connectivity": false
        },
        {
            "lon": -58.0270444,
            "lat": -35.4164342,
            "school_name": "ESCUELA PRIMARIA N\u00ba11 DON JOSE BILBAO",
            "country_name": "Argentina",
            "connectivity": false
        },
        {
            "lon": -61.11324179,
            "lat": -36.23481865,
            "school_name": "ESCUELA PRIMARIA N\u00ba2 OSCAR REDIN",
            "country_name": "Argentina",
            "connectivity": false
        },
        {
            "lon": -58.23770819,
            "lat": -34.74838761,
            "school_name": "JARDIN DE INFANTES ESTRELLITAS DE COLORES",
            "country_name": "Argentina",
            "connectivity": false
        },
        {
            "lon": -58.52076294,
            "lat": -34.53052856,
            "school_name": "COLEGIO SANTA ROSA DE LIMA",
            "country_name": "Argentina",
            "connectivity": false
        },
        {
            "lon": -58.3774535,
            "lat": -34.70595035,
            "school_name": "JARDIN DE INFANTES BLANCANIEVES Y YO",
            "country_name": "Argentina",
            "connectivity": false
        },
        {
            "lon": -58.90504711,
            "lat": -34.22967289,
            "school_name": "JARDIN DE INFANTES N\u00ba907 JUANA MANSO",
            "country_name": "Argentina",
            "connectivity": false
        },
        {
            "lon": -58.67664677,
            "lat": -34.66240643,
            "school_name": "ESCLAVAS DEL SAGRADO CORAZON DE JESUS",
            "country_name": "Argentina",
            "connectivity": false
        },
        {
            "lon": -59.8472567,
            "lat": -28.6708545,
            "school_name": "E.E.S. ORIENTADA NRO 316 JOSE MANUEL ESTRADA",
            "country_name": "Argentina",
            "connectivity": false
        },
        {
            "lon": -65.10396394,
            "lat": -31.17493269,
            "school_name": "I.P.E.M. N\u00ba 109 JERONIMO LUIS DE CABRERA",
            "country_name": "Argentina",
            "connectivity": false
        },
        {
            "lon": -58.40949225,
            "lat": -34.77071801,
            "school_name": "INSTITUTO CORAZON INMACULADO DE MARIA",
            "country_name": "Argentina",
            "connectivity": false
        },
        {
            "lon": -58.36917666,
            "lat": -34.77482379,
            "school_name": "COLEGIO THOMAS JEFFERSON (JARDIN)",
            "country_name": "Argentina",
            "connectivity": false
        },
        {
            "lon": -58.73973806,
            "lat": -34.54472492,
            "school_name": "CENTRO DE ADULTOS N\u00ba705",
            "country_name": "Argentina",
            "connectivity": false
        },
        {
            "lon": -58.38689602,
            "lat": -34.70598549,
            "school_name": "JARDIN DE INFANTES N\u00ba916",
            "country_name": "Argentina",
            "connectivity": false
        },
        {
            "lon": -60.2853754,
            "lat": -38.3739229,
            "school_name": "ESCUELA DE EDUCACION ESTETICA N\u00ba2",
            "country_name": "Argentina",
            "connectivity": false
        },
        {
            "lon": -65.79240381,
            "lat": -28.45776141,
            "school_name": "ESCUELA DE ADULTOS N\u00b0 44",
            "country_name": "Argentina",
            "connectivity": false
        },
        {
            "lon": -65.7872146,
            "lat": -28.47363375,
            "school_name": "ESCUELA N\u00b0 491 NACIONES UNIDAS",
            "country_name": "Argentina",
            "connectivity": false
        },
        {
            "lon": -60.79186937,
            "lat": -25.57410369,
            "school_name": "E.E.P. N\u00ba 650-MIGUEL ANTONIO NIEVAS",
            "country_name": "Argentina",
            "connectivity": false
        },
        {
            "lon": -61.05575568,
            "lat": -26.66241682,
            "school_name": "E.E.P. N\u00ba 361",
            "country_name": "Argentina",
            "connectivity": false
        },
        {
            "lon": -58.38259532,
            "lat": -34.60119955,
            "school_name": "INSTITUTO SUPERIOR DE ARTE DEL TEATRO COLON",
            "country_name": "Argentina",
            "connectivity": false
        },
        {
            "lon": -62.8869516,
            "lat": -32.1019676,
            "school_name": "JOSE HERNANDEZ",
            "country_name": "Argentina",
            "connectivity": false
        },
        {
            "lon": -64.68728524,
            "lat": -33.27575134,
            "school_name": "JUAN JOSE PASO",
            "country_name": "Argentina",
            "connectivity": false
        },
        {
            "lon": -64.34172386,
            "lat": -33.15179668,
            "school_name": "I.P.E.T. N\u00ba 79 ING. RENATO DE MARCO",
            "country_name": "Argentina",
            "connectivity": false
        },
        {
            "lon": -65.0952664,
            "lat": -31.9538996,
            "school_name": "I.P.E.T. N\u00b0 260 - ANEXO DE LAS TAPIAS",
            "country_name": "Argentina",
            "connectivity": false
        },
        {
            "lon": -58.3466013,
            "lat": -27.53994275,
            "school_name": "ESCUELA PRIMARIA N\u00ba 117",
            "country_name": "Argentina",
            "connectivity": false
        },
        {
            "lon": -60.16933498,
            "lat": -31.65521076,
            "school_name": "ESCUELA SECUNDARIA 73 2 DE ABRIL",
            "country_name": "Argentina",
            "connectivity": false
        },
        {
            "lon": -59.54623658,
            "lat": -24.36030173,
            "school_name": "EPEP N\u00b0342 FRAY JUSTO SANTA MARIA DE ORO",
            "country_name": "Argentina",
            "connectivity": false
        },
        {
            "lon": -60.8776422,
            "lat": -23.871088,
            "school_name": "EPEP N\u00b0 154 PADRE GABRIEL PATI\u00d1O",
            "country_name": "Argentina",
            "connectivity": false
        },
        {
            "lon": -62.12679204,
            "lat": -22.99905055,
            "school_name": "EPEP N\u00ba508",
            "country_name": "Argentina",
            "connectivity": false
        },
        {
            "lon": -58.95319588,
            "lat": -26.14936413,
            "school_name": "JIN N\u00b0 16 - EPEP N\u00b0 184",
            "country_name": "Argentina",
            "connectivity": false
        },
        {
            "lon": -65.30415313,
            "lat": -24.18241413,
            "school_name": "JIM CEDEMS",
            "country_name": "Argentina",
            "connectivity": false
        },
        {
            "lon": -65.26583973,
            "lat": -24.20968417,
            "school_name": "ASOCIACION CIVIL SFL LA CASA DEL NI\u00d1O RINCON DE VIDA",
            "country_name": "Argentina",
            "connectivity": false
        },
        {
            "lon": -66.85202125,
            "lat": -29.41609189,
            "school_name": "ESC.N\u00b0245 PEDRO IGNACIO DE CASTRO BARROS",
            "country_name": "Argentina",
            "connectivity": false
        },
        {
            "lon": -66.19160726,
            "lat": -30.57495486,
            "school_name": "ESC.N\u00b0387",
            "country_name": "Argentina",
            "connectivity": false
        },
        {
            "lon": -68.81966416,
            "lat": -32.88653031,
            "school_name": "LEANDRO N. ALEM",
            "country_name": "Argentina",
            "connectivity": false
        },
        {
            "lon": -62.67084125,
            "lat": -24.22171664,
            "school_name": "AULA ANEXA 4247-01 MARIA DEL ROSARIO DE SAN NICOLAS",
            "country_name": "Argentina",
            "connectivity": false
        },
        {
            "lon": -64.17751,
            "lat": -24.82174,
            "school_name": "ESCUELA DE EDUCACION TECNICA N\u00ba 3114 ANEXO PIQUETE CABADO",
            "country_name": "Argentina",
            "connectivity": false
        },
        {
            "lon": -73.616,
            "lat": -12.8759,
            "school_name": "38994",
            "country_name": "Peru",
            "connectivity": false
        },
        {
            "lon": -71.55,
            "lat": -15.532,
            "school_name": "40396",
            "country_name": "Peru",
            "connectivity": false
        },
        {
            "lon": -60.79173804,
            "lat": -31.68631611,
            "school_name": "ESCUELA NRO 49 DOCTOR AGUSTIN ARAYA",
            "country_name": "Argentina",
            "connectivity": false
        },
        {
            "lon": 6.902786667,
            "lat": 5.748883333,
            "school_name": "Name unknown",
            "country_name": "Nigeria",
            "connectivity": false
        },
        {
            "lon": -61.94765016,
            "lat": -33.73757172,
            "school_name": "E.E.S. ORIENTADA NRO 447 MANUEL VICENTE MANZANO",
            "country_name": "Argentina",
            "connectivity": false
        },
        {
            "lon": -64.23669767,
            "lat": -27.82296657,
            "school_name": "ESCUELA DE COMERCIO PROF.ANTENOR FERREYRA",
            "country_name": "Argentina",
            "connectivity": false
        },
        {
            "lon": -80.6963,
            "lat": -4.90027,
            "school_name": "503 SANTA ROSA DE LIMA",
            "country_name": "Peru",
            "connectivity": false
        },
        {
            "lon": 6.214077,
            "lat": 5.536541,
            "school_name": "Name unknown",
            "country_name": "Nigeria",
            "connectivity": false
        },
        {
            "lon": 6.635807,
            "lat": 6.189433,
            "school_name": "Name unknown",
            "country_name": "Nigeria",
            "connectivity": false
        },
        {
            "lon": 6.745593,
            "lat": 6.187494,
            "school_name": "Name unknown",
            "country_name": "Nigeria",
            "connectivity": false
        },
        {
            "lon": 7.493489,
            "lat": 5.541457,
            "school_name": "Name unknown",
            "country_name": "Nigeria",
            "connectivity": false
        },
        {
            "lon": 7.834344,
            "lat": 5.80707,
            "school_name": "Name unknown",
            "country_name": "Nigeria",
            "connectivity": false
        },
        {
            "lon": 7.91611,
            "lat": 6.23156,
            "school_name": "Name unknown",
            "country_name": "Nigeria",
            "connectivity": false
        },
        {
            "lon": 7.853346,
            "lat": 6.055122,
            "school_name": "Name unknown",
            "country_name": "Nigeria",
            "connectivity": false
        },
        {
            "lon": 7.935861667,
            "lat": 6.49696,
            "school_name": "Name unknown",
            "country_name": "Nigeria",
            "connectivity": false
        },
        {
            "lon": 6.627223,
            "lat": 6.757573,
            "school_name": "Name unknown",
            "country_name": "Nigeria",
            "connectivity": false
        },
        {
            "lon": 5.429534,
            "lat": 6.491089,
            "school_name": "Name unknown",
            "country_name": "Nigeria",
            "connectivity": false
        },
        {
            "lon": 5.530424,
            "lat": 7.790836,
            "school_name": "Name unknown",
            "country_name": "Nigeria",
            "connectivity": false
        },
        {
            "lon": 5.443093,
            "lat": 7.472592,
            "school_name": "Name unknown",
            "country_name": "Nigeria",
            "connectivity": false
        },
        {
            "lon": 5.207208333,
            "lat": 8.00323,
            "school_name": "Name unknown",
            "country_name": "Nigeria",
            "connectivity": false
        },
        {
            "lon": 7.414482,
            "lat": 6.620589,
            "school_name": "Name unknown",
            "country_name": "Nigeria",
            "connectivity": false
        },
        {
            "lon": 7.532762,
            "lat": 6.989557,
            "school_name": "Name unknown",
            "country_name": "Nigeria",
            "connectivity": false
        },
        {
            "lon": 7.671715,
            "lat": 6.683113333,
            "school_name": "Name unknown",
            "country_name": "Nigeria",
            "connectivity": false
        },
        {
            "lon": 6.848887,
            "lat": 9.209719,
            "school_name": "Name unknown",
            "country_name": "Nigeria",
            "connectivity": false
        },
        {
            "lon": 11.11063,
            "lat": 10.2921,
            "school_name": "Name unknown",
            "country_name": "Nigeria",
            "connectivity": false
        },
        {
            "lon": 11.69168,
            "lat": 9.87969,
            "school_name": "Name unknown",
            "country_name": "Nigeria",
            "connectivity": false
        },
        {
            "lon": 10.72796,
            "lat": 11.0452,
            "school_name": "Name unknown",
            "country_name": "Nigeria",
            "connectivity": false
        },
        {
            "lon": 11.49397,
            "lat": 10.76277,
            "school_name": "Name unknown",
            "country_name": "Nigeria",
            "connectivity": false
        },
        {
            "lon": 11.17746,
            "lat": 10.277884,
            "school_name": "Name unknown",
            "country_name": "Nigeria",
            "connectivity": false
        },
        {
            "lon": 11.305062,
            "lat": 9.939545,
            "school_name": "Name unknown",
            "country_name": "Nigeria",
            "connectivity": false
        },
        {
            "lon": 11.52119,
            "lat": 10.30505,
            "school_name": "Name unknown",
            "country_name": "Nigeria",
            "connectivity": false
        },
        {
            "lon": 7.32807,
            "lat": 5.62848,
            "school_name": "Name unknown",
            "country_name": "Nigeria",
            "connectivity": false
        },
        {
            "lon": 7.378357,
            "lat": 5.596212,
            "school_name": "Name unknown",
            "country_name": "Nigeria",
            "connectivity": false
        },
        {
            "lon": 7.241532,
            "lat": 5.239658,
            "school_name": "Name unknown",
            "country_name": "Nigeria",
            "connectivity": false
        },
        {
            "lon": 6.8832967,
            "lat": 5.5528284,
            "school_name": "Name unknown",
            "country_name": "Nigeria",
            "connectivity": false
        },
        {
            "lon": -76.4737,
            "lat": -8.52799,
            "school_name": "289",
            "country_name": "Peru",
            "connectivity": false
        },
        {
            "lon": -76.6223,
            "lat": -6.7478,
            "school_name": "0304 MARIO VARGAS LLOSA",
            "country_name": "Peru",
            "connectivity": false
        },
        {
            "lon": -80.4359,
            "lat": -3.6975,
            "school_name": "042 ALIPIO ROSALES CAMACHO",
            "country_name": "Peru",
            "connectivity": false
        },
        {
            "lon": -75.6634,
            "lat": -6.1539,
            "school_name": "545",
            "country_name": "Peru",
            "connectivity": false
        },
        {
            "lon": -80.6747,
            "lat": -5.17905,
            "school_name": "71",
            "country_name": "Peru",
            "connectivity": false
        },
        {
            "lon": -78.8193,
            "lat": -6.67782,
            "school_name": "10706",
            "country_name": "Peru",
            "connectivity": false
        },
        {
            "lon": -79.831,
            "lat": -6.76989,
            "school_name": "11001 LEONCIO PRADO",
            "country_name": "Peru",
            "connectivity": false
        },
        {
            "lon": -70.121,
            "lat": -15.5097,
            "school_name": "1152",
            "country_name": "Peru",
            "connectivity": false
        },
        {
            "lon": -79.0187,
            "lat": -5.12256,
            "school_name": "1274",
            "country_name": "Peru",
            "connectivity": false
        },
        {
            "lon": -79.9784,
            "lat": -4.71342,
            "school_name": "14402 PEDRO PAULET MOSTAJO",
            "country_name": "Peru",
            "connectivity": false
        },
        {
            "lon": -79.9333,
            "lat": -5.0892,
            "school_name": "15207",
            "country_name": "Peru",
            "connectivity": false
        },
        {
            "lon": -79.4754,
            "lat": -5.41295,
            "school_name": "15364",
            "country_name": "Peru",
            "connectivity": false
        },
        {
            "lon": -74.7951,
            "lat": -5.88812,
            "school_name": "61188",
            "country_name": "Peru",
            "connectivity": false
        },
        {
            "lon": -75.254,
            "lat": -11.9936,
            "school_name": "618",
            "country_name": "Peru",
            "connectivity": false
        },
        {
            "lon": -78.4796,
            "lat": -7.93385,
            "school_name": "2000",
            "country_name": "Peru",
            "connectivity": false
        },
        {
            "lon": -77.0794,
            "lat": -12.0113,
            "school_name": "2005",
            "country_name": "Peru",
            "connectivity": false
        },
        {
            "lon": -73.8234,
            "lat": -15.2272,
            "school_name": "24269 VIRGEN DE LA CUEVA",
            "country_name": "Peru",
            "connectivity": false
        },
        {
            "lon": -75.5086,
            "lat": -12.2492,
            "school_name": "30120",
            "country_name": "Peru",
            "connectivity": false
        },
        {
            "lon": -77.0847,
            "lat": -11.9658,
            "school_name": "3093",
            "country_name": "Peru",
            "connectivity": false
        },
        {
            "lon": -74.3665,
            "lat": -12.6986,
            "school_name": "31130 INCA GARCILAZO DE LA VEGA",
            "country_name": "Peru",
            "connectivity": false
        },
        {
            "lon": -79.0042,
            "lat": -6.07504,
            "school_name": "320",
            "country_name": "Peru",
            "connectivity": false
        },
        {
            "lon": -75.0306,
            "lat": -9.07284,
            "school_name": "33056",
            "country_name": "Peru",
            "connectivity": false
        },
        {
            "lon": -77.0792,
            "lat": -11.9919,
            "school_name": "BAUTISTA TOMAS BROWN",
            "country_name": "Peru",
            "connectivity": false
        },
        {
            "lon": -74.2525,
            "lat": -12.9375,
            "school_name": "38257 SAN RAMON",
            "country_name": "Peru",
            "connectivity": false
        },
        {
            "lon": -73.594,
            "lat": -12.8394,
            "school_name": "38726",
            "country_name": "Peru",
            "connectivity": false
        },
        {
            "lon": -71.4991,
            "lat": -16.4001,
            "school_name": "40129 MANUEL VERAMENDI E HIDALGO",
            "country_name": "Peru",
            "connectivity": false
        },
        {
            "lon": -74.0083,
            "lat": -12.459,
            "school_name": "429-119",
            "country_name": "Peru",
            "connectivity": false
        },
        {
            "lon": -73.7329,
            "lat": -13.6275,
            "school_name": "475-48",
            "country_name": "Peru",
            "connectivity": false
        },
        {
            "lon": -71.9456,
            "lat": -13.7841,
            "school_name": "50400",
            "country_name": "Peru",
            "connectivity": false
        },
        {
            "lon": -71.9603,
            "lat": -13.5121,
            "school_name": "50966",
            "country_name": "Peru",
            "connectivity": false
        },
        {
            "lon": -73.8507,
            "lat": -5.0581,
            "school_name": "601542",
            "country_name": "Peru",
            "connectivity": false
        },
        {
            "lon": -72.8567,
            "lat": -4.22232,
            "school_name": "60155",
            "country_name": "Peru",
            "connectivity": false
        },
        {
            "lon": -74.6088,
            "lat": -8.39946,
            "school_name": "615",
            "country_name": "Peru",
            "connectivity": false
        },
        {
            "lon": -76.4001,
            "lat": -5.7503,
            "school_name": "62231",
            "country_name": "Peru",
            "connectivity": false
        },
        {
            "lon": -69.2847,
            "lat": -16.6133,
            "school_name": "70273",
            "country_name": "Peru",
            "connectivity": false
        },
        {
            "lon": -69.6346,
            "lat": -16.1835,
            "school_name": "70360",
            "country_name": "Peru",
            "connectivity": false
        },
        {
            "lon": -70.053,
            "lat": -15.5075,
            "school_name": "70602",
            "country_name": "Peru",
            "connectivity": false
        },
        {
            "lon": -69.4477,
            "lat": -14.6361,
            "school_name": "72147",
            "country_name": "Peru",
            "connectivity": false
        },
        {
            "lon": -69.4929,
            "lat": -15.3153,
            "school_name": "72394",
            "country_name": "Peru",
            "connectivity": false
        },
        {
            "lon": -79.0454,
            "lat": -8.10811,
            "school_name": "80014 JUAN PABLO II",
            "country_name": "Peru",
            "connectivity": false
        },
        {
            "lon": -78.1434,
            "lat": -8.12073,
            "school_name": "80557 CIRO ALEGRIA BAZAN",
            "country_name": "Peru",
            "connectivity": false
        },
        {
            "lon": -78.6665,
            "lat": -8.08361,
            "school_name": "80752",
            "country_name": "Peru",
            "connectivity": false
        },
        {
            "lon": -79.1898,
            "lat": -7.74789,
            "school_name": "81514 FRANCISCO BOLOGNESI",
            "country_name": "Peru",
            "connectivity": false
        },
        {
            "lon": -78.4532,
            "lat": -8.2066,
            "school_name": "82041",
            "country_name": "Peru",
            "connectivity": false
        },
        {
            "lon": -78.287,
            "lat": -7.4283,
            "school_name": "82311",
            "country_name": "Peru",
            "connectivity": false
        },
        {
            "lon": -79.2358,
            "lat": -7.25536,
            "school_name": "82570",
            "country_name": "Peru",
            "connectivity": false
        },
        {
            "lon": -77.3376,
            "lat": -8.70008,
            "school_name": "84034",
            "country_name": "Peru",
            "connectivity": false
        },
        {
            "lon": -77.1905,
            "lat": -10.2532,
            "school_name": "86240",
            "country_name": "Peru",
            "connectivity": false
        },
        {
            "lon": -77.4578,
            "lat": -9.70048,
            "school_name": "86588",
            "country_name": "Peru",
            "connectivity": false
        },
        {
            "lon": -78.5772,
            "lat": -9.08677,
            "school_name": "89005 PEDRO PAULET MOSTAJO",
            "country_name": "Peru",
            "connectivity": false
        },
        {
            "lon": -73.9941,
            "lat": -10.537,
            "school_name": "AGROP. COCANI -B",
            "country_name": "Peru",
            "connectivity": false
        },
        {
            "lon": -74.4697,
            "lat": -9.0996,
            "school_name": "AGROP. GARCILAZO DE LA VEGA",
            "country_name": "Peru",
            "connectivity": false
        },
        {
            "lon": -75.623,
            "lat": -11.7387,
            "school_name": "ANDRES AVELINO CACERES D. 30468",
            "country_name": "Peru",
            "connectivity": false
        },
        {
            "lon": -77.7665,
            "lat": -10.7406,
            "school_name": "NEUMANN COLLEGE",
            "country_name": "Peru",
            "connectivity": false
        },
        {
            "lon": -77.067,
            "lat": -11.9792,
            "school_name": "CAYETANO HEREDIA",
            "country_name": "Peru",
            "connectivity": false
        },
        {
            "lon": -79.8619,
            "lat": -4.97154,
            "school_name": "CHACHACOMAL ALTO",
            "country_name": "Peru",
            "connectivity": false
        },
        {
            "lon": -72.2697,
            "lat": -15.5028,
            "school_name": "CHACHAS",
            "country_name": "Peru",
            "connectivity": false
        },
        {
            "lon": -71.5323,
            "lat": -16.3998,
            "school_name": "ELMER FAUCETT",
            "country_name": "Peru",
            "connectivity": false
        },
        {
            "lon": -76.9965,
            "lat": -12.1402,
            "school_name": "EMILIA BARCIA BONIFATTI",
            "country_name": "Peru",
            "connectivity": false
        },
        {
            "lon": -70.3762,
            "lat": -15.7913,
            "school_name": "ESTACACHI",
            "country_name": "Peru",
            "connectivity": false
        },
        {
            "lon": -79.3546,
            "lat": -6.20086,
            "school_name": "ESTRELLITAS DE JESUS",
            "country_name": "Peru",
            "connectivity": false
        },
        {
            "lon": -76.7064,
            "lat": -10.1304,
            "school_name": "FERMIN PABLO COZ MARTEL",
            "country_name": "Peru",
            "connectivity": false
        },
        {
            "lon": -77.0214,
            "lat": -11.9112,
            "school_name": "GENERACION EN ACCION III",
            "country_name": "Peru",
            "connectivity": false
        },
        {
            "lon": -75.8211,
            "lat": -10.7633,
            "school_name": "GIRASOLCITO",
            "country_name": "Peru",
            "connectivity": false
        },
        {
            "lon": -80.6255,
            "lat": -5.19261,
            "school_name": "JOSE MARIA VALLE RIESTRA",
            "country_name": "Peru",
            "connectivity": false
        },
        {
            "lon": -74.609,
            "lat": -12.7448,
            "school_name": "JULIO RAMON RIBEYRO",
            "country_name": "Peru",
            "connectivity": false
        },
        {
            "lon": -80.6327,
            "lat": -5.19146,
            "school_name": "LA CANTUTA",
            "country_name": "Peru",
            "connectivity": false
        },
        {
            "lon": -80.2253,
            "lat": -3.6916,
            "school_name": "LEANDRO CAMPOS",
            "country_name": "Peru",
            "connectivity": false
        },
        {
            "lon": -77.0145,
            "lat": -11.9889,
            "school_name": "LEONARDO DA VINCI",
            "country_name": "Peru",
            "connectivity": false
        },
        {
            "lon": -80.6996,
            "lat": -4.90502,
            "school_name": "LIBERTADOR SIMON BOLIVAR",
            "country_name": "Peru",
            "connectivity": false
        },
        {
            "lon": -80.6818,
            "lat": -4.89745,
            "school_name": "LIDERES DEL FUTURO",
            "country_name": "Peru",
            "connectivity": false
        },
        {
            "lon": -77.0955,
            "lat": -12.0445,
            "school_name": "LOS CONEJITOS",
            "country_name": "Peru",
            "connectivity": false
        },
        {
            "lon": -70.0875,
            "lat": -14.4536,
            "school_name": "LOURDES",
            "country_name": "Peru",
            "connectivity": false
        },
        {
            "lon": -70.0175,
            "lat": -15.85,
            "school_name": "MARIA TERESA DE CALCUTA",
            "country_name": "Peru",
            "connectivity": false
        },
        {
            "lon": -77.0438,
            "lat": -12.0843,
            "school_name": "MI HOGAR Y ESCUELA",
            "country_name": "Peru",
            "connectivity": false
        },
        {
            "lon": -77.0095,
            "lat": -11.9561,
            "school_name": "NUEVA JERUSALEN",
            "country_name": "Peru",
            "connectivity": false
        },
        {
            "lon": -79.0377,
            "lat": -8.08005,
            "school_name": "PAIDEIA",
            "country_name": "Peru",
            "connectivity": false
        },
        {
            "lon": -79.0493,
            "lat": -8.13314,
            "school_name": "RAYITOS DE SOL",
            "country_name": "Peru",
            "connectivity": false
        },
        {
            "lon": -80.7407,
            "lat": -5.49799,
            "school_name": "SAN CRISTO",
            "country_name": "Peru",
            "connectivity": false
        },
        {
            "lon": -70.2912,
            "lat": -14.299,
            "school_name": "SAN ISIDRO",
            "country_name": "Peru",
            "connectivity": false
        },
        {
            "lon": -78.509,
            "lat": -9.13116,
            "school_name": "SAN JUAN DE DIOS",
            "country_name": "Peru",
            "connectivity": false
        },
        {
            "lon": -75.7346,
            "lat": -14.0534,
            "school_name": "SAN JUAN GABRIEL PERBOYRE",
            "country_name": "Peru",
            "connectivity": false
        },
        {
            "lon": -77.1345,
            "lat": -12.0628,
            "school_name": "SAN MARCELINO CHAMPAGNAT",
            "country_name": "Peru",
            "connectivity": false
        },
        {
            "lon": -77.1156,
            "lat": -11.9724,
            "school_name": "SAN MICAEL",
            "country_name": "Peru",
            "connectivity": false
        },
        {
            "lon": -71.5754,
            "lat": -16.3965,
            "school_name": "SANTA CATALINA DE SIENA",
            "country_name": "Peru",
            "connectivity": false
        },
        {
            "lon": -71.987,
            "lat": -13.5147,
            "school_name": "SANTA CECILIA",
            "country_name": "Peru",
            "connectivity": false
        },
        {
            "lon": -76.8867,
            "lat": -12.0885,
            "school_name": "SHALOOM",
            "country_name": "Peru",
            "connectivity": false
        },
        {
            "lon": -79.0969,
            "lat": -6.25061,
            "school_name": "SIMON BOLIVAR",
            "country_name": "Peru",
            "connectivity": false
        },
        {
            "lon": 9.1116076,
            "lat": 12.3315039,
            "school_name": "Name unknown",
            "country_name": "Nigeria",
            "connectivity": false
        },