{
    "name": "Patchwork Kingdom #345 | Vimvigora",
    "description": "The twin kingdoms of Vimvigora, separated by a digital divide. A bustling kingdom of 67 schools on top that are all connected to the internet, and 59 schools, not connected, hidden in the upside down kingdom | Created for Giga (GigaConnect.org) \u2014 connecting every school in the world \u2014 in celebration of UNICEF's 75th birthday, by Nadieh Bremer",
    "external_url": "https://dummyURL.com/patchwork_kingdoms_345",
    "image": "https://dummy-storage-url.com/patchwork_kingdoms_345.png",
    "attributes": [
        {
            "trait_type": "Color palette",
            "value": "slime"
        },
        {
            "display_type": "number",
            "trait_type": "Schools",
            "value": 137,
            "max_value": 460
        },
        {
            "display_type": "number",
            "trait_type": "Ratio - Connected",
            "value": 0.49,
            "max_value": 1
        },
        {
            "display_type": "number",
            "trait_type": "Ratio - Unconnected",
            "value": 0.43,
            "max_value": 1
        },
        {
            "display_type": "number",
            "trait_type": "Ratio - Data unavailable",
            "value": 0.08,
            "max_value": 1
        },
        {
            "trait_type": "Countries",
            "value": "BR-CO-HN-KZ-NA-PH-PS-RW-SL-ZW"
        },
        {
            "display_type": "number",
            "trait_type": "Symbols",
            "value": 38,
            "max_value": 51
        }
    ],
    "cluster_id": 345,
    "num_schools": 137,
    "num_schools_connected": 67,
    "num_schools_unconnected": 59,
    "num_schools_unknown": 11,
    "schools": [
        {
            "lon": -86.84054,
            "lat": 14.28459,
            "school_name": "LORENZO MARTINEZ",
            "country_name": "Honduras",
            "connectivity": true
        },
        {
            "lon": -88.3565,
            "lat": 14.69345,
            "school_name": "ERICK MAURICIO RODRIGUEZ",
            "country_name": "Honduras",
            "connectivity": true
        },
        {
            "lon": -88.22393,
            "lat": 15.06509,
            "school_name": "PASCUAL FAJARDO FERNANDEZ",
            "country_name": "Honduras",
            "connectivity": true
        },
        {
            "lon": -48.8107,
            "lat": -21.604,
            "school_name": "MUNDO PEQUENINO EMEI",
            "country_name": "Brazil",
            "connectivity": true
        },
        {
            "lon": -54.8118,
            "lat": -22.2232,
            "school_name": "EE CASTRO ALVES",
            "country_name": "Brazil",
            "connectivity": true
        },
        {
            "lon": -49.4777,
            "lat": -23.2763,
            "school_name": "EDGARDO CARDOSO DOUTOR",
            "country_name": "Brazil",
            "connectivity": true
        },
        {
            "lon": -87.61678,
            "lat": 13.74011,
            "school_name": "RAMON ROSA",
            "country_name": "Honduras",
            "connectivity": true
        },
        {
            "lon": -46.325,
            "lat": -23.4707,
            "school_name": "RUI ALBERTO PESTANA HENRIQUES PROF EM",
            "country_name": "Brazil",
            "connectivity": true
        },
        {
            "lon": 35.281096,
            "lat": 32.161305,
            "school_name": "awarta sec boys",
            "country_name": "Palestine",
            "connectivity": true
        },
        {
            "lon": 27.99289,
            "lat": -18.09802,
            "school_name": "NTIVULE WORLDVIEW",
            "country_name": "Zimbabwe",
            "connectivity": true
        },
        {
            "lon": 28.68961,
            "lat": -17.84091,
            "school_name": "RUGORA",
            "country_name": "Zimbabwe",
            "connectivity": true
        },
        {
            "lon": -74.9851677,
            "lat": 5.328147912,
            "school_name": "ESCUELA EL ROSARIO",
            "country_name": "Colombia",
            "connectivity": true
        },
        {
            "lon": -74.07762493,
            "lat": 4.630464987,
            "school_name": "Name unknown",
            "country_name": "Colombia",
            "connectivity": false
        },
        {
            "lon": -75.57196514,
            "lat": 6.291034378,
            "school_name": "Name unknown",
            "country_name": "Colombia",
            "connectivity": false
        },
        {
            "lon": 18.22861,
            "lat": -17.60583,
            "school_name": "Runda JP",
            "country_name": "Namibia",
            "connectivity": false
        },
        {
            "lon": 120.5738584,
            "lat": 15.22395254,
            "school_name": "Mabalacat ES",
            "country_name": "Philippines",
            "connectivity": true
        },
        {
            "lon": 123.963654,
            "lat": 11.111493,
            "school_name": "Bomedco ES",
            "country_name": "Philippines",
            "connectivity": true
        },
        {
            "lon": 124.653754,
            "lat": 6.752578,
            "school_name": "Maligaya CES",
            "country_name": "Philippines",
            "connectivity": true
        },
        {
            "lon": 121.1266,
            "lat": 17.9669,
            "school_name": "Madduang ES",
            "country_name": "Philippines",
            "connectivity": true
        },
        {
            "lon": -88.97643,
            "lat": 14.48915,
            "school_name": "RAFAEL  ARITA  ALVARENGA",
            "country_name": "Honduras",
            "connectivity": true
        },
        {
            "lon": -72.23598602,
            "lat": 11.38743841,
            "school_name": "SEDE MARIA EUGENIA",
            "country_name": "Colombia",
            "connectivity": true
        },
        {
            "lon": -72.51982848,
            "lat": 11.61178374,
            "school_name": "ESCUELA RURAL IND\u00cdGENA MOUWUASIRA",
            "country_name": "Colombia",
            "connectivity": true
        },
        {
            "lon": -72.83080587,
            "lat": 7.635108673,
            "school_name": "SEDE EL CANEY",
            "country_name": "Colombia",
            "connectivity": true
        },
        {
            "lon": -73.104167,
            "lat": 5.033611,
            "school_name": "ESC RUR NOVARE",
            "country_name": "Colombia",
            "connectivity": true
        },
        {
            "lon": -72.9954356,
            "lat": 8.550261704,
            "school_name": "SEDE SAN MARCOS",
            "country_name": "Colombia",
            "connectivity": true
        },
        {
            "lon": -73.97173336,
            "lat": 8.997867818,
            "school_name": "EUM SANTA TERESA DE JESUS",
            "country_name": "Colombia",
            "connectivity": true
        },
        {
            "lon": -74.21846377,
            "lat": 8.80680926,
            "school_name": "EL RUBIO",
            "country_name": "Colombia",
            "connectivity": true
        },
        {
            "lon": -74.37373165,
            "lat": 4.143721574,
            "school_name": "ESCUELA RURAL EL DIAMANTE",
            "country_name": "Colombia",
            "connectivity": true
        },
        {
            "lon": -76.43133955,
            "lat": 4.96022561,
            "school_name": "SEDE CARMEN DE SURAMA",
            "country_name": "Colombia",
            "connectivity": true
        },
        {
            "lon": -58.7985,
            "lat": -3.8707,
            "school_name": "ESCOLA MUNICIPAL PRESIDENTE SARNEY I",
            "country_name": "Brazil",
            "connectivity": false
        },
        {
            "lon": -63.0213,
            "lat": -7.506,
            "school_name": "ESCOLA ESTADUAL PATRONATO MARIA AUXILIADORA",
            "country_name": "Brazil",
            "connectivity": false
        },
        {
            "lon": -66.8503,
            "lat": -0.1815,
            "school_name": "ESC MUN INDIGENA NOSSA SENHORA DAS MERCES",
            "country_name": "Brazil",
            "connectivity": false
        },
        {
            "lon": -50.8199,
            "lat": -1.9348,
            "school_name": "E M E I CASULO DA MONICA",
            "country_name": "Brazil",
            "connectivity": true
        },
        {
            "lon": -46.831,
            "lat": -1.0002,
            "school_name": "E M E F MANOEL MELO",
            "country_name": "Brazil",
            "connectivity": false
        },
        {
            "lon": -49.9423,
            "lat": -4.2567,
            "school_name": "E M E I F CASTELINHO DO PEQUENO PRINCIPE",
            "country_name": "Brazil",
            "connectivity": true
        },
        {
            "lon": -50.848,
            "lat": -2.1849,
            "school_name": "E M E F ANTONIO BARBOSA DE SOUZA",
            "country_name": "Brazil",
            "connectivity": false
        },
        {
            "lon": -48.2342,
            "lat": -11.9735,
            "school_name": "CMEI EDUARDO ELIAS ZANATTA",
            "country_name": "Brazil",
            "connectivity": true
        },
        {
            "lon": -44.6907,
            "lat": -2.0951,
            "school_name": "UE SAO JOSE DE GUIMARAES",
            "country_name": "Brazil",
            "connectivity": false
        },
        {
            "lon": -45.13,
            "lat": -4.5558,
            "school_name": "UI EDMILSON FERREIRA DOS SANTOS",
            "country_name": "Brazil",
            "connectivity": true
        },
        {
            "lon": -44.367,
            "lat": -5.6136,
            "school_name": "UE JOSE ALVES DE SOUSA",
            "country_name": "Brazil",
            "connectivity": false
        },
        {
            "lon": -46.4298,
            "lat": -4.3421,
            "school_name": "JARDIM DE INFANCIA PAULO FREIRE",
            "country_name": "Brazil",
            "connectivity": true
        },
        {
            "lon": -43.2632,
            "lat": -6.7883,
            "school_name": "ESCOLA MUNICIPAL SOCORRO ARAUJO",
            "country_name": "Brazil",
            "connectivity": false
        },
        {
            "lon": -40.9309,
            "lat": -7.4722,
            "school_name": "ESCOLA MUNICIPAL JOSE SEVERO DA SILVA",
            "country_name": "Brazil",
            "connectivity": false
        },
        {
            "lon": -41.9343,
            "lat": -5.288,
            "school_name": "U E ANTONIO VITORIO DE SOUSA",
            "country_name": "Brazil",
            "connectivity": true
        },
        {
            "lon": -40.7742,
            "lat": -4.3334,
            "school_name": "FRANCISCO PERES MARTINS EMEB",
            "country_name": "Brazil",
            "connectivity": false
        },
        {
            "lon": -38.5787,
            "lat": -3.7385,
            "school_name": "COLEGIO DA POLICIA MILITAR DO CEARA",
            "country_name": "Brazil",
            "connectivity": true
        },
        {
            "lon": -38.4834,
            "lat": -4.1123,
            "school_name": "NELSA NAVILHA GRENDENE BARTELLE CEI",
            "country_name": "Brazil",
            "connectivity": true
        },
        {
            "lon": -37.1296,
            "lat": -4.9549,
            "school_name": "EM PROF GERALDA CRUZ",
            "country_name": "Brazil",
            "connectivity": true
        },
        {
            "lon": -38.3361,
            "lat": -6.277,
            "school_name": "ESC ISOLADA CATOLEZINHO",
            "country_name": "Brazil",
            "connectivity": false
        },
        {
            "lon": -36.0138,
            "lat": -6.2312,
            "school_name": "ESCOLA MUNICIPAL SOSSEGO DA MAMAE",
            "country_name": "Brazil",
            "connectivity": true
        },
        {
            "lon": -38.5925,
            "lat": -6.5201,
            "school_name": "EMEIF MANOEL PEDRO LISBOA",
            "country_name": "Brazil",
            "connectivity": true
        },
        {
            "lon": -36.0601,
            "lat": -7.0731,
            "school_name": "EMEF ELIZETE PEREIRA DE ARAUJO",
            "country_name": "Brazil",
            "connectivity": true
        },
        {
            "lon": -35.1657,
            "lat": -7.504,
            "school_name": "ESCOLAS REUNIDAS JOAO HILARIO PEREIRA DE LYRA",
            "country_name": "Brazil",
            "connectivity": false
        },
        {
            "lon": -36.7155,
            "lat": -8.3348,
            "school_name": "ESCOLA ESTADUAL SAO JOSE",
            "country_name": "Brazil",
            "connectivity": true
        },
        {
            "lon": -38.2215,
            "lat": -8.9686,
            "school_name": "ESCOLA AGROPECUARIA MUNICIPAL JOSE DE CARVALHO ALCANTARA",
            "country_name": "Brazil",
            "connectivity": true
        },
        {
            "lon": -39.2191,
            "lat": -13.4156,
            "school_name": "ESCOLA MUNICIPAL NILTON LIBERTADOR",
            "country_name": "Brazil",
            "connectivity": false
        },
        {
            "lon": -41.7478,
            "lat": -15.3179,
            "school_name": "EM PROFA CLEIDE ROCHA DE OLIVEIRA",
            "country_name": "Brazil",
            "connectivity": true
        },
        {
            "lon": -40.3723,
            "lat": -17.8272,
            "school_name": "EE PASTOR PAULO NOBRE NASCIMENTO",
            "country_name": "Brazil",
            "connectivity": true
        },
        {
            "lon": -48.9316,
            "lat": -20.0279,
            "school_name": "EM CEL ALONSO DE MORAIS",
            "country_name": "Brazil",
            "connectivity": true
        },
        {
            "lon": -49.7889,
            "lat": -19.2155,
            "school_name": "EM JOSE MARTINS ALAMEU",
            "country_name": "Brazil",
            "connectivity": true
        },
        {
            "lon": -51.2233,
            "lat": -23.2926,
            "school_name": "DEA ALVARENGA C E PROF EF M",
            "country_name": "Brazil",
            "connectivity": true
        },
        {
            "lon": -42.6844,
            "lat": -19.1767,
            "school_name": "EE PROFESSOR ANTONIO MARCIANO",
            "country_name": "Brazil",
            "connectivity": true
        },
        {
            "lon": -42.15,
            "lat": -19.7889,
            "school_name": "CEIM PATRIA LIVRE",
            "country_name": "Brazil",
            "connectivity": true
        },
        {
            "lon": -43.5418,
            "lat": -18.1211,
            "school_name": "CENTRO MUN DE EDUCACAO INFANTIL MENDANHA",
            "country_name": "Brazil",
            "connectivity": true
        },
        {
            "lon": -36.0582,
            "lat": -8.2888,
            "school_name": "ESCOLA MUNICIPAL DOM BERNARDINO MARCHIO",
            "country_name": "Brazil",
            "connectivity": true
        },
        {
            "lon": -47.6372,
            "lat": -21.9062,
            "school_name": "LUCIANO IVO TOGNETTI PROFESSOR",
            "country_name": "Brazil",
            "connectivity": true
        },
        {
            "lon": -37.0604,
            "lat": -10.8482,
            "school_name": "ESCOLA ESTADUAL PROF CECINHA MELO COSTA",
            "country_name": "Brazil",
            "connectivity": true
        },
        {
            "lon": -48.1533,
            "lat": -22.5703,
            "school_name": "ZINA SAVIOLO CURY DONA EMEB",
            "country_name": "Brazil",
            "connectivity": true
        },
        {
            "lon": -47.2194,
            "lat": -22.8904,
            "school_name": "JONATAS DAVI VISEL DOS SANTOS",
            "country_name": "Brazil",
            "connectivity": false
        },
        {
            "lon": -41.4927,
            "lat": -12.3363,
            "school_name": "ESCOLA MUNICIPAL JANDIRA PINHEIRO",
            "country_name": "Brazil",
            "connectivity": true
        },
        {
            "lon": -51.4006,
            "lat": -20.915,
            "school_name": "PENITENCIARIA DE ANDRADINA",
            "country_name": "Brazil",
            "connectivity": false
        },
        {
            "lon": -49.0902,
            "lat": -26.5055,
            "school_name": "CMEI CARLO ANDREI EMMENDOERFER",
            "country_name": "Brazil",
            "connectivity": true
        },
        {
            "lon": -46.7694,
            "lat": -1.0476,
            "school_name": "EEEFM PADRE LUIZ GONZAGA",
            "country_name": "Brazil",
            "connectivity": true
        },
        {
            "lon": -53.041,
            "lat": -22.7374,
            "school_name": "JOSE HENRIQUE PALMA C M E I",
            "country_name": "Brazil",
            "connectivity": true
        },
        {
            "lon": -52.5292,
            "lat": -26.9656,
            "school_name": "EEB PROF NEUSA NELI MASSOLINI",
            "country_name": "Brazil",
            "connectivity": true
        },
        {
            "lon": -49.2039,
            "lat": -26.7213,
            "school_name": "EEBM PROF VIDAL FERREIRA",
            "country_name": "Brazil",
            "connectivity": true
        },
        {
            "lon": -48.8302,
            "lat": -26.9042,
            "school_name": "UD DE ILHOTA",
            "country_name": "Brazil",
            "connectivity": true
        },
        {
            "lon": -53.0752,
            "lat": -26.405,
            "school_name": "CENTRO EDUCACIONAL MUNICIPAL MARIA NELLY TRAPP CATUSSO",
            "country_name": "Brazil",
            "connectivity": true
        },
        {
            "lon": -49.1881,
            "lat": -28.7935,
            "school_name": "PE PEQUENA SEREIA",
            "country_name": "Brazil",
            "connectivity": false
        },
        {
            "lon": -47.9905,
            "lat": -14.849,
            "school_name": "ESCOLA MUNICIPAL MULTIGRADUADA FAZENDA NATUREZA",
            "country_name": "Brazil",
            "connectivity": false
        },
        {
            "lon": -43.4779,
            "lat": -22.8641,
            "school_name": "0817127 ESCOLA MUNICIPAL AYRTON SENNA DA SILVA",
            "country_name": "Brazil",
            "connectivity": true
        },
        {
            "lon": -43.4371,
            "lat": -22.7972,
            "school_name": "E M HELIO MENDES DO AMARAL",
            "country_name": "Brazil",
            "connectivity": true
        },
        {
            "lon": -43.6863,
            "lat": -20.5207,
            "school_name": "CRECHE MUNICIPAL MARIA FIRMINA DA SILVA",
            "country_name": "Brazil",
            "connectivity": true
        },
        {
            "lon": -43.1967,
            "lat": -22.9214,
            "school_name": "0103001 ESCOLA MUNICIPAL ESTADOS UNIDOS",
            "country_name": "Brazil",
            "connectivity": true
        },
        {
            "lon": -38.5581,
            "lat": -3.8344,
            "school_name": "EEEP PROFESSOR ONELIO PORTO",
            "country_name": "Brazil",
            "connectivity": true
        }
    ],
    "num_countries": 10,
    "countries": [
        "Brazil",
        "Colombia",
        "Honduras",
        "Kazakhstan",
        "Namibia",
        "Palestine",
        "Philippines",
        "Rwanda",
        "Sierra Leone",
        "Zimbabwe"
    ],
    "schools_no_data": [
        {
            "lon": 23.4119457,
            "lat": -19.998611,
            "school_name": "Bonatla (RPC)",
            "country_name": "Botswana",
            "connectivity": false
        },
        {
            "lon": 28.272,
            "lat": -15.37949,
            "school_name": "MATERO BOYS SECO",
            "country_name": "Zambia",
            "connectivity": false
        },
        {
            "lon": -56.72464378,
            "lat": -36.35806351,
            "school_name": "ESCUELA PRIMARIA N\u00ba701 REMEDIOS DE ESCALADA",
            "country_name": "Argentina",
            "connectivity": false
        },
        {
            "lon": -10.017591,
            "lat": 6.029478,
            "school_name": "St. John River",
            "country_name": "Liberia",
            "connectivity": false
        },
        {
            "lon": -8.133086,
            "lat": 6.065581,
            "school_name": "Cyrus Cooper Elem",
            "country_name": "Liberia",
            "connectivity": false
        },
        {
            "lon": -9.592357,
            "lat": 8.328828,
            "school_name": "Jartumah Town Public",
            "country_name": "Liberia",
            "connectivity": false
        },
        {
            "lon": -10.34613,
            "lat": 6.528028,
            "school_name": "Jordan Elementary Community School System",
            "country_name": "Liberia",
            "connectivity": false
        },
        {
            "lon": -10.354436,
            "lat": 6.557274,
            "school_name": "Sackie Gbomah Public School",
            "country_name": "Liberia",
            "connectivity": false
        },
        {
            "lon": -9.119339,
            "lat": 5.979048,
            "school_name": "Yolo Public",
            "country_name": "Liberia",
            "connectivity": false
        },
        {
            "lon": 32.9747321833333,
            "lat": 14.2343215833333,
            "school_name": "Name unknown",
            "country_name": "Sudan",
            "connectivity": false
        },
        {
            "lon": 32.74833068,
            "lat": 13.18596465,
            "school_name": "Name unknown",
            "country_name": "Sudan",
            "connectivity": false
        },
        {
            "lon": 34.07379073,
            "lat": 11.79741988,
            "school_name": "Name unknown",
            "country_name": "Sudan",
            "connectivity": false
        },
        {
            "lon": 26.14875213,
            "lat": 11.49653115,
            "school_name": "Name unknown",
            "country_name": "Sudan",
            "connectivity": false
        },
        {
            "lon": -0.2616623,
            "lat": 5.5483513,
            "school_name": "Name unknown",
            "country_name": "Ghana",
            "connectivity": false
        },
        {
            "lon": -0.0137876,
            "lat": 8.4632385,
            "school_name": "Name unknown",
            "country_name": "Ghana",
            "connectivity": false
        },
        {
            "lon": -65.77276,
            "lat": -17.591322,
            "school_name": "KOLCA",
            "country_name": "Bolivia (Plurinational State of)",
            "connectivity": false
        },
        {
            "lon": -1.7219123,
            "lat": 7.549697,
            "school_name": "Name unknown",
            "country_name": "Ghana",
            "connectivity": false
        },
        {
            "lon": 32.85375,
            "lat": -9.28131,
            "school_name": "KATENJELE",
            "country_name": "United Republic of Tanzania",
            "connectivity": false
        },
        {
            "lon": 35.59712,
            "lat": -7.84525,
            "school_name": "LYALAMO",
            "country_name": "United Republic of Tanzania",
            "connectivity": false
        },
        {
            "lon": 35.73389,
            "lat": -10.82929,
            "school_name": "KIKUNJA",
            "country_name": "United Republic of Tanzania",
            "connectivity": false
        },
        {
            "lon": 33.72115,
            "lat": -9.39048,
            "school_name": "IJIGHA",
            "country_name": "United Republic of Tanzania",
            "connectivity": false
        },
        {
            "lon": 0.2882221,
            "lat": 7.9809873,
            "school_name": "Name unknown",
            "country_name": "Ghana",
            "connectivity": false
        },
        {
            "lon": 35.27528,
            "lat": -9.28278,
            "school_name": "IPANGA",
            "country_name": "United Republic of Tanzania",
            "connectivity": false
        },
        {
            "lon": 31.61892,
            "lat": -1.74929,
            "school_name": "RUBYA A",
            "country_name": "United Republic of Tanzania",
            "connectivity": false
        },
        {
            "lon": 29.7483,
            "lat": -4.9033,
            "school_name": "BONDO",
            "country_name": "United Republic of Tanzania",
            "connectivity": false
        },
        {
            "lon": 37.58646,
            "lat": -3.70738,
            "school_name": "PROF.MAGHEMBE",
            "country_name": "United Republic of Tanzania",
            "connectivity": false
        },
        {
            "lon": 33.18656,
            "lat": -4.20952,
            "school_name": "MAENDELEO",
            "country_name": "United Republic of Tanzania",
            "connectivity": false
        },
        {
            "lon": 33.01498,
            "lat": -8.96582,
            "school_name": "MAKUA",
            "country_name": "United Republic of Tanzania",
            "connectivity": false
        },
        {
            "lon": 33.37272,
            "lat": -1.86528,
            "school_name": "BWASI B",
            "country_name": "United Republic of Tanzania",
            "connectivity": false
        },
        {
            "lon": 31.70778,
            "lat": -8.03591,
            "school_name": "ULINJI",
            "country_name": "United Republic of Tanzania",
            "connectivity": false
        },
        {
            "lon": -1.3350077,
            "lat": 6.4283287,
            "school_name": "Name unknown",
            "country_name": "Ghana",
            "connectivity": false
        },
        {
            "lon": 36.8779585,
            "lat": -1.2577888,
            "school_name": "Kariobangi Adventist Educational Centre",
            "country_name": "Kenya",
            "connectivity": false
        },
        {
            "lon": 1.26004745,
            "lat": 6.16811713,
            "school_name": "JEE EVANGELIQUE DE BE-KPOTA",
            "country_name": "Togo",
            "connectivity": false
        },
        {
            "lon": 0.170355,
            "lat": 10.97229167,
            "school_name": "JEP NANOUM",
            "country_name": "Togo",
            "connectivity": false
        },
        {
            "lon": 1.211835,
            "lat": 6.267038333,
            "school_name": "EPP COTOCOLI-ZONGO G/B",
            "country_name": "Togo",
            "connectivity": false
        },
        {
            "lon": 1.252202,
            "lat": 6.153961,
            "school_name": "EPL LIAHONA",
            "country_name": "Togo",
            "connectivity": false
        },
        {
            "lon": 1.587429,
            "lat": 6.603047,
            "school_name": "EPP AHLEMEGNI",
            "country_name": "Togo",
            "connectivity": false
        },
        {
            "lon": 1.170115,
            "lat": 6.967431667,
            "school_name": "EPE BAPTISTE LA PROVIDENCE",
            "country_name": "Togo",
            "connectivity": false
        },
        {
            "lon": 1.284869,
            "lat": 9.721725,
            "school_name": "EPC TCHIKAWA",
            "country_name": "Togo",
            "connectivity": false
        },
        {
            "lon": 0.310613,
            "lat": 10.981133,
            "school_name": "EPP TIDONTE NASSONGUE",
            "country_name": "Togo",
            "connectivity": false
        },
        {
            "lon": 0.359259,
            "lat": 10.713858,
            "school_name": "EPP BATBOGOU",
            "country_name": "Togo",
            "connectivity": false
        },
        {
            "lon": 0.850543,
            "lat": 10.813367,
            "school_name": "EPP DOUANLI",
            "country_name": "Togo",
            "connectivity": false
        },
        {
            "lon": 1.215238333,
            "lat": 6.147756667,
            "school_name": "CPL LE GRAND ENSEIGNANT",
            "country_name": "Togo",
            "connectivity": false
        },
        {
            "lon": 1.217063333,
            "lat": 6.142691667,
            "school_name": "CPL LES EMERGENTS",
            "country_name": "Togo",
            "connectivity": false
        },
        {
            "lon": 0.665258,
            "lat": 8.750144,
            "school_name": "CEGIL SOUROUKOU",
            "country_name": "Togo",
            "connectivity": false
        },
        {
            "lon": 1.093482,
            "lat": 9.807283,
            "school_name": "LYCEE BAGA",
            "country_name": "Togo",
            "connectivity": false
        },
        {
            "lon": 0.9044,
            "lat": 6.74716,
            "school_name": "CEG WONOUGBA",
            "country_name": "Togo",
            "connectivity": false
        },
        {
            "lon": 38.59317,
            "lat": -4.6379,
            "school_name": "BOSHA",
            "country_name": "United Republic of Tanzania",
            "connectivity": false
        },
        {
            "lon": 31.89542,
            "lat": -3.46864,
            "school_name": "JITEGEMEE",
            "country_name": "United Republic of Tanzania",
            "connectivity": false
        },
        {
            "lon": 0.449425,
            "lat": 10.290229,
            "school_name": "CEG SADORI",
            "country_name": "Togo",
            "connectivity": false
        },
        {
            "lon": 33.73823547,
            "lat": -12.62634075,
            "school_name": "Visoyo",
            "country_name": "Malawi",
            "connectivity": false
        },
        {
            "lon": 33.52581228,
            "lat": -13.79974929,
            "school_name": "Kambira Prim School",
            "country_name": "Malawi",
            "connectivity": false
        },
        {
            "lon": 25.3802,
            "lat": 1.7936,
            "school_name": "INST ZAMBEKE",
            "country_name": "Democratic Republic of the Congo",
            "connectivity": false
        },
        {
            "lon": 21.74082514,
            "lat": -4.372577498,
            "school_name": "EP LUTULU",
            "country_name": "Democratic Republic of the Congo",
            "connectivity": false
        },
        {
            "lon": 21.5593948,
            "lat": -4.855401425,
            "school_name": "EP MUSHENGE",
            "country_name": "Democratic Republic of the Congo",
            "connectivity": false
        },
        {
            "lon": 20.24562594,
            "lat": 0.95862235,
            "school_name": "INST EKOMBE",
            "country_name": "Democratic Republic of the Congo",
            "connectivity": false
        },
        {
            "lon": 7.336966,
            "lat": 5.8286,
            "school_name": "Name unknown",
            "country_name": "Nigeria",
            "connectivity": false
        },
        {
            "lon": 22.39427385,
            "lat": -7.202232784,
            "school_name": "EP MASANGA",
            "country_name": "Democratic Republic of the Congo",
            "connectivity": false
        },
        {
            "lon": 18.75706325,
            "lat": 2.892842906,
            "school_name": "EP MOKONZINGO",
            "country_name": "Democratic Republic of the Congo",
            "connectivity": false
        },
        {
            "lon": -68.885709,
            "lat": -15.911834,
            "school_name": "MOROCOLLO",
            "country_name": "Bolivia (Plurinational State of)",
            "connectivity": false
        },
        {
            "lon": -65.23682,
            "lat": -18.19022,
            "school_name": "SALANCACHI",
            "country_name": "Bolivia (Plurinational State of)",
            "connectivity": false
        },
        {
            "lon": -9.0249,
            "lat": 15.5809,
            "school_name": "Sava 3",
            "country_name": "Mauritania",
            "connectivity": false
        },
        {
            "lon": -15.9833,
            "lat": 18.01843,
            "school_name": "MEKKA2",
            "country_name": "Mauritania",
            "connectivity": false
        },
        {
            "lon": 33.97613,
            "lat": 2.08676,
            "school_name": "OKUDA PRIMARY SCHOOL",
            "country_name": "Uganda",
            "connectivity": false
        },
        {
            "lon": 31.44033,
            "lat": -0.46709,
            "school_name": "KING FAIZAL NP/SCH",
            "country_name": "Uganda",
            "connectivity": false
        },
        {
            "lon": 34.12748,
            "lat": 0.656,
            "school_name": "Osia P.S.",
            "country_name": "Uganda",
            "connectivity": false
        },
        {
            "lon": 34.16918,
            "lat": 1.09359,
            "school_name": "Buyonjo P.S",
            "country_name": "Uganda",
            "connectivity": false
        },
        {
            "lon": 31.40877,
            "lat": 1.7302,
            "school_name": "Nyeramya P.S.",
            "country_name": "Uganda",
            "connectivity": false
        },
        {
            "lon": -58.54552674,
            "lat": -34.44655901,
            "school_name": "APRENDIZAJE CRISTIANO INTEGRAL BUENOS AIRES",
            "country_name": "Argentina",
            "connectivity": false
        },
        {
            "lon": 29.22047,
            "lat": -25.88058,
            "school_name": "Kideos Nursery School",
            "country_name": "South Africa",
            "connectivity": false
        },
        {
            "lon": 30.3579,
            "lat": -26.46227,
            "school_name": "Fakizandla Primary School",
            "country_name": "South Africa",
            "connectivity": false
        },
        {
            "lon": 31.10362,
            "lat": -25.22763,
            "school_name": "Mganduzweni Primary School",
            "country_name": "South Africa",
            "connectivity": false
        },
        {
            "lon": 27.07414,
            "lat": -24.94911,
            "school_name": "Melotong Primary School",
            "country_name": "South Africa",
            "connectivity": false
        },
        {
            "lon": 18.57936,
            "lat": -33.99143,
            "school_name": "Mkhanyiseli Primary School",
            "country_name": "South Africa",
            "connectivity": false
        },
        {
            "lon": 18.51533,
            "lat": -33.97259,
            "school_name": "Heatherdale Primary School",
            "country_name": "South Africa",
            "connectivity": false
        },
        {
            "lon": 29.93997,
            "lat": -30.75175,
            "school_name": "Enyandeni Primary School",
            "country_name": "South Africa",
            "connectivity": false
        },
        {
            "lon": 30.41539,
            "lat": -30.63136,
            "school_name": "Beaulah Primary School",
            "country_name": "South Africa",
            "connectivity": false
        },
        {
            "lon": 30.47755,
            "lat": -29.97688,
            "school_name": "Arden Farm Primary School",
            "country_name": "South Africa",
            "connectivity": false
        },
        {
            "lon": 30.68915,
            "lat": -22.51096,
            "school_name": "Dambale Primary School",
            "country_name": "South Africa",
            "connectivity": false
        },
        {
            "lon": 27.40585,
            "lat": -24.59815,
            "school_name": "Kunste Grot Art & Theatre School",
            "country_name": "South Africa",
            "connectivity": false
        },
        {
            "lon": 28.31032,
            "lat": -25.74005,
            "school_name": "Rockland Primary School",
            "country_name": "South Africa",
            "connectivity": false
        },
        {
            "lon": 31.40189,
            "lat": -28.82202,
            "school_name": "Muntuza Full Service School",
            "country_name": "South Africa",
            "connectivity": false
        },
        {
            "lon": 30.92102,
            "lat": -29.92087,
            "school_name": "Oceanview Primary School",
            "country_name": "South Africa",
            "connectivity": false
        },
        {
            "lon": 31.12373,
            "lat": -27.35156,
            "school_name": "Umhlahlandlela Junior Secondary School",
            "country_name": "South Africa",
            "connectivity": false
        },
        {
            "lon": 28.15621,
            "lat": -25.75512,
            "school_name": "Elmar College - Mitchell Street",
            "country_name": "South Africa",
            "connectivity": false
        },
        {
            "lon": 28.02718,
            "lat": -26.2035,
            "school_name": "Hamidia Madressah",
            "country_name": "South Africa",
            "connectivity": false
        },
        {
            "lon": 28.03686,
            "lat": -26.2024,
            "school_name": "Hambani College",
            "country_name": "South Africa",
            "connectivity": false
        },
        {
            "lon": 28.15297,
            "lat": -25.70694,
            "school_name": "Huis Ebenhaeser Kleuterskool",
            "country_name": "South Africa",
            "connectivity": false
        },
        {
            "lon": 28.15167,
            "lat": -25.87692,
            "school_name": "Wonderland Pre Primary School",
            "country_name": "South Africa",
            "connectivity": false
        },
        {
            "lon": 27.79391,
            "lat": -26.16012,
            "school_name": "Kagiso High School",
            "country_name": "South Africa",
            "connectivity": false
        },
        {
            "lon": 27.64029,
            "lat": -27.61896,
            "school_name": "Sernick Primary Farm School",
            "country_name": "South Africa",
            "connectivity": false
        },
        {
            "lon": 25.4401,
            "lat": -33.39595,
            "school_name": "Kirkwood High School",
            "country_name": "South Africa",
            "connectivity": false
        },
        {
            "lon": 28.41867,
            "lat": -30.92467,
            "school_name": "Tlokoeng Junior Primary School",
            "country_name": "South Africa",
            "connectivity": false
        },
        {
            "lon": 26.26151,
            "lat": -32.61002,
            "school_name": "Picardy Primary School",
            "country_name": "South Africa",
            "connectivity": false
        },
        {
            "lon": -60.25598729,
            "lat": -33.29641041,
            "school_name": "CENTRO DE ADULTOS N\u00ba708/14",
            "country_name": "Argentina",
            "connectivity": false
        },
        {
            "lon": -58.74145018,
            "lat": -38.55393122,
            "school_name": "ESCUELA NUESTRA SEORA DEL ROSARIO",
            "country_name": "Argentina",
            "connectivity": false
        },
        {
            "lon": -60.86174,
            "lat": -34.39908,
            "school_name": "ESCUELA PRIMARIA N\u00ba27 PEDRO ITHURRIAGA",
            "country_name": "Argentina",
            "connectivity": false
        },
        {
            "lon": -60.06849992,
            "lat": -33.50019387,
            "school_name": "ESCUELA PRIMARIA N\u00ba6 GENERAL MANUEL BELGRANO",
            "country_name": "Argentina",
            "connectivity": false
        },
        {
            "lon": -59.96668311,
            "lat": -24.18956744,
            "school_name": "EPEP N\u00ba148",
            "country_name": "Argentina",
            "connectivity": false
        },
        {
            "lon": -58.81879818,
            "lat": -34.4515222,
            "school_name": "JARDIN DE INFANTES N\u00ba915",
            "country_name": "Argentina",
            "connectivity": false
        },
        {
            "lon": -58.92595093,
            "lat": -34.62573287,
            "school_name": "ESC. SECUNDARIA BASICA N\u00ba12",
            "country_name": "Argentina",
            "connectivity": false
        },
        {
            "lon": -58.5783302,
            "lat": -34.51263524,
            "school_name": "ESC. SECUNDARIA BASICA N\u00ba38",
            "country_name": "Argentina",
            "connectivity": false
        },
        {
            "lon": -63.32083,
            "lat": -28.04286,
            "school_name": "ESCUELA N\u00ba995 DR.JUAN A.BADESSICH",
            "country_name": "Argentina",
            "connectivity": false
        },
        {
            "lon": -58.55824487,
            "lat": -34.52264783,
            "school_name": "COLEGIO SAN CAYETANO",
            "country_name": "Argentina",
            "connectivity": false
        },
        {
            "lon": -59.0402848,
            "lat": -34.6243835,
            "school_name": "EXTENSION DE ESB N\u00ba7",
            "country_name": "Argentina",
            "connectivity": false
        },
        {
            "lon": -58.56614621,
            "lat": -34.60109782,
            "school_name": "ESC. SECUNDARIA BASICA N\u00ba27",
            "country_name": "Argentina",
            "connectivity": false
        },
        {
            "lon": -57.8058333,
            "lat": -38.0304943,
            "school_name": "ESC. SECUNDARIA BASICA N\u00ba57",
            "country_name": "Argentina",
            "connectivity": false
        },
        {
            "lon": -65.90499,
            "lat": -28.59853,
            "school_name": "ESCUELA N\u00b0992",
            "country_name": "Argentina",
            "connectivity": false
        },
        {
            "lon": -66.93603,
            "lat": -27.22846,
            "school_name": "ESCUELA N\u00b0 474",
            "country_name": "Argentina",
            "connectivity": false
        },
        {
            "lon": -59.33684088,
            "lat": -26.54219005,
            "school_name": "E.E.T. N\u00ba 26-COL.GRAL.SAN MARTIN",
            "country_name": "Argentina",
            "connectivity": false
        },
        {
            "lon": -60.4760318,
            "lat": -27.21289512,
            "school_name": "E.E.P. N\u00ba 202-DON ALEJANDRO MAJDA",
            "country_name": "Argentina",
            "connectivity": false
        },
        {
            "lon": -64.20967002,
            "lat": -31.40367497,
            "school_name": "COLEGIO PARROQUIAL SAN JERONIMO",
            "country_name": "Argentina",
            "connectivity": false
        },
        {
            "lon": -57.99969203,
            "lat": -30.78343249,
            "school_name": "PASO DE LOS ANDES 54",
            "country_name": "Argentina",
            "connectivity": false
        },
        {
            "lon": -60.61954837,
            "lat": -32.07721497,
            "school_name": "ALVAREZ DE ARENALES 3",
            "country_name": "Argentina",
            "connectivity": false
        },
        {
            "lon": -58.27831336,
            "lat": -26.25434092,
            "school_name": "NEP Y FP N\u00b0 4 - SALA DE PRIMEROS B\u00ba POMPEYA AUXILIOS",
            "country_name": "Argentina",
            "connectivity": false
        },
        {
            "lon": -58.17023447,
            "lat": -26.17465637,
            "school_name": "JIN N\u00ba 4 - EPEP N\u00ba 18",
            "country_name": "Argentina",
            "connectivity": false
        },
        {
            "lon": -55.15756821,
            "lat": -27.7100533,
            "school_name": "ESC. N\u00b0 193 ANDRESITO GUACURARI",
            "country_name": "Argentina",
            "connectivity": false
        },
        {
            "lon": -68.09212964,
            "lat": -38.94708104,
            "school_name": "ASOC PROTALLERES DE FORM LABORAL PRODUC Y SERV INTEGRACION",
            "country_name": "Argentina",
            "connectivity": false
        },
        {
            "lon": -67.78939958,
            "lat": -37.88692602,
            "school_name": "CENTRO DE EDUCACION MEDIA NRO.21",
            "country_name": "Argentina",
            "connectivity": false
        },
        {
            "lon": -67.81900082,
            "lat": -38.97349628,
            "school_name": "ESCUELA PRIMARIA NRO.299 FUNDACION PHOLLMANN TRABANDT",
            "country_name": "Argentina",
            "connectivity": false
        },
        {
            "lon": -65.147,
            "lat": -24.59503,
            "school_name": "BARTOLOME MITRE EX N\u00b0124",
            "country_name": "Argentina",
            "connectivity": false
        },
        {
            "lon": -66.1636501,
            "lat": -25.11892555,
            "school_name": "DOCTOR VICTORINO DE LA PLAZA EX N\u00b0119",
            "country_name": "Argentina",
            "connectivity": false
        },
        {
            "lon": -65.40584787,
            "lat": -24.79646534,
            "school_name": "INSTITUTO SUPERIOR SAN CAYETANO",
            "country_name": "Argentina",
            "connectivity": false
        },
        {
            "lon": -62.94578,
            "lat": -22.01122,
            "school_name": "PROFESOR SALVADOR MAZZA EX N\u00b0 288",
            "country_name": "Argentina",
            "connectivity": false
        },
        {
            "lon": -66.33275666,
            "lat": -33.30127524,
            "school_name": "ISLAS MALVINAS",
            "country_name": "Argentina",
            "connectivity": false
        },
        {
            "lon": -61.43002237,
            "lat": -33.40323336,
            "school_name": "C.E.R. NRO 479 BRUNILDA G. DE LUISELLI",
            "country_name": "Argentina",
            "connectivity": false
        },
        {
            "lon": -60.6535097,
            "lat": -32.9178736,
            "school_name": "ESCUELA NRO 1139 MARCOS SASTRE",
            "country_name": "Argentina",
            "connectivity": false
        },
        {
            "lon": 6.42601,
            "lat": 5.697815,
            "school_name": "Name unknown",
            "country_name": "Nigeria",
            "connectivity": false
        },
        {
            "lon": 7.364708,
            "lat": 5.101231,
            "school_name": "Name unknown",
            "country_name": "Nigeria",
            "connectivity": false
        },
        {
            "lon": 7.422672,
            "lat": 5.292757,
            "school_name": "Name unknown",
            "country_name": "Nigeria",
            "connectivity": false
        },
        {
            "lon": 7.482966667,
            "lat": 5.534608333,
            "school_name": "Name unknown",
            "country_name": "Nigeria",
            "connectivity": false
        },
        {
            "lon": 7.455304909,
            "lat": 5.479814066,
            "school_name": "Name unknown",
            "country_name": "Nigeria",
            "connectivity": false
        },
        {
            "lon": 7.81751,
            "lat": 6.42672,
            "school_name": "Name unknown",
            "country_name": "Nigeria",
            "connectivity": false
        },
        {
            "lon": 5.606137,
            "lat": 6.337946,
            "school_name": "Name unknown",
            "country_name": "Nigeria",
            "connectivity": false
        },
        {
            "lon": 6.132905,
            "lat": 7.041796,
            "school_name": "Name unknown",
            "country_name": "Nigeria",
            "connectivity": false
        },
        {
            "lon": 14.05220122,
            "lat": 12.7408838,
            "school_name": "Name unknown",
            "country_name": "Nigeria",
            "connectivity": false
        },
        {
            "lon": 5.003538333,
            "lat": 7.613546667,
            "school_name": "Name unknown",
            "country_name": "Nigeria",
            "connectivity": false
        },
        {
            "lon": 5.072385365,
            "lat": 7.813543668,
            "school_name": "Name unknown",
            "country_name": "Nigeria",
            "connectivity": false
        },
        {
            "lon": 5.5902,
            "lat": 7.780615,
            "school_name": "Name unknown",
            "country_name": "Nigeria",
            "connectivity": false
        },
        {
            "lon": 5.237471667,
            "lat": 7.953025,
            "school_name": "Name unknown",
            "country_name": "Nigeria",
            "connectivity": false
        },
        {
            "lon": 5.14434,
            "lat": 8.041315,
            "school_name": "Name unknown",
            "country_name": "Nigeria",
            "connectivity": false
        },
        {
            "lon": 5.330915,
            "lat": 7.894641667,
            "school_name": "Name unknown",
            "country_name": "Nigeria",
            "connectivity": false
        },
        {
            "lon": 7.614169,
            "lat": 6.47405,
            "school_name": "Name unknown",
            "country_name": "Nigeria",
            "connectivity": false
        },
        {
            "lon": 7.497922,
            "lat": 6.459107,
            "school_name": "Name unknown",
            "country_name": "Nigeria",
            "connectivity": false
        },
        {
            "lon": 7.758015,
            "lat": 6.661351667,
            "school_name": "Name unknown",
            "country_name": "Nigeria",
            "connectivity": false
        },
        {
            "lon": 7.572785,
            "lat": 9.023745,
            "school_name": "Name unknown",
            "country_name": "Nigeria",
            "connectivity": false
        },
        {
            "lon": 11.30788,
            "lat": 10.05632,
            "school_name": "Name unknown",
            "country_name": "Nigeria",
            "connectivity": false
        },
        {
            "lon": -77.1206,
            "lat": -5.8779,
            "school_name": "00021 RICARDO PALMA",
            "country_name": "Peru",
            "connectivity": false
        },
        {
            "lon": -77.0641,
            "lat": -7.18295,
            "school_name": "420",
            "country_name": "Peru",
            "connectivity": false
        },
        {
            "lon": -76.2716,
            "lat": -7.29597,
            "school_name": "725",
            "country_name": "Peru",
            "connectivity": false
        },
        {
            "lon": -77.0572,
            "lat": -12.0683,
            "school_name": "1074 REPUBLICA DE IRLANDA",
            "country_name": "Peru",
            "connectivity": false
        },
        {
            "lon": -78.8331,
            "lat": -6.66476,
            "school_name": "11102",
            "country_name": "Peru",
            "connectivity": false
        },
        {
            "lon": -79.8342,
            "lat": -6.46812,
            "school_name": "11218 SELWIN HILDEBRANDO BOCANEGRA MENDOZA",
            "country_name": "Peru",
            "connectivity": false
        },
        {
            "lon": -80.8145,
            "lat": -5.56349,
            "school_name": "1231",
            "country_name": "Peru",
            "connectivity": false
        },
        {
            "lon": -79.7176,
            "lat": -5.08708,
            "school_name": "1275",
            "country_name": "Peru",
            "connectivity": false
        },
        {
            "lon": -70.1407,
            "lat": -15.4717,
            "school_name": "1349 AEROPUERTO",
            "country_name": "Peru",
            "connectivity": false
        },
        {
            "lon": -78.8001,
            "lat": -6.94056,
            "school_name": "1356",
            "country_name": "Peru",
            "connectivity": false
        },
        {
            "lon": -79.7548,
            "lat": -5.02828,
            "school_name": "15441",
            "country_name": "Peru",
            "connectivity": false
        },
        {
            "lon": -70.34,
            "lat": -13.2501,
            "school_name": "1600",
            "country_name": "Peru",
            "connectivity": false
        },
        {
            "lon": -78.8969,
            "lat": -5.6768,
            "school_name": "16025",
            "country_name": "Peru",
            "connectivity": false
        },
        {
            "lon": -78.8326,
            "lat": -8.43131,
            "school_name": "1753",
            "country_name": "Peru",
            "connectivity": false
        },
        {
            "lon": -77.8723,
            "lat": -6.23219,
            "school_name": "18002 MARIA AUXILIADORA",
            "country_name": "Peru",
            "connectivity": false
        },
        {
            "lon": -73.8628,
            "lat": -14.0776,
            "school_name": "190",
            "country_name": "Peru",
            "connectivity": false
        },
        {
            "lon": -77.0318,
            "lat": -12.0164,
            "school_name": "2002 MARISCAL RAMON CASTILLA",
            "country_name": "Peru",
            "connectivity": false
        },
        {
            "lon": -77.3605,
            "lat": -11.2518,
            "school_name": "21001 LUIS PARDO",
            "country_name": "Peru",
            "connectivity": false
        },
        {
            "lon": -75.2228,
            "lat": -14.0025,
            "school_name": "22219",
            "country_name": "Peru",
            "connectivity": false
        },
        {
            "lon": -75.7289,
            "lat": -13.9706,
            "school_name": "30",
            "country_name": "Peru",
            "connectivity": false
        },
        {
            "lon": -77.032,
            "lat": -12.0164,
            "school_name": "3017 INMACULADA CONCEPCION",
            "country_name": "Peru",
            "connectivity": false
        },
        {
            "lon": -76.5523,
            "lat": -10.01,
            "school_name": "32086",
            "country_name": "Peru",
            "connectivity": false
        },
        {
            "lon": -76.261,
            "lat": -10.2318,
            "school_name": "32155",
            "country_name": "Peru",
            "connectivity": false
        },
        {
            "lon": -75.8191,
            "lat": -9.38,
            "school_name": "33003",
            "country_name": "Peru",
            "connectivity": false
        },
        {
            "lon": -74.4305,
            "lat": -13.5321,
            "school_name": "38862",
            "country_name": "Peru",
            "connectivity": false
        },
        {
            "lon": -72.6014,
            "lat": -15.653,
            "school_name": "40645",
            "country_name": "Peru",
            "connectivity": false
        },
        {
            "lon": -69.9581,
            "lat": -17.6221,
            "school_name": "42228",
            "country_name": "Peru",
            "connectivity": false
        },
        {
            "lon": -72.2398,
            "lat": -12.543,
            "school_name": "50203",
            "country_name": "Peru",
            "connectivity": false
        },
        {
            "lon": -75.9552,
            "lat": -11.5658,
            "school_name": "518",
            "country_name": "Peru",
            "connectivity": false
        },
        {
            "lon": -73.6559,
            "lat": -13.3939,
            "school_name": "54246",
            "country_name": "Peru",
            "connectivity": false
        },
        {
            "lon": -72.9552,
            "lat": -13.6807,
            "school_name": "54519",
            "country_name": "Peru",
            "connectivity": false
        },
        {
            "lon": -78.4863,
            "lat": -6.65857,
            "school_name": "578",
            "country_name": "Peru",
            "connectivity": false
        },
        {
            "lon": -70.6137,
            "lat": -13.6389,
            "school_name": "598 JESUS MIO",
            "country_name": "Peru",
            "connectivity": false
        },
        {
            "lon": 0.209658333,
            "lat": 10.853025,
            "school_name": "EPP CAMP GENDARMERIE G/B",
            "country_name": "Togo",
            "connectivity": false
        },
        {
            "lon": -74.2183,
            "lat": -6.20534,
            "school_name": "60738",
            "country_name": "Peru",
            "connectivity": false
        },
        {
            "lon": 3.51058,
            "lat": 6.68206,
            "school_name": "Name unknown",
            "country_name": "Nigeria",
            "connectivity": false
        },
        {
            "lon": -76.4338,
            "lat": -3.75708,
            "school_name": "62240",
            "country_name": "Peru",
            "connectivity": false
        },
        {
            "lon": -76.2067,
            "lat": -4.12833,
            "school_name": "62262",
            "country_name": "Peru",
            "connectivity": false
        },
        {
            "lon": -74.4656,
            "lat": -8.98679,
            "school_name": "65029-B",
            "country_name": "Peru",
            "connectivity": false
        },
        {
            "lon": -69.9979,
            "lat": -15.8841,
            "school_name": "70081",
            "country_name": "Peru",
            "connectivity": false
        },
        {
            "lon": -70.1159,
            "lat": -15.5558,
            "school_name": "70707",
            "country_name": "Peru",
            "connectivity": false
        },
        {
            "lon": -76.9691,
            "lat": -12.1773,
            "school_name": "7099 HECTOR PRETELL CARBONELL",
            "country_name": "Peru",
            "connectivity": false
        },
        {
            "lon": -72.8707,
            "lat": -14.413,
            "school_name": "748 CCOLLPA",
            "country_name": "Peru",
            "connectivity": false
        },
        {
            "lon": -77.7625,
            "lat": -7.7723,
            "school_name": "80169",
            "country_name": "Peru",
            "connectivity": false
        },
        {
            "lon": -77.5449,
            "lat": -8.006,
            "school_name": "80773",
            "country_name": "Peru",
            "connectivity": false
        },
        {
            "lon": -77.6876,
            "lat": -7.89498,
            "school_name": "80860",
            "country_name": "Peru",
            "connectivity": false
        },
        {
            "lon": -75.6892,
            "lat": -14.211,
            "school_name": "82",
            "country_name": "Peru",
            "connectivity": false
        },
        {
            "lon": -77.9659,
            "lat": -7.87478,
            "school_name": "82022",
            "country_name": "Peru",
            "connectivity": false
        },
        {
            "lon": -78.7789,
            "lat": -7.41177,
            "school_name": "82026",
            "country_name": "Peru",
            "connectivity": false
        },
        {
            "lon": -78.511,
            "lat": -7.9391,
            "school_name": "82083",
            "country_name": "Peru",
            "connectivity": false
        },
        {
            "lon": -77.9815,
            "lat": -8.23561,
            "school_name": "88206",
            "country_name": "Peru",
            "connectivity": false
        },
        {
            "lon": -76.005,
            "lat": -2.71409,
            "school_name": "985",
            "country_name": "Peru",
            "connectivity": false
        },
        {
            "lon": -76.7698,
            "lat": -11.976,
            "school_name": "AMERICAN SCHOOL",
            "country_name": "Peru",
            "connectivity": false
        },
        {
            "lon": -77.1158,
            "lat": -9.56285,
            "school_name": "AMOR Y ESPERANZA",
            "country_name": "Peru",
            "connectivity": false
        },
        {
            "lon": -79.4421,
            "lat": -5.65532,
            "school_name": "ARCANGEL GABRIEL",
            "country_name": "Peru",
            "connectivity": false
        },
        {
            "lon": -77.1296,
            "lat": -11.8214,
            "school_name": "MUNDO DE COLORES",
            "country_name": "Peru",
            "connectivity": false
        },
        {
            "lon": -74.2501,
            "lat": -12.9358,
            "school_name": "BUNGE",
            "country_name": "Peru",
            "connectivity": false
        },
        {
            "lon": -77.0982,
            "lat": -11.8356,
            "school_name": "CARL DAVID ANDERSON",
            "country_name": "Peru",
            "connectivity": false
        },
        {
            "lon": -78.4984,
            "lat": -6.80921,
            "school_name": "CARRUSEL DE NI\u00d1OS",
            "country_name": "Peru",
            "connectivity": false
        },
        {
            "lon": -76.8182,
            "lat": -12.1095,
            "school_name": "CEBA - NEW ALBERT EINSTEIN SCHOOL",
            "country_name": "Peru",
            "connectivity": false
        },
        {
            "lon": -77.0993,
            "lat": -12.043,
            "school_name": "CEBA - POLITECNICO NACIONAL DEL CALLAO",
            "country_name": "Peru",
            "connectivity": false
        },
        {
            "lon": -74.8729,
            "lat": -10.9263,
            "school_name": "CEBANFI",
            "country_name": "Peru",
            "connectivity": false
        },
        {
            "lon": -71.5079,
            "lat": -14.367,
            "school_name": "CHIARAJE",
            "country_name": "Peru",
            "connectivity": false
        },
        {
            "lon": -78.5074,
            "lat": -7.14668,
            "school_name": "CIENCIA Y TECNOLOGIA",
            "country_name": "Peru",
            "connectivity": false
        },
        {
            "lon": -76.859,
            "lat": -6.97292,
            "school_name": "CORAZONES TIERNOS",
            "country_name": "Peru",
            "connectivity": false
        },
        {
            "lon": -69.7718,
            "lat": -16.0556,
            "school_name": "CUCHO ESQUE\u00d1A",
            "country_name": "Peru",
            "connectivity": false
        },
        {
            "lon": -77.1313,
            "lat": -12.067,
            "school_name": "EL DIVINO HACEDOR",
            "country_name": "Peru",
            "connectivity": false
        },
        {
            "lon": -78.2788,
            "lat": -6.82341,
            "school_name": "EL PROGRESO",
            "country_name": "Peru",
            "connectivity": false
        },
        {
            "lon": -78.1539,
            "lat": -7.03512,
            "school_name": "IEGECOM SAN FRANCISCO",
            "country_name": "Peru",
            "connectivity": false
        },
        {
            "lon": -76.9595,
            "lat": -12.1917,
            "school_name": "INNOVA SCHOOLS",
            "country_name": "Peru",
            "connectivity": false
        },
        {
            "lon": -77.542,
            "lat": -10.1696,
            "school_name": "LAS PALMERITAS",
            "country_name": "Peru",
            "connectivity": false
        },
        {
            "lon": -77.0741,
            "lat": -11.8681,
            "school_name": "LOS ANGELITOS DE FATIMA",
            "country_name": "Peru",
            "connectivity": false
        },
        {
            "lon": -70.338,
            "lat": -14.77,
            "school_name": "LOS RETO\u00d1ITOS DE TURUPAMPA",
            "country_name": "Peru",
            "connectivity": false
        },
        {
            "lon": -71.3926,
            "lat": -13.5462,
            "school_name": "LOS RIT'S DEL ALTO ANDINO",
            "country_name": "Peru",
            "connectivity": false
        },
        {
            "lon": -77.1251,
            "lat": -11.875,
            "school_name": "MADRE TERESA DE CALCUTA",
            "country_name": "Peru",
            "connectivity": false
        },
        {
            "lon": -77.0099,
            "lat": -12.1296,
            "school_name": "MARIA DE LAS MERCEDES",
            "country_name": "Peru",
            "connectivity": false
        },
        {
            "lon": -77.0908,
            "lat": -11.9727,
            "school_name": "PADRE PIO DE PIETRELCINA",
            "country_name": "Peru",
            "connectivity": false
        },
        {
            "lon": -69.0014,
            "lat": -16.2422,
            "school_name": "PAHAMAYA CENTRAL",
            "country_name": "Peru",
            "connectivity": false
        },
        {
            "lon": -74.9356,
            "lat": -14.8285,
            "school_name": "PERUANO CHINO",
            "country_name": "Peru",
            "connectivity": false
        },
        {
            "lon": -79.1296,
            "lat": -6.23938,
            "school_name": "RICARDO PALMA SORIANO",
            "country_name": "Peru",
            "connectivity": false
        },
        {
            "lon": -80.628,
            "lat": -5.18532,
            "school_name": "ROSA CARRERA DE MARTOS",
            "country_name": "Peru",
            "connectivity": false
        },
        {
            "lon": -77.0078,
            "lat": -11.9995,
            "school_name": "SAN JUAN DE LA SALLE",
            "country_name": "Peru",
            "connectivity": false
        },
        {
            "lon": -74.5523,
            "lat": -11.1988,
            "school_name": "SAN PASCUAL",
            "country_name": "Peru",
            "connectivity": false
        },
        {
            "lon": -76.8994,
            "lat": -12.0245,
            "school_name": "SANTA INES",
            "country_name": "Peru",
            "connectivity": false
        },
        {
            "lon": -76.9955,
            "lat": -11.9813,
            "school_name": "SANTA TERESITA DE ALENZON",
            "country_name": "Peru",
            "connectivity": false
        },
        {
            "lon": -78.0396,
            "lat": -8.468,
            "school_name": "SANTO DOMINGO DE GUZMAN",
            "country_name": "Peru",
            "connectivity": false
        },
        {
            "lon": -74.88,
            "lat": -8.37846,
            "school_name": "SARITA COLONIA",
            "country_name": "Peru",
            "connectivity": false
        },
        {
            "lon": -78.5208,
            "lat": -7.15535,
            "school_name": "SERGIO BERNALES-CAJAMARCA",
            "country_name": "Peru",
            "connectivity": false
        },
        {
            "lon": -77.9064,
            "lat": -5.70844,
            "school_name": "TRIANGULO DE LA ESPERANZA",
            "country_name": "Peru",
            "connectivity": false
        },
        {
            "lon": 7.444915187,
            "lat": 10.47693173,
            "school_name": "Name unknown",
            "country_name": "Nigeria",
            "connectivity": false
        },
        {
            "lon": 7.54724682,
            "lat": 11.12719116,
            "school_name": "Name unknown",
            "country_name": "Nigeria",
            "connectivity": false
        },
        {
            "lon": 7.7379209,
            "lat": 9.847936641,
            "school_name": "Name unknown",
            "country_name": "Nigeria",
            "connectivity": false
        },
        {
            "lon": 7.957191467,
            "lat": 11.38843954,
            "school_name": "Name unknown",
            "country_name": "Nigeria",
            "connectivity": false
        },
        {
            "lon": 7.73650051,
            "lat": 11.10827229,
            "school_name": "Name unknown",
            "country_name": "Nigeria",
            "connectivity": false
        },
        {
            "lon": 8.545963,
            "lat": 11.95806,
            "school_name": "Name unknown",
            "country_name": "Nigeria",
            "connectivity": false
        },
        {
            "lon": 8.981305,
            "lat": 11.80801,
            "school_name": "Name unknown",
            "country_name": "Nigeria",
            "connectivity": false
        },
        {
            "lon": 8.07532,
            "lat": 12.32927,
            "school_name": "Name unknown",
            "country_name": "Nigeria",
            "connectivity": false
        },
        {
            "lon": 8.688412,
            "lat": 11.7203,
            "school_name": "Name unknown",
            "country_name": "Nigeria",
            "connectivity": false
        },
        {
            "lon": 8.487866,
            "lat": 12.02332,
            "school_name": "Name unknown",
            "country_name": "Nigeria",
            "connectivity": false
        },
        {
            "lon": 8.259193,
            "lat": 11.53474,
            "school_name": "Name unknown",
            "country_name": "Nigeria",
            "connectivity": false
        },
        {
            "lon": 8.875834,
            "lat": 11.78605,
            "school_name": "Name unknown",
            "country_name": "Nigeria",
            "connectivity": false
        },
        {
            "lon": 8.870702,
            "lat": 11.73707,
            "school_name": "Name unknown",
            "country_name": "Nigeria",
            "connectivity": false
        },
        {
            "lon": 8.450584,
            "lat": 11.67494,
            "school_name": "Name unknown",
            "country_name": "Nigeria",
            "connectivity": false
        },
        {
            "lon": 8.431455,
            "lat": 11.7878,
            "school_name": "Name unknown",
            "country_name": "Nigeria",
            "connectivity": false
        },
        {
            "lon": 8.21424,
            "lat": 12.08966,
            "school_name": "Name unknown",
            "country_name": "Nigeria",
            "connectivity": false
        },
        {
            "lon": 8.237625,
            "lat": 12.48581,
            "school_name": "Name unknown",
            "country_name": "Nigeria",
            "connectivity": false
        },
        {
            "lon": 13.594083,
            "lat": 10.940333,
            "school_name": "Name unknown",
            "country_name": "Nigeria",
            "connectivity": false
        },
        {
            "lon": 13.216094,
            "lat": 10.114583,
            "school_name": "Name unknown",
            "country_name": "Nigeria",
            "connectivity": false
        },
        {
            "lon": 13.351076,
            "lat": 10.235558,
            "school_name": "Name unknown",
            "country_name": "Nigeria",
            "connectivity": false
        },
        {
            "lon": 12.017119,
            "lat": 9.543242,
            "school_name": "Name unknown",
            "country_name": "Nigeria",
            "connectivity": false
        },
        {
            "lon": 7.749423,
            "lat": 7.468118,
            "school_name": "Name unknown",
            "country_name": "Nigeria",
            "connectivity": false
        },
        {
            "lon": 6.833298,
            "lat": 8.433021,
            "school_name": "Name unknown",
            "country_name": "Nigeria",
            "connectivity": false
        },
        {
            "lon": 7.166482,
            "lat": 7.328788,
            "school_name": "Name unknown",
            "country_name": "Nigeria",
            "connectivity": false
        },
        {
            "lon": 6.18191,
            "lat": 7.52569,
            "school_name": "Name unknown",
            "country_name": "Nigeria",
            "connectivity": false
        },
        {
            "lon": 4.596465,
            "lat": 9.369238,
            "school_name": "Name unknown",
            "country_name": "Nigeria",
            "connectivity": false
        },
        {
            "lon": 4.22364,
            "lat": 8.84245,
            "school_name": "Name unknown",
            "country_name": "Nigeria",
            "connectivity": false
        },
        {
            "lon": 3.26064,
            "lat": 6.54958,
            "school_name": "Name unknown",
            "country_name": "Nigeria",
            "connectivity": false
        },
        {
            "lon": 3.29298,
            "lat": 6.62525,
            "school_name": "Name unknown",
            "country_name": "Nigeria",
            "connectivity": false
        },
        {
            "lon": 3.984389554,
            "lat": 6.588483156,
            "school_name": "Name unknown",
            "country_name": "Nigeria",
            "connectivity": false
        },
        {
            "lon": 3.7321,
            "lat": 6.46577,
            "school_name": "Name unknown",
            "country_name": "Nigeria",
            "connectivity": false
        },
        {
            "lon": 3.55274,
            "lat": 6.65029,
            "school_name": "Name unknown",
            "country_name": "Nigeria",
            "connectivity": false
        },
        {
            "lon": 3.17635,
            "lat": 6.50636,
            "school_name": "Name unknown",
            "country_name": "Nigeria",
            "connectivity": false
        },
        {
            "lon": 3.325714,
            "lat": 6.520128,
            "school_name": "Name unknown",
            "country_name": "Nigeria",
            "connectivity": false
        },
        {
            "lon": 3.390544,
            "lat": 6.548525,
            "school_name": "Name unknown",
            "country_name": "Nigeria",
            "connectivity": false
        },
        {
            "lon": 7.87023,
            "lat": 8.86044,
            "school_name": "Name unknown",
            "country_name": "Nigeria",
            "connectivity": false
        },
        {
            "lon": 8.728128,
            "lat": 8.895407,
            "school_name": "Name unknown",
            "country_name": "Nigeria",
            "connectivity": false
        },
        {
            "lon": 4.663621187,
            "lat": 10.73032737,
            "school_name": "Name unknown",
            "country_name": "Nigeria",
            "connectivity": false
        },
        {
            "lon": 6.017526667,
            "lat": 9.08057,
            "school_name": "Name unknown",
            "country_name": "Nigeria",
            "connectivity": false
        },
        {
            "lon": 5.992824322,
            "lat": 9.040758957,
            "school_name": "Name unknown",
            "country_name": "Nigeria",
            "connectivity": false
        },
        {
            "lon": 7.0905,
            "lat": 9.44944,
            "school_name": "Name unknown",
            "country_name": "Nigeria",
            "connectivity": false
        },
        {
            "lon": 7.31466,
            "lat": 9.26273,
            "school_name": "Name unknown",
            "country_name": "Nigeria",
            "connectivity": false
        },
        {
            "lon": 3.31769,
            "lat": 7.168728333,
            "school_name": "Name unknown",
            "country_name": "Nigeria",
            "connectivity": false
        },
        {
            "lon": 3.319178333,
            "lat": 7.175041667,
            "school_name": "Name unknown",
            "country_name": "Nigeria",
            "connectivity": false
        },
        {
            "lon": 3.183056667,
            "lat": 6.671998333,
            "school_name": "Name unknown",
            "country_name": "Nigeria",
            "connectivity": false
        },
        {
            "lon": 3.02134961,
            "lat": 7.2347931,
            "school_name": "Name unknown",
            "country_name": "Nigeria",
            "connectivity": false
        },
        {
            "lon": 4.12943,
            "lat": 6.74915,
            "school_name": "Name unknown",
            "country_name": "Nigeria",
            "connectivity": false
        },
        {
            "lon": 2.782532848,
            "lat": 6.646884034,
            "school_name": "Name unknown",
            "country_name": "Nigeria",
            "connectivity": false
        },
        {
            "lon": 5.065698,
            "lat": 7.231543,
            "school_name": "Name unknown",
            "country_name": "Nigeria",
            "connectivity": false
        },
        {
            "lon": 5.195488,
            "lat": 7.260571,
            "school_name": "Name unknown",
            "country_name": "Nigeria",
            "connectivity": false
        },
        {
            "lon": 5.04593,
            "lat": 6.387028,
            "school_name": "Name unknown",
            "country_name": "Nigeria",
            "connectivity": false
        },
        {
            "lon": 4.837707534,
            "lat": 7.088379726,
            "school_name": "Name unknown",
            "country_name": "Nigeria",
            "connectivity": false
        },
        {
            "lon": 4.67741,
            "lat": 7.907814,
            "school_name": "Name unknown",
            "country_name": "Nigeria",
            "connectivity": false
        },
        {
            "lon": 7.89925,
            "lat": 4.570468,
            "school_name": "Name unknown",
            "country_name": "Nigeria",
            "connectivity": false
        },
        {
            "lon": 7.660876,
            "lat": 5.134814,
            "school_name": "Name unknown",
            "country_name": "Nigeria",
            "connectivity": false
        },
        {
            "lon": 7.869471,
            "lat": 4.71559,
            "school_name": "Name unknown",
            "country_name": "Nigeria",
            "connectivity": false
        },
        {
            "lon": 7.723754,
            "lat": 5.181748,
            "school_name": "Name unknown",
            "country_name": "Nigeria",
            "connectivity": false
        },
        {
            "lon": 3.930936,
            "lat": 7.423645,
            "school_name": "Name unknown",
            "country_name": "Nigeria",
            "connectivity": false
        },
        {
            "lon": 3.938139,
            "lat": 7.364205,
            "school_name": "Name unknown",
            "country_name": "Nigeria",
            "connectivity": false
        },
        {
            "lon": 3.86345,
            "lat": 7.39656,
            "school_name": "Name unknown",
            "country_name": "Nigeria",
            "connectivity": false
        },
        {
            "lon": 3.127843,
            "lat": 7.54098,
            "school_name": "Name unknown",
            "country_name": "Nigeria",
            "connectivity": false
        },
        {
            "lon": 3.905736,
            "lat": 7.336526,
            "school_name": "Name unknown",
            "country_name": "Nigeria",
            "connectivity": false
        },
        {
            "lon": 3.751787,
            "lat": 8.839335,
            "school_name": "Name unknown",
            "country_name": "Nigeria",
            "connectivity": false
        },
        {
            "lon": 8.90506,
            "lat": 10.287,
            "school_name": "Name unknown",
            "country_name": "Nigeria",
            "connectivity": false
        },
        {
            "lon": 8.867686,
            "lat": 9.938142,
            "school_name": "Name unknown",
            "country_name": "Nigeria",
            "connectivity": false
        },
        {
            "lon": 9.728463,
            "lat": 9.022694,
            "school_name": "Name unknown",
            "country_name": "Nigeria",
            "connectivity": false
        },
        {
            "lon": 9.470243,
            "lat": 8.913482,
            "school_name": "Name unknown",
            "country_name": "Nigeria",
            "connectivity": false
        },
        {
            "lon": 7.18455,
            "lat": 5.147361,
            "school_name": "Name unknown",
            "country_name": "Nigeria",
            "connectivity": false
        },
        {
            "lon": 7.065943,
            "lat": 5.018719,
            "school_name": "Name unknown",
            "country_name": "Nigeria",
            "connectivity": false
        },
        {
            "lon": 7.470188,
            "lat": 4.593744,
            "school_name": "Name unknown",
            "country_name": "Nigeria",
            "connectivity": false
        },
        {
            "lon": 6.919527778,
            "lat": 4.903388889,
            "school_name": "Name unknown",
            "country_name": "Nigeria",
            "connectivity": false
        },
        {
            "lon": 6.975725,
            "lat": 5.94564,
            "school_name": "Name unknown",
            "country_name": "Nigeria",
            "connectivity": false
        },
        {
            "lon": 7.56086541,
            "lat": 11.3801971,
            "school_name": "Name unknown",
            "country_name": "Nigeria",
            "connectivity": false
        },
        {
            "lon": 9.79941,
            "lat": 10.27955,
            "school_name": "Name unknown",
            "country_name": "Nigeria",
            "connectivity": false
        },
        {
            "lon": 10.84320225,
            "lat": 11.47385651,
            "school_name": "Name unknown",
            "country_name": "Nigeria",
            "connectivity": false
        },
        {
            "lon": 4.48480877,
            "lat": 12.38582727,
            "school_name": "Name unknown",
            "country_name": "Nigeria",
            "connectivity": false
        },
        {
            "lon": 10.46845143,
            "lat": 11.31721562,
            "school_name": "Name unknown",
            "country_name": "Nigeria",
            "connectivity": false
        },
        {
            "lon": 8.86117,
            "lat": 10.55939,
            "school_name": "Name unknown",
            "country_name": "Nigeria",
            "connectivity": false
        },
        {
            "lon": 4.41011408,
            "lat": 12.88508604,
            "school_name": "Name unknown",
            "country_name": "Nigeria",
            "connectivity": false
        },
        {
            "lon": 4.12274683,
            "lat": 12.11318071,
            "school_name": "Name unknown",
            "country_name": "Nigeria",
            "connectivity": false
        },
        {
            "lon": 4.21835464,
            "lat": 11.95854337,
            "school_name": "Name unknown",
            "country_name": "Nigeria",
            "connectivity": false
        },
        {
            "lon": 5.240982771,
            "lat": 11.42606556,
            "school_name": "Name unknown",
            "country_name": "Nigeria",
            "connectivity": false
        },
        {
            "lon": 6.195073,
            "lat": 5.158123,
            "school_name": "Name unknown",
            "country_name": "Nigeria",
            "connectivity": false
        },
        {
            "lon": 6.006861,
            "lat": 4.773425,
            "school_name": "Name unknown",
            "country_name": "Nigeria",
            "connectivity": false
        },
        {
            "lon": 6.28444613,
            "lat": 13.33522723,
            "school_name": "Name unknown",
            "country_name": "Nigeria",
            "connectivity": false
        },
        {
            "lon": 5.49433,
            "lat": 13.18895,
            "school_name": "Name unknown",
            "country_name": "Nigeria",
            "connectivity": false
        },
        {
            "lon": 9.080787,
            "lat": 7.085931,
            "school_name": "Name unknown",
            "country_name": "Nigeria",
            "connectivity": false
        },
        {
            "lon": 8.12285,
            "lat": 7.385,
            "school_name": "Name unknown",
            "country_name": "Nigeria",
            "connectivity": false
        },
        {
            "lon": 9.501393,
            "lat": 7.191458,
            "school_name": "Name unknown",
            "country_name": "Nigeria",
            "connectivity": false
        },
        {
            "lon": 9.852065,
            "lat": 7.43949,
            "school_name": "Name unknown",
            "country_name": "Nigeria",
            "connectivity": false
        },
        {
            "lon": 9.23558,
            "lat": 6.815515,
            "school_name": "Name unknown",
            "country_name": "Nigeria",
            "connectivity": false
        },
        {
            "lon": 8.93608,
            "lat": 7.186623,
            "school_name": "Name unknown",
            "country_name": "Nigeria",
            "connectivity": false
        },
        {
            "lon": 10.76731415,
            "lat": 12.37147107,
            "school_name": "Name unknown",
            "country_name": "Nigeria",
            "connectivity": false
        },
        {
            "lon": 10.45856927,
            "lat": 12.8728057,
            "school_name": "Name unknown",
            "country_name": "Nigeria",
            "connectivity": false
        },
        {
            "lon": 6.94962,
            "lat": 12.65481,
            "school_name": "Name unknown",
            "country_name": "Nigeria",
            "connectivity": false
        },
        {
            "lon": 8.6618441,
            "lat": 6.2600075,
            "school_name": "Name unknown",
            "country_name": "Nigeria",
            "connectivity": false
        },
        {
            "lon": 9.1383583,
            "lat": 6.636035,
            "school_name": "Name unknown",
            "country_name": "Nigeria",
            "connectivity": false
        },
        {
            "lon": -8.136115,
            "lat": 6.056797,
            "school_name": "Worchirrc Elem. & Jr. High",
            "country_name": "Liberia",
            "connectivity": false
        },
        {
            "lon": -58.34597644,
            "lat": -34.80535356,
            "school_name": "INSTITUTO ADOLFO ALSINA",
            "country_name": "Argentina",
            "connectivity": false
        },
        {
            "lon": -70.1244,
            "lat": -15.4681,
            "school_name": "986",
            "country_name": "Peru",
            "connectivity": false
        },
        {
            "lon": -78.0502,
            "lat": -7.6217,
            "school_name": "ESCUELA MUNICIPAL DE EMPRENDEDORES",
            "country_name": "Peru",
            "connectivity": false
        },
        {
            "lon": -79.0466,
            "lat": -8.14129,
            "school_name": "MI PRIMER APRENDIZAJE",
            "country_name": "Peru",
            "connectivity": false
        },
        {
            "lon": -79.8616,
            "lat": -6.75778,
            "school_name": "SANTO TORIBIO DE MOGROVEJO",
            "country_name": "Peru",
            "connectivity": false
        },
        {
            "lon": -77.5284,
            "lat": -9.53662,
            "school_name": "SE\u00d1OR DE LOS MILAGROS",
            "country_name": "Peru",
            "connectivity": false
        },
        {
            "lon": -76.3598,
            "lat": -6.48772,
            "school_name": "YO SOY LUZ Y AMOR",
            "country_name": "Peru",
            "connectivity": false
        },
        {
            "lon": 8.743079,
            "lat": 11.85605,
            "school_name": "Name unknown",
            "country_name": "Nigeria",
            "connectivity": false
        },
        {
            "lon": 6.79596,
            "lat": 6.708024,
            "school_name": "Name unknown",
            "country_name": "Nigeria",
            "connectivity": false
        },
        {
            "lon": 4.155636,
            "lat": 8.854433,
            "school_name": "Name unknown",
            "country_name": "Nigeria",
            "connectivity": false
        },
        {
            "lon": 3.935841,
            "lat": 7.82114,
            "school_name": "Name unknown",
            "country_name": "Nigeria",
            "connectivity": false
        },
        {
            "lon": 4.19957448,
            "lat": 12.33267034,
            "school_name": "Name unknown",
            "country_name": "Nigeria",
            "connectivity": false
        },
        {
            "lon": 66.645,
            "lat": 39.931087,
            "school_name": "2 -  sonli umumta\u2018lim maktabi",
            "country_name": "Uzbekistan",
            "connectivity": false
        },
        {
            "lon": 66.74037,
            "lat": 39.76371,
            "school_name": "47 -  sonli umumta\u2018lim maktabi",
            "country_name": "Uzbekistan",
            "connectivity": false
        },
        {
            "lon": 66.82603,
            "lat": 39.69221,
            "school_name": "53 -  sonli umumta\u2018lim maktabi",
            "country_name": "Uzbekistan",
            "connectivity": false
        },
        {
            "lon": 66.300653,
            "lat": 40.336291,
            "school_name": "60 -  sonli umumta\u2018lim maktabi",
            "country_name": "Uzbekistan",
            "connectivity": false
        },
        {
            "lon": 72.17087703,
            "lat": 41.04593698,
            "school_name": "25 -  sonli umumta\u2018lim maktabi",
            "country_name": "Uzbekistan",
            "connectivity": false
        },
        {
            "lon": 72.45700294,
            "lat": 40.85153249,
            "school_name": "29 -  sonli umumta\u2018lim maktabi",
            "country_name": "Uzbekistan",
            "connectivity": false
        },
        {
            "lon": -101.33881,
            "lat": 20.73739,
            "school_name": "TELESECUNDARIA NUM. 115",
            "country_name": "Mexico",
            "connectivity": false
        },
        {
            "lon": -98.78131,
            "lat": 21.127278,
            "school_name": "TELESECUNDARIA 429",
            "country_name": "Mexico",
            "connectivity": false
        },
        {
            "lon": -103.733709,
            "lat": 20.838887,
            "school_name": "ESCUELA SECUNDARIA TECNICA 12",
            "country_name": "Mexico",
            "connectivity": false
        },
        {
            "lon": -103.237536,
            "lat": 20.515618,
            "school_name": "ESCUELA SECUNDARIA TECNICA 92",
            "country_name": "Mexico",
            "connectivity": false
        },
        {
            "lon": -102.414111,
            "lat": 20.719139,
            "school_name": "BELISARIO DOMINGUEZ",
            "country_name": "Mexico",
            "connectivity": false
        },
        {
            "lon": -101.991806,
            "lat": 20.613417,
            "school_name": "GUADALUPE VICTORIA",
            "country_name": "Mexico",
            "connectivity": false
        },
        {
            "lon": -98.928156,
            "lat": 18.80096,
            "school_name": "LATINA",
            "country_name": "Mexico",
            "connectivity": false
        },
        {
            "lon": -93.177237,
            "lat": 18.061593,
            "school_name": "LIC. MANUEL SANCHEZ MARMOL",
            "country_name": "Mexico",
            "connectivity": false
        },
        {
            "lon": -98.968689,
            "lat": 22.751901,
            "school_name": "PROF. FRANCISCO NICODEMO",
            "country_name": "Mexico",
            "connectivity": false
        },
        {
            "lon": -97.45991,
            "lat": 20.87631,
            "school_name": "MEXICO",
            "country_name": "Mexico",
            "connectivity": false
        },
        {
            "lon": 68.9417,
            "lat": 24.5903,
            "school_name": "GBPS - ABDUL RAHIM MEHRANPOTO",
            "country_name": "Pakistan",
            "connectivity": false
        },
        {
            "lon": 68.9839,
            "lat": 24.4825,
            "school_name": "GBPS - GHULAM CHANDIO",
            "country_name": "Pakistan",
            "connectivity": false
        },
        {
            "lon": 69.1097,
            "lat": 24.5622,
            "school_name": "GBPS - HAIBAT FAQEER",
            "country_name": "Pakistan",
            "connectivity": false
        },
        {
            "lon": 68.7828,
            "lat": 24.5536,
            "school_name": "GBPS - HAJI AHMED BROHI @ ISHAQUE MALLAH",
            "country_name": "Pakistan",
            "connectivity": false
        },
        {
            "lon": 68.8697,
            "lat": 24.8297,
            "school_name": "GBPS - RAMZAN RAHEMOON@CHANISER KHASKHELI",
            "country_name": "Pakistan",
            "connectivity": false
        },
        {
            "lon": 69.2733,
            "lat": 24.8158,
            "school_name": "GBPS - AHMED JUNEJO @ PATEL LAKHO CHANDIO",
            "country_name": "Pakistan",
            "connectivity": false
        },
        {
            "lon": 67.0222,
            "lat": 24.8969,
            "school_name": "GBPS - USMANIA EIDGAH",
            "country_name": "Pakistan",
            "connectivity": false
        },
        {
            "lon": 69.7009,
            "lat": 27.9919,
            "school_name": "GGPS - BANHO MALIK",
            "country_name": "Pakistan",
            "connectivity": false
        },
        {
            "lon": 68.3785,
            "lat": 25.4193,
            "school_name": "GBPS - BACHAL SOLANGI",
            "country_name": "Pakistan",
            "connectivity": false
        },
        {
            "lon": 68.5051,
            "lat": 28.3394,
            "school_name": "GBPS - SHAH GHAZI @ HAZOOR BUX KHOSO",
            "country_name": "Pakistan",
            "connectivity": false
        },
        {
            "lon": 68.4314,
            "lat": 28.2884,
            "school_name": "GBPS - SPECIAL FORCE",
            "country_name": "Pakistan",
            "connectivity": false
        },
        {
            "lon": 68.8172,
            "lat": 28.1781,
            "school_name": "GBPS - BUDHO SAMEJO",
            "country_name": "Pakistan",
            "connectivity": false
        },
        {
            "lon": 68.81,
            "lat": 28.1922,
            "school_name": "GBPS - IMDAD ALI SOOMRO",
            "country_name": "Pakistan",
            "connectivity": false
        },
        {
            "lon": 68.8937,
            "lat": 28.1038,
            "school_name": "GBPS - LASHKAR KHAN BANGLANI",
            "country_name": "Pakistan",
            "connectivity": false
        },
        {
            "lon": 68.324,
            "lat": 25.3317,
            "school_name": "GBPS - ESSA SHORO",
            "country_name": "Pakistan",
            "connectivity": false
        },
        {
            "lon": 67.7271,
            "lat": 27.3281,
            "school_name": "GBPS - HYDER SAKHANI",
            "country_name": "Pakistan",
            "connectivity": false
        },
        {
            "lon": 68.4946,
            "lat": 26.8153,
            "school_name": "GBPS - SAIFAL LASHARI @ARBAB ALI LASHARI",
            "country_name": "Pakistan",
            "connectivity": false
        },
        {
            "lon": 68.6041,
            "lat": 27.1421,
            "school_name": "GGPS - MOULA BUX SHER",
            "country_name": "Pakistan",
            "connectivity": false
        },
        {
            "lon": 68.2278,
            "lat": 27.7689,
            "school_name": "GBPS - MUHAMMAD YAQOOB BROHI.",
            "country_name": "Pakistan",
            "connectivity": false
        },
        {
            "lon": 69.2692,
            "lat": 25.1489,
            "school_name": "GBPS - CHOUDARY ABDUL GHAFFAR",
            "country_name": "Pakistan",
            "connectivity": false
        },
        {
            "lon": 67.9372,
            "lat": 26.7747,
            "school_name": "GBPS - MARI ABAD",
            "country_name": "Pakistan",
            "connectivity": false
        },
        {
            "lon": 68.7992,
            "lat": 25.9331,
            "school_name": "GBPS - SHAMS-UD-DIN ARAIN",
            "country_name": "Pakistan",
            "connectivity": false
        },
        {
            "lon": 68.7703,
            "lat": 25.9829,
            "school_name": "GGPS - MAHRAM LAGHARI",
            "country_name": "Pakistan",
            "connectivity": false
        },
        {
            "lon": 68.7436,
            "lat": 25.7888,
            "school_name": "GBPS - CHIBHER MAKORANI",
            "country_name": "Pakistan",
            "connectivity": false
        },
        {
            "lon": 68.2522,
            "lat": 26.4622,
            "school_name": "GBPS - LAYARI",
            "country_name": "Pakistan",
            "connectivity": false
        },
        {
            "lon": 67.9938,
            "lat": 26.5294,
            "school_name": "GGPS - INAYATULLAH DAHRI",
            "country_name": "Pakistan",
            "connectivity": false
        },
        {
            "lon": 68.3733,
            "lat": 26.3192,
            "school_name": "GBPS - HAJI SULLEMAN KHASKHALI",
            "country_name": "Pakistan",
            "connectivity": false
        },
        {
            "lon": 68.367,
            "lat": 26.3134,
            "school_name": "GGPS - MITHO KHAN  ZARDARI",
            "country_name": "Pakistan",
            "connectivity": false
        },
        {
            "lon": 68.1098,
            "lat": 26.2321,
            "school_name": "GBPS - AFTAB AHMED ZARDARI",
            "country_name": "Pakistan",
            "connectivity": false
        },
        {
            "lon": 68.5159,
            "lat": 27.8836,
            "school_name": "GBPS - SUHEJA",
            "country_name": "Pakistan",
            "connectivity": false
        },
        {
            "lon": 67.0081,
            "lat": 24.864,
            "school_name": "GBPS - SYED NUHAMMAD SHAH GHAZI",
            "country_name": "Pakistan",
            "connectivity": false
        },
        {
            "lon": 68.2645,
            "lat": 24.8306,
            "school_name": "GBPS - JAFFAR CHANDIO",
            "country_name": "Pakistan",
            "connectivity": false
        },
        {
            "lon": 68.0784,
            "lat": 24.5708,
            "school_name": "GBPS - PHOTO KHAN KERIO",
            "country_name": "Pakistan",
            "connectivity": false
        },
        {
            "lon": 68.7022,
            "lat": 25.5762,
            "school_name": "GBPS - JUMA KHAN LUND",
            "country_name": "Pakistan",
            "connectivity": false
        },