{
    "name": "Patchwork Kingdom #362 | Sirular",
    "description": "The twin kingdoms of Sirular, separated by a digital divide. A bustling kingdom of 240 schools on top that are all connected to the internet, and 175 schools, not connected, hidden in the upside down kingdom | Created for Giga (GigaConnect.org) \u2014 connecting every school in the world \u2014 in celebration of UNICEF's 75th birthday, by Nadieh Bremer",
    "external_url": "https://dummyURL.com/patchwork_kingdoms_362",
    "image": "https://dummy-storage-url.com/patchwork_kingdoms_362.png",
    "attributes": [
        {
            "trait_type": "Color palette",
            "value": "marshmallow"
        },
        {
            "display_type": "number",
            "trait_type": "Schools",
            "value": 449,
            "max_value": 460
        },
        {
            "display_type": "number",
            "trait_type": "Ratio - Connected",
            "value": 0.53,
            "max_value": 1
        },
        {
            "display_type": "number",
            "trait_type": "Ratio - Unconnected",
            "value": 0.39,
            "max_value": 1
        },
        {
            "display_type": "number",
            "trait_type": "Ratio - Data unavailable",
            "value": 0.08,
            "max_value": 1
        },
        {
            "trait_type": "Countries",
            "value": "BJ-BR-CO-CR-HN-KG-KZ-NA-PH-PS-RW-SL-ZW"
        },
        {
            "display_type": "number",
            "trait_type": "Symbols",
            "value": 45,
            "max_value": 51
        }
    ],
    "cluster_id": 362,
    "num_schools": 449,
    "num_schools_connected": 240,
    "num_schools_unconnected": 175,
    "num_schools_unknown": 34,
    "schools": [
        {
            "lon": -86.48775,
            "lat": 15.77047,
            "school_name": "MARCO AURELIO SOTO",
            "country_name": "Honduras",
            "connectivity": true
        },
        {
            "lon": -88.08649,
            "lat": 14.11362,
            "school_name": "JUAN LINDO",
            "country_name": "Honduras",
            "connectivity": true
        },
        {
            "lon": -88.59392,
            "lat": 14.62168,
            "school_name": "JORGE ARTURO REINA",
            "country_name": "Honduras",
            "connectivity": true
        },
        {
            "lon": -88.50475,
            "lat": 14.81649,
            "school_name": "JORGE VICTOR DIAZ ENAMORADO",
            "country_name": "Honduras",
            "connectivity": true
        },
        {
            "lon": -85.59671,
            "lat": 15.05924,
            "school_name": "ABRAHAM WILLIAMS CALDERON",
            "country_name": "Honduras",
            "connectivity": true
        },
        {
            "lon": -86.9065,
            "lat": 13.3782,
            "school_name": "CENTRO DE EDUCACION BASICA NORBERTO GUILLEN",
            "country_name": "Honduras",
            "connectivity": true
        },
        {
            "lon": -86.26872,
            "lat": 14.90665,
            "school_name": "DESPERTAR INFANTIL",
            "country_name": "Honduras",
            "connectivity": true
        },
        {
            "lon": -45.2534,
            "lat": -5.498,
            "school_name": "CENTRO DE ENSINO ARLINDO FERREIRA DE LUCENA",
            "country_name": "Brazil",
            "connectivity": true
        },
        {
            "lon": -46.5709,
            "lat": -23.6414,
            "school_name": "EMEI HELENA MUSUMECI",
            "country_name": "Brazil",
            "connectivity": true
        },
        {
            "lon": -87.0743,
            "lat": 15.18332,
            "school_name": "ROBERTO SOSA",
            "country_name": "Honduras",
            "connectivity": true
        },
        {
            "lon": -87.42815,
            "lat": 15.43372,
            "school_name": "RUBEN BARAHONA",
            "country_name": "Honduras",
            "connectivity": true
        },
        {
            "lon": -53.2007,
            "lat": -23.769,
            "school_name": "HELENA KOLODY C M E I",
            "country_name": "Brazil",
            "connectivity": true
        },
        {
            "lon": -87.05986,
            "lat": 15.3176,
            "school_name": "CARMEN SUAZO VDA DE ALVAREZ",
            "country_name": "Honduras",
            "connectivity": true
        },
        {
            "lon": -35.8724,
            "lat": -7.2355,
            "school_name": "ECI HORTENCIO SOUSA RIBEIRO PREMEN",
            "country_name": "Brazil",
            "connectivity": true
        },
        {
            "lon": -61.4048,
            "lat": -3.5786,
            "school_name": "ESCOLA MUNICIPAL CENTRO EDUCACIONAL TIA ESMERALDA",
            "country_name": "Brazil",
            "connectivity": true
        },
        {
            "lon": -78.50361111,
            "lat": 2.390277778,
            "school_name": "I.E. LAS MARIAS - SEDE PRINCIPAL",
            "country_name": "Colombia",
            "connectivity": true
        },
        {
            "lon": -46.7136,
            "lat": -21.3091,
            "school_name": "EE DONA QUERIDINHA BIAS FORTES",
            "country_name": "Brazil",
            "connectivity": true
        },
        {
            "lon": -87.89511,
            "lat": 14.66076,
            "school_name": "RAMON ORTEGA",
            "country_name": "Honduras",
            "connectivity": true
        },
        {
            "lon": -87.83805,
            "lat": 14.54428,
            "school_name": "18 DE NOVIEMBRE",
            "country_name": "Honduras",
            "connectivity": true
        },
        {
            "lon": -87.56563,
            "lat": 14.86688,
            "school_name": "RUBEN CANTARERO CHINCHILLA",
            "country_name": "Honduras",
            "connectivity": true
        },
        {
            "lon": -74.23071441,
            "lat": 4.703778815,
            "school_name": "Name unknown",
            "country_name": "Colombia",
            "connectivity": false
        },
        {
            "lon": -74.80168469,
            "lat": 4.16880113,
            "school_name": "ARRAYANES",
            "country_name": "Colombia",
            "connectivity": true
        },
        {
            "lon": -86.25496,
            "lat": 13.91163,
            "school_name": "ALFONSO GUILLEN ZELAYA",
            "country_name": "Honduras",
            "connectivity": true
        },
        {
            "lon": -86.92704,
            "lat": 13.88222,
            "school_name": "NUEVO HORIZONTE",
            "country_name": "Honduras",
            "connectivity": true
        },
        {
            "lon": -86.8949,
            "lat": 14.08416,
            "school_name": "ESTEBAN GUARDIOLA",
            "country_name": "Honduras",
            "connectivity": true
        },
        {
            "lon": -87.59905,
            "lat": 13.73212,
            "school_name": "BRISAS DEL SUR",
            "country_name": "Honduras",
            "connectivity": true
        },
        {
            "lon": -87.03967,
            "lat": 14.65737,
            "school_name": "J.N JUAN PABLO TORRES",
            "country_name": "Honduras",
            "connectivity": true
        },
        {
            "lon": -87.00346,
            "lat": 14.30087,
            "school_name": "DR. RAMON ROSA",
            "country_name": "Honduras",
            "connectivity": true
        },
        {
            "lon": -84.8262,
            "lat": 15.052,
            "school_name": "JOSE RAMON BARREIRO",
            "country_name": "Honduras",
            "connectivity": true
        },
        {
            "lon": 31.06332,
            "lat": -17.77818,
            "school_name": "GROOMBRIDGE",
            "country_name": "Zimbabwe",
            "connectivity": true
        },
        {
            "lon": 32.59652,
            "lat": -18.64916,
            "school_name": "ST MATTHIAS TSONZO",
            "country_name": "Zimbabwe",
            "connectivity": true
        },
        {
            "lon": 32.6408,
            "lat": -18.55508,
            "school_name": "NEWENGO",
            "country_name": "Zimbabwe",
            "connectivity": true
        },
        {
            "lon": 31.9704,
            "lat": -16.68493,
            "school_name": "KUJAWARA",
            "country_name": "Zimbabwe",
            "connectivity": true
        },
        {
            "lon": -49.4004,
            "lat": -16.5389,
            "school_name": "CENTRO MUNICIPAL DE EDUCACAO INFANTIL AMERICA BENICIA DE SOUSA",
            "country_name": "Brazil",
            "connectivity": true
        },
        {
            "lon": 29.80144,
            "lat": -2.39719,
            "school_name": "EP GITOVU",
            "country_name": "Rwanda",
            "connectivity": false
        },
        {
            "lon": -84.07174208,
            "lat": 9.82311202,
            "school_name": "LLANO BONITO",
            "country_name": "Costa Rica",
            "connectivity": true
        },
        {
            "lon": -83.3293425,
            "lat": 9.16424382,
            "school_name": "HOLANDA",
            "country_name": "Costa Rica",
            "connectivity": true
        },
        {
            "lon": -84.48798626,
            "lat": 10.08746902,
            "school_name": "GERARDO BADILLA MORA",
            "country_name": "Costa Rica",
            "connectivity": true
        },
        {
            "lon": -84.58999311,
            "lat": 10.45601038,
            "school_name": "SONAFLUCA",
            "country_name": "Costa Rica",
            "connectivity": true
        },
        {
            "lon": -83.72288684,
            "lat": 9.85300335,
            "school_name": "EDUARDO PERALTA JIMENEZ",
            "country_name": "Costa Rica",
            "connectivity": true
        },
        {
            "lon": -85.57187599,
            "lat": 10.03797187,
            "school_name": "MIRAMAR",
            "country_name": "Costa Rica",
            "connectivity": true
        },
        {
            "lon": -77.66167542,
            "lat": 1.257812,
            "school_name": "CENTRO EDUCATIVO MANCHAG",
            "country_name": "Colombia",
            "connectivity": true
        },
        {
            "lon": -85.10389979,
            "lat": 9.9198839,
            "school_name": "DOMINICA",
            "country_name": "Costa Rica",
            "connectivity": true
        },
        {
            "lon": -82.97107842,
            "lat": 8.51086751,
            "school_name": "LA NUBIA",
            "country_name": "Costa Rica",
            "connectivity": true
        },
        {
            "lon": -83.59896668,
            "lat": 9.0566563,
            "school_name": "TRES RIOS",
            "country_name": "Costa Rica",
            "connectivity": true
        },
        {
            "lon": 35.111761,
            "lat": 32.203853,
            "school_name": "baqah al-hattab secondary co-ed school",
            "country_name": "Palestine",
            "connectivity": true
        },
        {
            "lon": -83.58958754,
            "lat": 9.32655714,
            "school_name": "SANTA MARTA",
            "country_name": "Costa Rica",
            "connectivity": true
        },
        {
            "lon": 32.49566,
            "lat": -17.0822,
            "school_name": "CHINGWENA",
            "country_name": "Zimbabwe",
            "connectivity": true
        },
        {
            "lon": -74.15875634,
            "lat": 4.616432425,
            "school_name": "Name unknown",
            "country_name": "Colombia",
            "connectivity": false
        },
        {
            "lon": 32.25992,
            "lat": -17.70443,
            "school_name": "HURUMUTUMBU",
            "country_name": "Zimbabwe",
            "connectivity": true
        },
        {
            "lon": 31.87575,
            "lat": -17.72198,
            "school_name": "MAPONONGWE",
            "country_name": "Zimbabwe",
            "connectivity": true
        },
        {
            "lon": 29.21375,
            "lat": -16.89873,
            "school_name": "SENGWE",
            "country_name": "Zimbabwe",
            "connectivity": true
        },
        {
            "lon": 28.58419,
            "lat": -20.19333,
            "school_name": "HENRY LOW",
            "country_name": "Zimbabwe",
            "connectivity": true
        },
        {
            "lon": 27.21917,
            "lat": -18.18807,
            "school_name": "MPATI",
            "country_name": "Zimbabwe",
            "connectivity": true
        },
        {
            "lon": 29.94346,
            "lat": -19.55619,
            "school_name": "CHIKWINGWIZHA",
            "country_name": "Zimbabwe",
            "connectivity": true
        },
        {
            "lon": -51.9959,
            "lat": -29.5188,
            "school_name": "EMEI DOCE DE INFANCIA",
            "country_name": "Brazil",
            "connectivity": true
        },
        {
            "lon": -74.17817731,
            "lat": 4.630459166,
            "school_name": "Name unknown",
            "country_name": "Colombia",
            "connectivity": false
        },
        {
            "lon": -74.819076,
            "lat": 1.36687,
            "school_name": "I.E. R. MIXTA MARIA LUISA DE MORENO",
            "country_name": "Colombia",
            "connectivity": true
        },
        {
            "lon": 14.97551,
            "lat": -22.4181,
            "school_name": "Thalitha Kumi Christina Academy",
            "country_name": "Namibia",
            "connectivity": false
        },
        {
            "lon": 19.599242,
            "lat": -18.073242,
            "school_name": "Kaguni Central JP",
            "country_name": "Namibia",
            "connectivity": false
        },
        {
            "lon": 16.23806,
            "lat": -17.43417,
            "school_name": "Oheti CS",
            "country_name": "Namibia",
            "connectivity": false
        },
        {
            "lon": 120.952042,
            "lat": 15.256244,
            "school_name": "Malimba ES",
            "country_name": "Philippines",
            "connectivity": true
        },
        {
            "lon": 122.430325,
            "lat": 13.720921,
            "school_name": "San Diego ES",
            "country_name": "Philippines",
            "connectivity": true
        },
        {
            "lon": 121.999481,
            "lat": 13.281048,
            "school_name": "Malibago ES",
            "country_name": "Philippines",
            "connectivity": true
        },
        {
            "lon": 117.616031,
            "lat": 8.679405,
            "school_name": "Marangas West ES",
            "country_name": "Philippines",
            "connectivity": true
        },
        {
            "lon": 121.0233917,
            "lat": 13.4229682,
            "school_name": "San Rafael Elementary School",
            "country_name": "Philippines",
            "connectivity": true
        },
        {
            "lon": 121.384186,
            "lat": 13.196222,
            "school_name": "Tigbao ES",
            "country_name": "Philippines",
            "connectivity": true
        },
        {
            "lon": 122.812645,
            "lat": 8.041893,
            "school_name": "Binoni NHS",
            "country_name": "Philippines",
            "connectivity": true
        },
        {
            "lon": 122.797695,
            "lat": 13.818411,
            "school_name": "Apale ES",
            "country_name": "Philippines",
            "connectivity": true
        },
        {
            "lon": 124.158913,
            "lat": 13.547918,
            "school_name": "Balite ES",
            "country_name": "Philippines",
            "connectivity": true
        },
        {
            "lon": 123.466544,
            "lat": 13.2648,
            "school_name": "Saban ES",
            "country_name": "Philippines",
            "connectivity": true
        },
        {
            "lon": 123.998438,
            "lat": 12.5459,
            "school_name": "Sua ES",
            "country_name": "Philippines",
            "connectivity": true
        },
        {
            "lon": 123.521126,
            "lat": 13.589471,
            "school_name": "Tubigan ES",
            "country_name": "Philippines",
            "connectivity": true
        },
        {
            "lon": 124.0707465,
            "lat": 11.75063981,
            "school_name": "Tubigan ES",
            "country_name": "Philippines",
            "connectivity": true
        },
        {
            "lon": 122.57674,
            "lat": 10.692501,
            "school_name": "A. Montes ES II",
            "country_name": "Philippines",
            "connectivity": true
        },
        {
            "lon": 122.6555,
            "lat": 11.1655,
            "school_name": "Agtabo Elementary School",
            "country_name": "Philippines",
            "connectivity": true
        },
        {
            "lon": 122.487732,
            "lat": 11.130445,
            "school_name": "Ulayan ES",
            "country_name": "Philippines",
            "connectivity": true
        },
        {
            "lon": 123.940997,
            "lat": 9.729458,
            "school_name": "Patrocinio ES",
            "country_name": "Philippines",
            "connectivity": true
        },
        {
            "lon": 125.5058333,
            "lat": 8.929722222,
            "school_name": "La Trinidad ES",
            "country_name": "Philippines",
            "connectivity": true
        },
        {
            "lon": 125.8948888,
            "lat": 8.568791109,
            "school_name": "Lucena ES",
            "country_name": "Philippines",
            "connectivity": true
        },
        {
            "lon": 125.509628,
            "lat": 9.997311,
            "school_name": "Rizal CES",
            "country_name": "Philippines",
            "connectivity": true
        },
        {
            "lon": 126.1591864,
            "lat": 8.065226953,
            "school_name": "San Juan ES",
            "country_name": "Philippines",
            "connectivity": true
        },
        {
            "lon": 121.2019,
            "lat": 17.485,
            "school_name": "Balbalan ES",
            "country_name": "Philippines",
            "connectivity": true
        },
        {
            "lon": 121.3977,
            "lat": 17.7238,
            "school_name": "Southern Conner CS",
            "country_name": "Philippines",
            "connectivity": true
        },
        {
            "lon": 123.753808,
            "lat": 10.245652,
            "school_name": "Cantao-an National High School",
            "country_name": "Philippines",
            "connectivity": true
        },
        {
            "lon": -42.536854,
            "lat": -19.461266,
            "school_name": "EE NILZA LUZIA DE SOUZA BUTTA",
            "country_name": "Brazil",
            "connectivity": true
        },
        {
            "lon": -40.385742,
            "lat": -18.854311,
            "school_name": "CMEI JOAO COLOMBO",
            "country_name": "Brazil",
            "connectivity": true
        },
        {
            "lon": -54.60892,
            "lat": -20.43498,
            "school_name": "EE MAESTRO FREDERICO LIEBERMANN",
            "country_name": "Brazil",
            "connectivity": true
        },
        {
            "lon": 120.3472048,
            "lat": 15.68157988,
            "school_name": "Balloc ES",
            "country_name": "Philippines",
            "connectivity": true
        },
        {
            "lon": -72.300949,
            "lat": 5.509383,
            "school_name": "SAN JUAN DE COFRADIA",
            "country_name": "Colombia",
            "connectivity": true
        },
        {
            "lon": -72.49305556,
            "lat": 7.893333333,
            "school_name": "COL NSTRA SRA DE FATIMA",
            "country_name": "Colombia",
            "connectivity": true
        },
        {
            "lon": -72.30544452,
            "lat": 7.105267976,
            "school_name": "SEDE EL ENCANTO",
            "country_name": "Colombia",
            "connectivity": true
        },
        {
            "lon": -72.59,
            "lat": 4.28,
            "school_name": "SEDE PRINCIPAL - REMOLINO",
            "country_name": "Colombia",
            "connectivity": true
        },
        {
            "lon": -73.08564856,
            "lat": 7.064181135,
            "school_name": "INSTITUTO EMPRESARIAL GABRIELA MISTRAL",
            "country_name": "Colombia",
            "connectivity": true
        },
        {
            "lon": -73.07039942,
            "lat": 8.685373686,
            "school_name": "SEDE LA TORCOROMA",
            "country_name": "Colombia",
            "connectivity": true
        },
        {
            "lon": -73.05131667,
            "lat": 10.34917883,
            "school_name": "ESC. RUR. MIXTA BETANIA",
            "country_name": "Colombia",
            "connectivity": true
        },
        {
            "lon": -73.33932784,
            "lat": 5.3026728,
            "school_name": "ESC JUANA RUIZ",
            "country_name": "Colombia",
            "connectivity": true
        },
        {
            "lon": -73.487222,
            "lat": 3.745,
            "school_name": "SEDE EL TRIUNFO",
            "country_name": "Colombia",
            "connectivity": true
        },
        {
            "lon": -74.05,
            "lat": 9.01,
            "school_name": "CENTRO EDUCATIVO EL BOTONAL",
            "country_name": "Colombia",
            "connectivity": true
        },
        {
            "lon": -74.10583333,
            "lat": 8.15666666,
            "school_name": "LA UNION",
            "country_name": "Colombia",
            "connectivity": true
        },
        {
            "lon": -74.24018632,
            "lat": 11.00117292,
            "school_name": "ESC NO 11 DE NI\u00a5AS",
            "country_name": "Colombia",
            "connectivity": true
        },
        {
            "lon": -74.78899554,
            "lat": 6.588637776,
            "school_name": "I. E. R. CORRALES - LA CUCHILLA",
            "country_name": "Colombia",
            "connectivity": true
        },
        {
            "lon": -74.84913023,
            "lat": 5.902698292,
            "school_name": "I. E. R. JERUSALEN",
            "country_name": "Colombia",
            "connectivity": true
        },
        {
            "lon": -75.20843506,
            "lat": 4.430719852,
            "school_name": "SEDE 03  VERSALLES",
            "country_name": "Colombia",
            "connectivity": true
        },
        {
            "lon": -75.47907449,
            "lat": 7.010123774,
            "school_name": "C. E. R. SAN ROQUE",
            "country_name": "Colombia",
            "connectivity": true
        },
        {
            "lon": -75.89660551,
            "lat": 4.876373187,
            "school_name": "EL AZUFRAL",
            "country_name": "Colombia",
            "connectivity": true
        },
        {
            "lon": -75.80233477,
            "lat": 7.918432931,
            "school_name": "ESC NVA SAN JOSE",
            "country_name": "Colombia",
            "connectivity": true
        },
        {
            "lon": -75.83427375,
            "lat": 9.170705917,
            "school_name": "ESCUELA  LA ASUNCION",
            "country_name": "Colombia",
            "connectivity": true
        },
        {
            "lon": -76.04714558,
            "lat": 4.509455942,
            "school_name": "JOSE MARIA CORDOBA",
            "country_name": "Colombia",
            "connectivity": true
        },
        {
            "lon": -76.32,
            "lat": 4.39,
            "school_name": "RAFAEL NU\u00d1EZ",
            "country_name": "Colombia",
            "connectivity": true
        },
        {
            "lon": -76.55703499,
            "lat": 3.426583714,
            "school_name": "MANUEL MARIA BUENAVENTURA",
            "country_name": "Colombia",
            "connectivity": true
        },
        {
            "lon": -76.5331495,
            "lat": 2.95243194,
            "school_name": "ALTO SAN JOSE DE MANDIVA",
            "country_name": "Colombia",
            "connectivity": true
        },
        {
            "lon": -76.55317719,
            "lat": 2.638684387,
            "school_name": "EL ARADO",
            "country_name": "Colombia",
            "connectivity": true
        },
        {
            "lon": -77.17191283,
            "lat": 2.17406641,
            "school_name": "CERRO BOYACA",
            "country_name": "Colombia",
            "connectivity": true
        },
        {
            "lon": -77.25166667,
            "lat": 2.255833333,
            "school_name": "MESON BAJO",
            "country_name": "Colombia",
            "connectivity": true
        },
        {
            "lon": -77.46738383,
            "lat": 0.926661068,
            "school_name": "CENTRO EDUCATIVO EL SOCORRO CHITARRAN",
            "country_name": "Colombia",
            "connectivity": true
        },
        {
            "lon": -68.6626,
            "lat": -8.8715,
            "school_name": "ESC VINTE E UM DE ABRIL",
            "country_name": "Brazil",
            "connectivity": false
        },
        {
            "lon": -71.6929,
            "lat": -7.0451,
            "school_name": "ESC MUN ANTONIO AMILCAR DA SILVA",
            "country_name": "Brazil",
            "connectivity": false
        },
        {
            "lon": -69.8714,
            "lat": -6.6598,
            "school_name": "ESCOLA MUNICIPAL MARIA DELMIRA",
            "country_name": "Brazil",
            "connectivity": false
        },
        {
            "lon": -59.9223,
            "lat": -3.0757,
            "school_name": "EM PROF",
            "country_name": "Brazil",
            "connectivity": true
        },
        {
            "lon": -59.638,
            "lat": 3.8791,
            "school_name": "CRECHE MUNICIPAL MARIA AUGUSTA ESBELL",
            "country_name": "Brazil",
            "connectivity": false
        },
        {
            "lon": -52.1414,
            "lat": -2.0414,
            "school_name": "E M E F N S APARECIDA",
            "country_name": "Brazil",
            "connectivity": false
        },
        {
            "lon": -52.1746,
            "lat": -2.0446,
            "school_name": "E M E F SANTANA",
            "country_name": "Brazil",
            "connectivity": false
        },
        {
            "lon": -50.8994,
            "lat": -0.4572,
            "school_name": "E M E F SAO SALVADOR",
            "country_name": "Brazil",
            "connectivity": false
        },
        {
            "lon": -48.2854,
            "lat": -15.7829,
            "school_name": "ESCOLA MUNICIPAL VICENTE DE PAULA LISBOA",
            "country_name": "Brazil",
            "connectivity": true
        },
        {
            "lon": -42.7602,
            "lat": -5.1099,
            "school_name": "CETI PROF MILTON AGUIAR",
            "country_name": "Brazil",
            "connectivity": true
        },
        {
            "lon": -47.8264,
            "lat": -1.9816,
            "school_name": "E M E F MARIA GUALDINA",
            "country_name": "Brazil",
            "connectivity": false
        },
        {
            "lon": -48.8703,
            "lat": -1.3895,
            "school_name": "E M E F DESEMBARGADOR OSWALDO POJUCAN TAVARES",
            "country_name": "Brazil",
            "connectivity": true
        },
        {
            "lon": -47.0611,
            "lat": -1.7261,
            "school_name": "E M E I F BRANCA DE NEVE E OS SETE ANOES",
            "country_name": "Brazil",
            "connectivity": false
        },
        {
            "lon": -49.8442,
            "lat": -6.5307,
            "school_name": "EMEF MARIA DE LOURDES ROCHA RODRIGUES",
            "country_name": "Brazil",
            "connectivity": true
        },
        {
            "lon": -50.4679,
            "lat": -4.8684,
            "school_name": "E M E F TAPAJOS",
            "country_name": "Brazil",
            "connectivity": false
        },
        {
            "lon": -50.7873,
            "lat": 2.05,
            "school_name": "ESC MUL FRANCISCO A DE OLIVEIRA",
            "country_name": "Brazil",
            "connectivity": true
        },
        {
            "lon": -50.7151,
            "lat": 0.7363,
            "school_name": "ESC EST SALAMITO",
            "country_name": "Brazil",
            "connectivity": true
        },
        {
            "lon": -52.3086,
            "lat": -1.0279,
            "school_name": "ESC MUL AGUA AZUL",
            "country_name": "Brazil",
            "connectivity": false
        },
        {
            "lon": -46.7112,
            "lat": -23.3009,
            "school_name": "EMEB JOSE AUGUSTO MOREIRA",
            "country_name": "Brazil",
            "connectivity": true
        },
        {
            "lon": -48.8905,
            "lat": -10.1932,
            "school_name": "ESCOLA MUNICIPAL DE 1\u00ba GRAU POUSO ALEGRE",
            "country_name": "Brazil",
            "connectivity": true
        },
        {
            "lon": -36.9614,
            "lat": -7.5112,
            "school_name": "UMEIEF JOSE BONIFACIO BARBOSA DE ANDRADE",
            "country_name": "Brazil",
            "connectivity": true
        },
        {
            "lon": -45.2565,
            "lat": -3.0142,
            "school_name": "EM ALVARO TEIXEIRA BORGES",
            "country_name": "Brazil",
            "connectivity": true
        },
        {
            "lon": -43.895,
            "lat": -4.4504,
            "school_name": "CMEI SANTA FILOMENA",
            "country_name": "Brazil",
            "connectivity": true
        },
        {
            "lon": -43.3614,
            "lat": -4.5822,
            "school_name": "UE SANTA TEREZINHA",
            "country_name": "Brazil",
            "connectivity": false
        },
        {
            "lon": -43.3583,
            "lat": -4.8709,
            "school_name": "EC SAO FRANCISCO DE ASSIS",
            "country_name": "Brazil",
            "connectivity": false
        },
        {
            "lon": -45.8894,
            "lat": -3.6164,
            "school_name": "EMEB DOM VALMIR",
            "country_name": "Brazil",
            "connectivity": false
        },
        {
            "lon": -45.1465,
            "lat": -2.4228,
            "school_name": "CENTRO DE ENSINO ODORICO MENDES - ANEXO I - BOM VIVER",
            "country_name": "Brazil",
            "connectivity": false
        },
        {
            "lon": -46.4508,
            "lat": -4.3272,
            "school_name": "CRECHE MUNICIPAL EDIVAN FLOR",
            "country_name": "Brazil",
            "connectivity": true
        },
        {
            "lon": -43.5678,
            "lat": -2.9048,
            "school_name": "EFA OLEGARIO MAIA",
            "country_name": "Brazil",
            "connectivity": false
        },
        {
            "lon": -42.4938,
            "lat": -4.2712,
            "school_name": "ESCOLA MUNICIPAL SANTO ANTONIO",
            "country_name": "Brazil",
            "connectivity": false
        },
        {
            "lon": -42.8236,
            "lat": -9.2835,
            "school_name": "UNIDADE ESCOLAR JOAO BRAZ DO ROSARIO",
            "country_name": "Brazil",
            "connectivity": true
        },
        {
            "lon": -40.8608,
            "lat": -7.242,
            "school_name": "UNID ESC JOAO JACOB DE ARAUJO",
            "country_name": "Brazil",
            "connectivity": true
        },
        {
            "lon": -43.0809,
            "lat": -7.8042,
            "school_name": "ESCOLA MUNICIPAL IRACEMA MIRANDA",
            "country_name": "Brazil",
            "connectivity": false
        },
        {
            "lon": -43.9415,
            "lat": -7.8949,
            "school_name": "ESCOLA MUL MEDONHO",
            "country_name": "Brazil",
            "connectivity": false
        },
        {
            "lon": -39.601,
            "lat": -3.647,
            "school_name": "ESCOLA JOAO SALES BASTOS",
            "country_name": "Brazil",
            "connectivity": false
        },
        {
            "lon": -41.3558,
            "lat": -18.6293,
            "school_name": "EM OMAR MENDES",
            "country_name": "Brazil",
            "connectivity": false
        },
        {
            "lon": -48.1092,
            "lat": -15.8232,
            "school_name": "EC 20 DE CEILANDIA",
            "country_name": "Brazil",
            "connectivity": true
        },
        {
            "lon": -39.6676,
            "lat": -5.7405,
            "school_name": "ANTO FRANCISCO DE SOUSA EEF",
            "country_name": "Brazil",
            "connectivity": true
        },
        {
            "lon": -39.0026,
            "lat": -7.6896,
            "school_name": "EEM MOISES BENTO DA SILVA",
            "country_name": "Brazil",
            "connectivity": true
        },
        {
            "lon": -38.9126,
            "lat": -3.6869,
            "school_name": "HILDA RODRIGUES DE SOUSA NEDI",
            "country_name": "Brazil",
            "connectivity": false
        },
        {
            "lon": -40.1194,
            "lat": -2.8863,
            "school_name": "TERESA DE JESUS SILVA EEIEF PROF",
            "country_name": "Brazil",
            "connectivity": true
        },
        {
            "lon": -38.3289,
            "lat": -4.1436,
            "school_name": "NOSSO SONHO CEI",
            "country_name": "Brazil",
            "connectivity": false
        },
        {
            "lon": -55.9989,
            "lat": -4.2587,
            "school_name": "CENTRO MUN DE ED INFANTIL MARIA DE NAZARE FREIRE",
            "country_name": "Brazil",
            "connectivity": true
        },
        {
            "lon": -35.2884,
            "lat": -5.9113,
            "school_name": "CENTRO INFANTIL PROF JUDITH AGUIAR",
            "country_name": "Brazil",
            "connectivity": false
        },
        {
            "lon": -35.3585,
            "lat": -6.1973,
            "school_name": "CRECHE MUNICIPAL ANTONIO GOMES SILVEIRA",
            "country_name": "Brazil",
            "connectivity": true
        },
        {
            "lon": -37.1303,
            "lat": -7.8937,
            "school_name": "ESCOLA MUNICIPAL TIRADENTES",
            "country_name": "Brazil",
            "connectivity": true
        },
        {
            "lon": -37.7372,
            "lat": -7.5883,
            "school_name": "EMEF AUGUSTO DOS ANJOS",
            "country_name": "Brazil",
            "connectivity": false
        },
        {
            "lon": -36.6124,
            "lat": -7.0587,
            "school_name": "EMEF FCO JOSE DO NASCIMENTO",
            "country_name": "Brazil",
            "connectivity": false
        },
        {
            "lon": -36.0832,
            "lat": -6.7529,
            "school_name": "EMEF MANOEL BATISTA DE SOUSA",
            "country_name": "Brazil",
            "connectivity": true
        },
        {
            "lon": -35.3453,
            "lat": -6.6606,
            "school_name": "EMEF MIGUEL PEREIRA",
            "country_name": "Brazil",
            "connectivity": true
        },
        {
            "lon": -39.7427,
            "lat": -7.4731,
            "school_name": "GRUPO MUNICIPAL PEDRO ALVES BACURAU",
            "country_name": "Brazil",
            "connectivity": false
        },
        {
            "lon": -37.3187,
            "lat": -8.1664,
            "school_name": "ESCOLA MUNICIPAL JOSE ALVES DE SOUSA",
            "country_name": "Brazil",
            "connectivity": false
        },
        {
            "lon": -36.6285,
            "lat": -8.7378,
            "school_name": "ESCOLA MUNICIPAL A SEMENTINHA",
            "country_name": "Brazil",
            "connectivity": true
        },
        {
            "lon": -35.6653,
            "lat": -8.4175,
            "school_name": "ESCOLA MUL CLAUDIO LOPES DE CARVALHO",
            "country_name": "Brazil",
            "connectivity": true
        },
        {
            "lon": -35.0802,
            "lat": -8.4328,
            "school_name": "ESCOLA MUNICIPAL MARIA BERNADETE",
            "country_name": "Brazil",
            "connectivity": false
        },
        {
            "lon": -34.8999,
            "lat": -8.0718,
            "school_name": "CMEI MAEZINHA DO COQUE",
            "country_name": "Brazil",
            "connectivity": true
        },
        {
            "lon": -48.3174,
            "lat": -1.382,
            "school_name": "E M E I F CRISTA PLENITUDE",
            "country_name": "Brazil",
            "connectivity": true
        },
        {
            "lon": -37.059,
            "lat": -10.9762,
            "school_name": "EMEF NOSSA SENHORA APARECIDA",
            "country_name": "Brazil",
            "connectivity": true
        },
        {
            "lon": -37.8282,
            "lat": -11.3504,
            "school_name": "ESCOLA MUNICIPAL DE ENSINO FUNDAMENTAL FELIX SOARES",
            "country_name": "Brazil",
            "connectivity": false
        },
        {
            "lon": -39.7819,
            "lat": -9.6664,
            "school_name": "ESCOLA MUNICIPAL JOAO FRANCISCO FELIX",
            "country_name": "Brazil",
            "connectivity": true
        },
        {
            "lon": -42.1064,
            "lat": -12.0878,
            "school_name": "ESCOLA MUNICIPAL JOSE BENICIO DE MATOS",
            "country_name": "Brazil",
            "connectivity": false
        },
        {
            "lon": -40.6004,
            "lat": -11.4267,
            "school_name": "PROFESSOR PAULO AMERICO DE OLIVEIRA",
            "country_name": "Brazil",
            "connectivity": true
        },
        {
            "lon": -40.785,
            "lat": -11.8483,
            "school_name": "ESCOLA MUNICIPAL PROF",
            "country_name": "Brazil",
            "connectivity": true
        },
        {
            "lon": -38.2665,
            "lat": -12.8688,
            "school_name": "CENTRO EDUCACIONAL MARCUS IVO BONNA",
            "country_name": "Brazil",
            "connectivity": true
        },
        {
            "lon": -42.5239,
            "lat": -13.7017,
            "school_name": "ESC VINTE E CINCO DE DEZEMBRO",
            "country_name": "Brazil",
            "connectivity": false
        },
        {
            "lon": -39.2211,
            "lat": -13.3713,
            "school_name": "ESCOLA MUNICIPAL MANOEL SANTOS SILVA",
            "country_name": "Brazil",
            "connectivity": false
        },
        {
            "lon": -39.0556,
            "lat": -14.5938,
            "school_name": "ESCOLA MUNICIPAL MANOEL MALAQUIAS REIS",
            "country_name": "Brazil",
            "connectivity": true
        },
        {
            "lon": -39.319,
            "lat": -14.5009,
            "school_name": "ESCOLA LEOLINDA",
            "country_name": "Brazil",
            "connectivity": false
        },
        {
            "lon": -42.4328,
            "lat": -13.5964,
            "school_name": "ESCOLA MUNICIPAL CASSIMIRO",
            "country_name": "Brazil",
            "connectivity": false
        },
        {
            "lon": -39.3703,
            "lat": -13.2969,
            "school_name": "ESCOLA MUNICIPAL FLORENCIO CAFE DO NASCIMENTO",
            "country_name": "Brazil",
            "connectivity": true
        },
        {
            "lon": -39.3813,
            "lat": -13.7632,
            "school_name": "MANOEL DOMINGOS",
            "country_name": "Brazil",
            "connectivity": false
        },
        {
            "lon": -40.7435,
            "lat": -15.4581,
            "school_name": "ESCOLA MUNICIPAL MANOEL ANTUNES DA LUZ",
            "country_name": "Brazil",
            "connectivity": true
        },
        {
            "lon": -44.7763,
            "lat": -13.552,
            "school_name": "ESCOLA MUNICIPAL PALMEIRAS",
            "country_name": "Brazil",
            "connectivity": true
        },
        {
            "lon": -39.2933,
            "lat": -14.8093,
            "school_name": "ESCOLA APAE DO MUNICIPIO",
            "country_name": "Brazil",
            "connectivity": true
        },
        {
            "lon": -39.4322,
            "lat": -11.488,
            "school_name": "CRECHE MUNICIPAL SEMENTE DO FUTURO",
            "country_name": "Brazil",
            "connectivity": true
        },
        {
            "lon": -38.2962,
            "lat": -12.5335,
            "school_name": "CENTRO DE REFERENCIA EM EDUCACAO INFANTIL E ATENCAO FAMILIAR DOM MIGUEL FLUXA ROSSELLO",
            "country_name": "Brazil",
            "connectivity": false
        },
        {
            "lon": -43.8961,
            "lat": -19.8574,
            "school_name": "ESCOLA MUNICIPAL HONORINA RABELLO",
            "country_name": "Brazil",
            "connectivity": true
        },
        {
            "lon": -42.0419,
            "lat": -20.2755,
            "school_name": "EE RENATO GUSMAN",
            "country_name": "Brazil",
            "connectivity": true
        },
        {
            "lon": -41.6406,
            "lat": -19.8942,
            "school_name": "ESCOLA MUNICIPAL PROFESSORA NEUZA RODRIGUES NANTES",
            "country_name": "Brazil",
            "connectivity": false
        },
        {
            "lon": -44.8129,
            "lat": -16.5062,
            "school_name": "EM JOAO RODRIGUES DE SOUZA",
            "country_name": "Brazil",
            "connectivity": false
        },
        {
            "lon": -41.8436,
            "lat": -16.1487,
            "school_name": "EM BARRA DO BRASAMUNDO",
            "country_name": "Brazil",
            "connectivity": false
        },
        {
            "lon": -42.8935,
            "lat": -20.4072,
            "school_name": "EE PROFESSOR ANTONIO GONCALVES LANNA",
            "country_name": "Brazil",
            "connectivity": true
        },
        {
            "lon": -41.6796,
            "lat": -17.1415,
            "school_name": "EM N SRA APARECIDA",
            "country_name": "Brazil",
            "connectivity": false
        },
        {
            "lon": -45.2563,
            "lat": -21.7002,
            "school_name": "EE BUENO BRANDAO",
            "country_name": "Brazil",
            "connectivity": true
        },
        {
            "lon": -43.3906,
            "lat": -20.7727,
            "school_name": "E M MARTINHO JOSE MAGALHAES",
            "country_name": "Brazil",
            "connectivity": false
        },
        {
            "lon": -42.7018,
            "lat": -21.389,
            "school_name": "CMEI CANTINHO FELIZ",
            "country_name": "Brazil",
            "connectivity": true
        },
        {
            "lon": -41.5301,
            "lat": -19.0675,
            "school_name": "CENTRO DE EDUCACAO INFANTIL MUNICIPAL EDITE DE VASCONCELOS",
            "country_name": "Brazil",
            "connectivity": true
        },
        {
            "lon": -44.0734,
            "lat": -20.9157,
            "school_name": "EE ABEILARD PEREIRA",
            "country_name": "Brazil",
            "connectivity": true
        },
        {
            "lon": -47.5417,
            "lat": -19.9369,
            "school_name": "EE DR LINDOLFO BERNARDES",
            "country_name": "Brazil",
            "connectivity": true
        },
        {
            "lon": -44.0458,
            "lat": -19.0051,
            "school_name": "EM JOSE MARIA DA FONSECA",
            "country_name": "Brazil",
            "connectivity": true
        },
        {
            "lon": -42.064,
            "lat": -17.4611,
            "school_name": "CENTRO MUNICIPAL DE EDUCACAO INFANTIL SAGRADO CORACAO DE JESUS",
            "country_name": "Brazil",
            "connectivity": false
        },
        {
            "lon": -43.3089,
            "lat": -22.7378,
            "school_name": "E M PROFESSOR ALBERTO RIBEIRO VASCONCELOS",
            "country_name": "Brazil",
            "connectivity": true
        },
        {
            "lon": -44.1875,
            "lat": -19.9501,
            "school_name": "EM ANA CANDIDA DE JESUS",
            "country_name": "Brazil",
            "connectivity": true
        },
        {
            "lon": -40.8166,
            "lat": -19.4446,
            "school_name": "EU MUL BARRA DE SAO PEDRO",
            "country_name": "Brazil",
            "connectivity": false
        },
        {
            "lon": -40.6887,
            "lat": -20.0561,
            "school_name": "EMPEIEF ALCIDES PIMENTEL",
            "country_name": "Brazil",
            "connectivity": true
        },
        {
            "lon": -40.4067,
            "lat": -20.2942,
            "school_name": "EMEF MARIA GUILHERMINA DE CASTRO",
            "country_name": "Brazil",
            "connectivity": true
        },
        {
            "lon": -41.1122,
            "lat": -20.8542,
            "school_name": "EEEFM FRATERNIDADE E LUZ",
            "country_name": "Brazil",
            "connectivity": true
        },
        {
            "lon": -44.1105,
            "lat": -22.49,
            "school_name": "CE BRASILIA",
            "country_name": "Brazil",
            "connectivity": true
        },
        {
            "lon": -44.2922,
            "lat": -22.9818,
            "school_name": "CIEP 055 JOAO GREGORIO GALINDO",
            "country_name": "Brazil",
            "connectivity": true
        },
        {
            "lon": -42.6344,
            "lat": -22.7254,
            "school_name": "ESCOLA MUNICIPAL PROFESSORA DULCINEIA DA SILVA VALADARES",
            "country_name": "Brazil",
            "connectivity": true
        },
        {
            "lon": -51.1959,
            "lat": -29.9137,
            "school_name": "ESC EST ENS FUN PROFESSORA CLOTILDE BATISTA",
            "country_name": "Brazil",
            "connectivity": true
        },
        {
            "lon": -54.0124,
            "lat": -28.2445,
            "school_name": "ESC EST ENS FUN EUSEBIO DE QUEIROS",
            "country_name": "Brazil",
            "connectivity": true
        },
        {
            "lon": -49.9458,
            "lat": -28.2925,
            "school_name": "EEB MANOEL CRUZ",
            "country_name": "Brazil",
            "connectivity": true
        },
        {
            "lon": -43.0614,
            "lat": -22.8437,
            "school_name": "ESCOLA MUNICIPAL MARIO QUINTANA",
            "country_name": "Brazil",
            "connectivity": true
        },
        {
            "lon": -35.3831,
            "lat": -7.945,
            "school_name": "ESCOLA MUNICIPAL IVA FERREIRA DE SOUZA",
            "country_name": "Brazil",
            "connectivity": true
        },
        {
            "lon": -52.1433,
            "lat": -27.1594,
            "school_name": "EEB ARABUTA",
            "country_name": "Brazil",
            "connectivity": true
        },
        {
            "lon": -50.1187,
            "lat": -27.526,
            "school_name": "EEB FAZENDA OLINKRAFT",
            "country_name": "Brazil",
            "connectivity": true
        },
        {
            "lon": -49.5928,
            "lat": -21.7675,
            "school_name": "ANTONIO RUBI GIMENES PROF",
            "country_name": "Brazil",
            "connectivity": true
        },
        {
            "lon": -46.4757,
            "lat": -23.5306,
            "school_name": "EMEI EVARISTO DA VEIGA",
            "country_name": "Brazil",
            "connectivity": true
        },
        {
            "lon": -46.4966,
            "lat": -23.6167,
            "school_name": "EMEF RODRIGUES DE CARVALHO",
            "country_name": "Brazil",
            "connectivity": true
        },
        {
            "lon": -50.6506,
            "lat": -21.2683,
            "school_name": "ABDUL AZIZ EL KADRE DOUTOR EMEB",
            "country_name": "Brazil",
            "connectivity": true
        },
        {
            "lon": -47.7446,
            "lat": -20.0373,
            "school_name": "NICOLAU SAAD DR EM",
            "country_name": "Brazil",
            "connectivity": true
        },
        {
            "lon": -46.4538,
            "lat": -23.6017,
            "school_name": "EMEI FELIPE DOLIVEIRA",
            "country_name": "Brazil",
            "connectivity": true
        },
        {
            "lon": -42.4332,
            "lat": -11.8189,
            "school_name": "COLEGIO MUNICIPAL DE IPUPIARA",
            "country_name": "Brazil",
            "connectivity": true
        },
        {
            "lon": -46.6016,
            "lat": -23.7522,
            "school_name": "FERNANDO PESSOA EMEB",
            "country_name": "Brazil",
            "connectivity": true
        },
        {
            "lon": -55.2172,
            "lat": -28.0804,
            "school_name": "ESC MUN ENS FUND SANTA MARTA",
            "country_name": "Brazil",
            "connectivity": true
        },
        {
            "lon": -47.7942,
            "lat": -20.3268,
            "school_name": "MOACIR FRANCA EMEF",
            "country_name": "Brazil",
            "connectivity": false
        },
        {
            "lon": -46.462,
            "lat": -22.614,
            "school_name": "RIO DO PEIXE EM",
            "country_name": "Brazil",
            "connectivity": true
        },
        {
            "lon": -47.8558,
            "lat": -23.3398,
            "school_name": "ACCACIO VIEIRA DE CAMARGO PROF EM",
            "country_name": "Brazil",
            "connectivity": true
        },
        {
            "lon": -47.3065,
            "lat": -23.0128,
            "school_name": "PEDRO TRASFERETI ESCOLA MUNICIPAL",
            "country_name": "Brazil",
            "connectivity": true
        },
        {
            "lon": -48.2126,
            "lat": -24.8044,
            "school_name": "JOSE RODRIGUES DE FREITAS VEREADOR ESCOLA MUNICIPAL",
            "country_name": "Brazil",
            "connectivity": true
        },
        {
            "lon": -48.007,
            "lat": -24.7026,
            "school_name": "CARLOS ALBERTO VIGNERON PROF ESCOLA MUNICIPAL",
            "country_name": "Brazil",
            "connectivity": true
        },
        {
            "lon": -46.8906,
            "lat": -21.8292,
            "school_name": "CEL JTO A EE BENJAMIN BASTOS",
            "country_name": "Brazil",
            "connectivity": true
        },
        {
            "lon": -47.1429,
            "lat": -22.8352,
            "school_name": "BERNARDO CARO",
            "country_name": "Brazil",
            "connectivity": true
        },
        {
            "lon": -47.2823,
            "lat": -20.6501,
            "school_name": "INES DO COUTO ROSA VILELA PROFESSORA CRECHE MUNICIPAL",
            "country_name": "Brazil",
            "connectivity": true
        },
        {
            "lon": -46.4395,
            "lat": -23.4515,
            "school_name": "EPG - EPG HAMILTON FELIX DE SOUZA",
            "country_name": "Brazil",
            "connectivity": true
        },
        {
            "lon": -47.8481,
            "lat": -23.3889,
            "school_name": "EMEI NIVALDO LOURENCO GOMES",
            "country_name": "Brazil",
            "connectivity": false
        },
        {
            "lon": -51.4517,
            "lat": -23.4088,
            "school_name": "NEREIDE S CAMARGO E M PROFA EIEF",
            "country_name": "Brazil",
            "connectivity": true
        },
        {
            "lon": -60.0064,
            "lat": -3.0975,
            "school_name": "ESCOLA ESTADUAL SIMON BOLIVAR",
            "country_name": "Brazil",
            "connectivity": true
        },
        {
            "lon": -44.1352,
            "lat": -22.4929,
            "school_name": "E M MARIO VILLANI",
            "country_name": "Brazil",
            "connectivity": true
        },
        {
            "lon": -52.6997,
            "lat": -26.0624,
            "school_name": "CECILIANO MEURER E E C FREI EF",
            "country_name": "Brazil",
            "connectivity": false
        },
        {
            "lon": -49.2662,
            "lat": -25.5243,
            "school_name": "EDMUNDO LEMANSKI C M E I",
            "country_name": "Brazil",
            "connectivity": true
        },
        {
            "lon": -49.2221,
            "lat": -25.3686,
            "school_name": "VILA CALIFORNIA C M E I",
            "country_name": "Brazil",
            "connectivity": true
        },
        {
            "lon": -49.2268,
            "lat": -25.4739,
            "school_name": "VILA MACEDO C M E I",
            "country_name": "Brazil",
            "connectivity": true
        },
        {
            "lon": -49.395,
            "lat": -28.3939,
            "school_name": "EEB VISCONDE DE TAUNAY",
            "country_name": "Brazil",
            "connectivity": true
        },
        {
            "lon": -50.0907,
            "lat": -26.8948,
            "school_name": "CEI CAMPINAS",
            "country_name": "Brazil",
            "connectivity": false
        },
        {
            "lon": -53.648,
            "lat": -27.0246,
            "school_name": "ESCOLA MUNICIPAL SAO PEDRO",
            "country_name": "Brazil",
            "connectivity": true
        },
        {
            "lon": -49.0186,
            "lat": -28.6378,
            "school_name": "PE MUNDO DA CRIANCA",
            "country_name": "Brazil",
            "connectivity": false
        },
        {
            "lon": -53.1511,
            "lat": -27.4407,
            "school_name": "ESC MUN ENS FUN SANTA BARBARA",
            "country_name": "Brazil",
            "connectivity": true
        },
        {
            "lon": -51.6399,
            "lat": -27.9359,
            "school_name": "ESC MUN ENS FUN CRISTIANO KERN",
            "country_name": "Brazil",
            "connectivity": true
        },
        {
            "lon": -49.5531,
            "lat": -25.4541,
            "school_name": "IVO ZANLORENZI E M MONS EI EF",
            "country_name": "Brazil",
            "connectivity": true
        },
        {
            "lon": -49.2099,
            "lat": -25.5385,
            "school_name": "MARIO FLORES E M PROF EI EF",
            "country_name": "Brazil",
            "connectivity": true
        },
        {
            "lon": -56.2525,
            "lat": -14.4263,
            "school_name": "ESCOLA MUNICIPAL CASTRO ALVES",
            "country_name": "Brazil",
            "connectivity": true
        },
        {
            "lon": -51.0934,
            "lat": -16.6238,
            "school_name": "ESCOLA MUNICIPAL ALFREDO NASSER",
            "country_name": "Brazil",
            "connectivity": true
        },
        {
            "lon": -46.8544,
            "lat": -20.7393,
            "school_name": "EE DOUTOR FARID SILVA",
            "country_name": "Brazil",
            "connectivity": true
        },
        {
            "lon": -46.8141,
            "lat": -23.6196,
            "school_name": "RODOLFO JOSE DA COSTA E SILVA",
            "country_name": "Brazil",
            "connectivity": true
        },
        {
            "lon": -48.1282,
            "lat": -24.7291,
            "school_name": "VICTORIO ZANON ESCOLA MUNICIPAL DE EDUCACAO BASICA",
            "country_name": "Brazil",
            "connectivity": true
        },
        {
            "lon": -48.1,
            "lat": -15.8239,
            "school_name": "CIL DE CEILANDIA",
            "country_name": "Brazil",
            "connectivity": true
        },
        {
            "lon": -46.5303,
            "lat": -23.6559,
            "school_name": "AMERICO BRASILIENSE DOUTOR",
            "country_name": "Brazil",
            "connectivity": true
        },
        {
            "lon": -46.5193,
            "lat": -23.6773,
            "school_name": "JOAQUIM DE CARVALHO TERRA PROFESSOR",
            "country_name": "Brazil",
            "connectivity": true
        },
        {
            "lon": -46.7885,
            "lat": -23.494,
            "school_name": "LUIZ LUSTOSA DA SILVA PROFESSOR DOUTOR",
            "country_name": "Brazil",
            "connectivity": true
        },
        {
            "lon": -48.9512,
            "lat": -16.9682,
            "school_name": "CENTRO DE ENSINO EM PERIODO INTEGRAL PEDRO VIEIRA JANUARIO",
            "country_name": "Brazil",
            "connectivity": true
        },
        {
            "lon": -49.3826,
            "lat": -16.6753,
            "school_name": "CMEI CONJUNTO VERA CRUZ VI",
            "country_name": "Brazil",
            "connectivity": true
        },
        {
            "lon": -47.5857,
            "lat": -15.4461,
            "school_name": "ESCOLA MUNICIPAL EMILIA FERREIRO",
            "country_name": "Brazil",
            "connectivity": true
        },
        {
            "lon": -49.6671,
            "lat": -5.4323,
            "school_name": "NUC EDUC INFANTIL ANTONIO RIBEIRO",
            "country_name": "Brazil",
            "connectivity": true
        },
        {
            "lon": -39.3227,
            "lat": -14.3173,
            "school_name": "EE - COLEGIO ESTADUAL PROFESSORA MARIA OLIMPIA - TEMPO INTEGRAL",
            "country_name": "Brazil",
            "connectivity": true
        },
        {
            "lon": -41.9163,
            "lat": -22.4919,
            "school_name": "E M ONDINA PINTO MARCONDES",
            "country_name": "Brazil",
            "connectivity": true
        },
        {
            "lon": -52.0801,
            "lat": -23.6157,
            "school_name": "ARTHUR C E SILVA E E PRES EF",
            "country_name": "Brazil",
            "connectivity": true
        },
        {
            "lon": -40.6728,
            "lat": -3.0402,
            "school_name": "QUINCAS DE OLIVEIRA EEF",
            "country_name": "Brazil",
            "connectivity": true
        },
        {
            "lon": -38.1383,
            "lat": -5.2178,
            "school_name": "SENHORINHA OLIVEIRA GONDIM EMEIF",
            "country_name": "Brazil",
            "connectivity": true
        },
        {
            "lon": -49.3028,
            "lat": -25.216,
            "school_name": "MARIA ELISA CRUZ E M PROFA EI EF",
            "country_name": "Brazil",
            "connectivity": true
        },
        {
            "lon": -51.1458,
            "lat": -23.3407,
            "school_name": "ANDREA NUZZI E M MAESTRO EF",
            "country_name": "Brazil",
            "connectivity": true
        },
        {
            "lon": -39.0759,
            "lat": -11.5287,
            "school_name": "ESCOLA MUNICIPAL JORGE LUIZ SILVA SANTOS",
            "country_name": "Brazil",
            "connectivity": true
        },
        {
            "lon": -38.4984,
            "lat": -4.0373,
            "school_name": "JOSE NICODEMOS ASSUNCAO CENTRO DE EDUCACAO INFANTIL",
            "country_name": "Brazil",
            "connectivity": true
        },
        {
            "lon": -38.4547,
            "lat": -3.7451,
            "school_name": "ESCOLA MUNICIPAL DOM ALOISIO LORSCHEIDER",
            "country_name": "Brazil",
            "connectivity": true
        },
        {
            "lon": -44.077,
            "lat": -19.7547,
            "school_name": "EE JOSE ANTONIO PESSOA",
            "country_name": "Brazil",
            "connectivity": true
        },
        {
            "lon": -35.2538,
            "lat": -5.8243,
            "school_name": "ESCOLA ESTADUAL PROFESSORA MARIA LUIZA ALVES COSTA",
            "country_name": "Brazil",
            "connectivity": true
        },
        {
            "lon": -45.2826,
            "lat": -20.881,
            "school_name": "CEMEI - CEMEI PADRE JUSTINO OBERS",
            "country_name": "Brazil",
            "connectivity": true
        },
        {
            "lon": -38.2164,
            "lat": -8.9773,
            "school_name": "CRECHE MUNICIPAL CRIANCA FELIZ",
            "country_name": "Brazil",
            "connectivity": true
        },
        {
            "lon": -35.252,
            "lat": -5.7238,
            "school_name": "ESCOLA ESTADUAL PROFESSORA MARIA DE LOURDES CAMARA SOUTO",
            "country_name": "Brazil",
            "connectivity": true
        }
    ],
    "num_countries": 13,
    "countries": [
        "Benin",
        "Brazil",
        "Colombia",
        "Costa Rica",
        "Honduras",
        "Kazakhstan",
        "Kyrgyzstan",
        "Namibia",
        "Palestine",
        "Philippines",
        "Rwanda",
        "Sierra Leone",
        "Zimbabwe"
    ],
    "schools_no_data": [
        {
            "lon": -8.140282008,
            "lat": 5.645895871,
            "school_name": "Isaac J. Williams Mem. Institute",
            "country_name": "Liberia",
            "connectivity": false
        },
        {
            "lon": -8.369296,
            "lat": 6.775763,
            "school_name": "Kaffeeglay Public School",
            "country_name": "Liberia",
            "connectivity": false
        },
        {
            "lon": -8.541915,
            "lat": 5.592172,
            "school_name": "Mile 48 Elementary School",
            "country_name": "Liberia",
            "connectivity": false
        },
        {
            "lon": -0.2357365,
            "lat": 5.5276303,
            "school_name": "Name unknown",
            "country_name": "Ghana",
            "connectivity": false
        },
        {
            "lon": 33.1841026,
            "lat": 14.9018441666667,
            "school_name": "Name unknown",
            "country_name": "Sudan",
            "connectivity": false
        },
        {
            "lon": 32.9876847333333,
            "lat": 14.2396358666667,
            "school_name": "Name unknown",
            "country_name": "Sudan",
            "connectivity": false
        },
        {
            "lon": 32.77053708,
            "lat": 12.27615845,
            "school_name": "Name unknown",
            "country_name": "Sudan",
            "connectivity": false
        },
        {
            "lon": 21.92268133,
            "lat": 42.4250563,
            "school_name": "\u0411\u0440\u0430\u043d\u0438\u0441\u043b\u0430\u0432 \u041d\u0443\u0448\u0438\u045b",
            "country_name": "Serbia",
            "connectivity": false
        },
        {
            "lon": -1.9940722,
            "lat": 5.3004933,
            "school_name": "Name unknown",
            "country_name": "Ghana",
            "connectivity": false
        },
        {
            "lon": -1.2922802,
            "lat": 5.1190897,
            "school_name": "Name unknown",
            "country_name": "Ghana",
            "connectivity": false
        },
        {
            "lon": -1.400529,
            "lat": 6.0673493,
            "school_name": "Name unknown",
            "country_name": "Ghana",
            "connectivity": false
        },
        {
            "lon": -0.1652655,
            "lat": 5.6281705,
            "school_name": "Name unknown",
            "country_name": "Ghana",
            "connectivity": false
        },
        {
            "lon": -0.6397176,
            "lat": 5.3533665,
            "school_name": "Name unknown",
            "country_name": "Ghana",
            "connectivity": false
        },
        {
            "lon": 34.4457627,
            "lat": 0.8139922,
            "school_name": "Kapsesoi S.A. Primary School",
            "country_name": "Kenya",
            "connectivity": false
        },
        {
            "lon": -0.1004016,
            "lat": 5.584208,
            "school_name": "Name unknown",
            "country_name": "Ghana",
            "connectivity": false
        },
        {
            "lon": -1.6759193,
            "lat": 6.4402303,
            "school_name": "Name unknown",
            "country_name": "Ghana",
            "connectivity": false
        },
        {
            "lon": -1.3832957,
            "lat": 6.851782,
            "school_name": "Name unknown",
            "country_name": "Ghana",
            "connectivity": false
        },
        {
            "lon": 36.63279,
            "lat": -3.26867,
            "school_name": "MAASAY JOY",
            "country_name": "United Republic of Tanzania",
            "connectivity": false
        },
        {
            "lon": 31.32261,
            "lat": -1.25498,
            "school_name": "KITENGULE",
            "country_name": "United Republic of Tanzania",
            "connectivity": false
        },
        {
            "lon": 31.005,
            "lat": -2.77334,
            "school_name": "MIHONGORA",
            "country_name": "United Republic of Tanzania",
            "connectivity": false
        },
        {
            "lon": 39.22174,
            "lat": -6.78303,
            "school_name": "LUQMAN",
            "country_name": "United Republic of Tanzania",
            "connectivity": false
        },
        {
            "lon": 32.98955,
            "lat": -3.07929,
            "school_name": "CHATA",
            "country_name": "United Republic of Tanzania",
            "connectivity": false
        },
        {
            "lon": 34.00647,
            "lat": -1.37769,
            "school_name": "MUCHIROBI",
            "country_name": "United Republic of Tanzania",
            "connectivity": false
        },
        {
            "lon": 39.23312,
            "lat": -8.82454,
            "school_name": "MIGEREGERE",
            "country_name": "United Republic of Tanzania",
            "connectivity": false
        },
        {
            "lon": 31.41491,
            "lat": -8.08951,
            "school_name": "LOLESHA",
            "country_name": "United Republic of Tanzania",
            "connectivity": false
        },
        {
            "lon": 31.54733,
            "lat": -1.08392,
            "school_name": "LUKUBA",
            "country_name": "United Republic of Tanzania",
            "connectivity": false
        },
        {
            "lon": 37.59929,
            "lat": -3.20431,
            "school_name": "KIFUFUU",
            "country_name": "United Republic of Tanzania",
            "connectivity": false
        },
        {
            "lon": 37.43796,
            "lat": -5.38282,
            "school_name": "KWAMALIGWA",
            "country_name": "United Republic of Tanzania",
            "connectivity": false
        },
        {
            "lon": 20.23756742,
            "lat": 45.12437544,
            "school_name": "\u0414\u0440 \u0402\u043e\u0440\u0452\u0435 \u041d\u0430\u0442\u043e\u0448\u0435\u0432\u0438\u045b",
            "country_name": "Serbia",
            "connectivity": false
        },
        {
            "lon": 1.168294,
            "lat": 6.61935,
            "school_name": "EPP KOUNIKO",
            "country_name": "Togo",
            "connectivity": false
        },
        {
            "lon": 1.105211,
            "lat": 6.280041,
            "school_name": "EPP KPALA",
            "country_name": "Togo",
            "connectivity": false
        },
        {
            "lon": 1.128582,
            "lat": 9.018545,
            "school_name": "EPP KPANGALAM CHATEAU G/A",
            "country_name": "Togo",
            "connectivity": false
        },
        {
            "lon": 0.462976,
            "lat": 10.682617,
            "school_name": "EPP DJIBOANLE",
            "country_name": "Togo",
            "connectivity": false
        },
        {
            "lon": 19.45215225,
            "lat": 44.72716204,
            "school_name": "\u0408\u043e\u0432\u0430\u043d \u0426\u0432\u0438\u0458\u0438\u045b",
            "country_name": "Serbia",
            "connectivity": false
        },
        {
            "lon": 21.010444,
            "lat": 44.687696,
            "school_name": "\u0408\u043e\u0432\u0430\u043d \u0408\u043e\u0432\u0430\u043d\u043e\u0432\u0438\u045b \u0417\u043c\u0430\u0458",
            "country_name": "Serbia",
            "connectivity": false
        },
        {
            "lon": 33.34278,
            "lat": -2.95136,
            "school_name": "NGUMO",
            "country_name": "United Republic of Tanzania",
            "connectivity": false
        },
        {
            "lon": 31.84972,
            "lat": -2.87056,
            "school_name": "MAPINDUZI - B",
            "country_name": "United Republic of Tanzania",
            "connectivity": false
        },
        {
            "lon": 34.09193,
            "lat": -1.04467,
            "school_name": "KIRONGWE",
            "country_name": "United Republic of Tanzania",
            "connectivity": false
        },
        {
            "lon": 34.51755744,
            "lat": -15.71026893,
            "school_name": "Tchetsa",
            "country_name": "Malawi",
            "connectivity": false
        },
        {
            "lon": 35.07628347,
            "lat": -15.87070169,
            "school_name": "Seyama",
            "country_name": "Malawi",
            "connectivity": false
        },
        {
            "lon": 33.78498938,
            "lat": -14.02426022,
            "school_name": "St John's Primary School",
            "country_name": "Malawi",
            "connectivity": false
        },
        {
            "lon": 35.76519214,
            "lat": -14.72695719,
            "school_name": "Chitundu",
            "country_name": "Malawi",
            "connectivity": false
        },
        {
            "lon": 29.74222222,
            "lat": -7.2666667,
            "school_name": "EP NTOMPA",
            "country_name": "Democratic Republic of the Congo",
            "connectivity": false
        },
        {
            "lon": 21.01108626,
            "lat": -0.004231754,
            "school_name": "INST BESONGOTE",
            "country_name": "Democratic Republic of the Congo",
            "connectivity": false
        },
        {
            "lon": 22.64385933,
            "lat": -0.61411651,
            "school_name": "INST   BLAISE MBONDJO",
            "country_name": "Democratic Republic of the Congo",
            "connectivity": false
        },
        {
            "lon": 22.81101477,
            "lat": 4.201245382,
            "school_name": "INST ZUA",
            "country_name": "Democratic Republic of the Congo",
            "connectivity": false
        },
        {
            "lon": 24.61752402,
            "lat": -5.519798345,
            "school_name": "EP MPENGIE",
            "country_name": "Democratic Republic of the Congo",
            "connectivity": false
        },
        {
            "lon": 27.22359897,
            "lat": -10.74629822,
            "school_name": "INST KONI",
            "country_name": "Democratic Republic of the Congo",
            "connectivity": false
        },
        {
            "lon": 26.35072917,
            "lat": -11.50245369,
            "school_name": "INST PENGEMALI",
            "country_name": "Democratic Republic of the Congo",
            "connectivity": false
        },
        {
            "lon": 27.47250565,
            "lat": -11.60092574,
            "school_name": "CS HEKIMA NITAJI",
            "country_name": "Democratic Republic of the Congo",
            "connectivity": false
        },
        {
            "lon": 27.350217,
            "lat": -8.641865507,
            "school_name": "EP KADINGA",
            "country_name": "Democratic Republic of the Congo",
            "connectivity": false
        },
        {
            "lon": 26.32551504,
            "lat": -10.61485037,
            "school_name": "INST LUPETO",
            "country_name": "Democratic Republic of the Congo",
            "connectivity": false
        },
        {
            "lon": 26.41667444,
            "lat": -1.460978476,
            "school_name": "EP MAENDELEO",
            "country_name": "Democratic Republic of the Congo",
            "connectivity": false
        },
        {
            "lon": 26.36381242,
            "lat": -2.02685834,
            "school_name": "INST FURASHISHA",
            "country_name": "Democratic Republic of the Congo",
            "connectivity": false
        },
        {
            "lon": 28.48101944,
            "lat": -2.971491667,
            "school_name": "EP BISENGE",
            "country_name": "Democratic Republic of the Congo",
            "connectivity": false
        },
        {
            "lon": 13.476301,
            "lat": -5.81450571,
            "school_name": "COLLEGE  SAINT  HUSUELTHE",
            "country_name": "Democratic Republic of the Congo",
            "connectivity": false
        },
        {
            "lon": -90.512781,
            "lat": 19.85473,
            "school_name": "INSTITUTO MORELOS",
            "country_name": "Mexico",
            "connectivity": false
        },
        {
            "lon": -15.90264,
            "lat": 18.06957,
            "school_name": "EL DHIYAFA",
            "country_name": "Mauritania",
            "connectivity": false
        },
        {
            "lon": 34.04019,
            "lat": 1.91241,
            "school_name": "ODOOT PRIMARY SCHOOL",
            "country_name": "Uganda",
            "connectivity": false
        },
        {
            "lon": 34.02826,
            "lat": 1.44116,
            "school_name": "KACOC  P/SCHOOL",
            "country_name": "Uganda",
            "connectivity": false
        },
        {
            "lon": 31.6405,
            "lat": -0.34338,
            "school_name": "ST. JOSEPH SEC  SCHOOL",
            "country_name": "Uganda",
            "connectivity": false
        },
        {
            "lon": 30.34077,
            "lat": -0.56345,
            "school_name": "Nyamufumuka Parents",
            "country_name": "Uganda",
            "connectivity": false
        },
        {
            "lon": 32.50972,
            "lat": 2.91826,
            "school_name": "Lapuda P.S.",
            "country_name": "Uganda",
            "connectivity": false
        },
        {
            "lon": 32.0134,
            "lat": 2e-05,
            "school_name": "Nkozi Dem' P.S.",
            "country_name": "Uganda",
            "connectivity": false
        },
        {
            "lon": 32.75437,
            "lat": 0.36041,
            "school_name": "Gulu Pri",
            "country_name": "Uganda",
            "connectivity": false
        },
        {
            "lon": 31.61296,
            "lat": -0.52556,
            "school_name": "Green hillside sch",
            "country_name": "Uganda",
            "connectivity": false
        },
        {
            "lon": 29.80374,
            "lat": -1.00486,
            "school_name": "Runyami P.S.",
            "country_name": "Uganda",
            "connectivity": false
        },
        {
            "lon": 32.45938,
            "lat": 0.05944,
            "school_name": "Lake View S.S",
            "country_name": "Uganda",
            "connectivity": false
        },
        {
            "lon": 30.11758,
            "lat": -0.20162,
            "school_name": "Kirugu S.S.",
            "country_name": "Uganda",
            "connectivity": false
        },
        {
            "lon": 30.56637,
            "lat": -0.37034,
            "school_name": "Rwamukondo P.S.",
            "country_name": "Uganda",
            "connectivity": false
        },
        {
            "lon": 34.00456,
            "lat": 1.55391,
            "school_name": "Atuitui P.S.",
            "country_name": "Uganda",
            "connectivity": false
        },
        {
            "lon": 30.57492,
            "lat": 0.43471,
            "school_name": "Kaburanda P.S",
            "country_name": "Uganda",
            "connectivity": false
        },
        {
            "lon": 34.21206,
            "lat": 0.98639,
            "school_name": "Nabumali Day P.S.",
            "country_name": "Uganda",
            "connectivity": false
        },
        {
            "lon": 32.04096,
            "lat": 0.50016,
            "school_name": "Buyagga P.S.",
            "country_name": "Uganda",
            "connectivity": false
        },
        {
            "lon": 31.0294,
            "lat": -25.7762,
            "school_name": "Ekucathuzeni Primary School",
            "country_name": "South Africa",
            "connectivity": false
        },
        {
            "lon": 31.0426,
            "lat": -25.38793,
            "school_name": "Idonsa Primary School",
            "country_name": "South Africa",
            "connectivity": false
        },
        {
            "lon": 18.50443,
            "lat": -33.81945,
            "school_name": "Doddwoods",
            "country_name": "South Africa",
            "connectivity": false
        },
        {
            "lon": 29.18196,
            "lat": -25.86921,
            "school_name": "Khozimfudo Primary School",
            "country_name": "South Africa",
            "connectivity": false
        },
        {
            "lon": 31.10357,
            "lat": -24.69536,
            "school_name": "Maakere High School",
            "country_name": "South Africa",
            "connectivity": false
        },
        {
            "lon": 28.86128,
            "lat": -25.38258,
            "school_name": "Sikhulisiwe Primary School",
            "country_name": "South Africa",
            "connectivity": false
        },
        {
            "lon": 6.23023,
            "lat": 5.796382,
            "school_name": "Name unknown",
            "country_name": "Nigeria",
            "connectivity": false
        },
        {
            "lon": 23.77459,
            "lat": -26.12649,
            "school_name": "Seapei",
            "country_name": "South Africa",
            "connectivity": false
        },
        {
            "lon": 18.43185,
            "lat": -34.07221,
            "school_name": "Reddam House School",
            "country_name": "South Africa",
            "connectivity": false
        },
        {
            "lon": 18.43173,
            "lat": -34.13269,
            "school_name": "Laerskool Paul Greyling",
            "country_name": "South Africa",
            "connectivity": false
        },
        {
            "lon": 24.72112,
            "lat": -28.71045,
            "school_name": "Thabane High School",
            "country_name": "South Africa",
            "connectivity": false
        },
        {
            "lon": 18.51071,
            "lat": -33.80374,
            "school_name": "Educare",
            "country_name": "South Africa",
            "connectivity": false
        },
        {
            "lon": 29.49252,
            "lat": -25.0195,
            "school_name": "Hlakudi Primary School",
            "country_name": "South Africa",
            "connectivity": false
        },
        {
            "lon": 29.68674,
            "lat": -23.76861,
            "school_name": "Banabathari School",
            "country_name": "South Africa",
            "connectivity": false
        },
        {
            "lon": 29.87295,
            "lat": -24.46724,
            "school_name": "Moroamoche Primary",
            "country_name": "South Africa",
            "connectivity": false
        },
        {
            "lon": 29.84832,
            "lat": -30.23837,
            "school_name": "Zizamele Senior Primary School",
            "country_name": "South Africa",
            "connectivity": false
        },
        {
            "lon": 30.10905,
            "lat": -28.89626,
            "school_name": "Mkholombe Primary School",
            "country_name": "South Africa",
            "connectivity": false
        },
        {
            "lon": 30.87301,
            "lat": -30.06471,
            "school_name": "Amanzimtoti Secondary School",
            "country_name": "South Africa",
            "connectivity": false
        },
        {
            "lon": 29.6608,
            "lat": -29.56806,
            "school_name": "Glen Primary School",
            "country_name": "South Africa",
            "connectivity": false
        },
        {
            "lon": 30.24097,
            "lat": -30.95803,
            "school_name": "Khaba Junior Secondary School",
            "country_name": "South Africa",
            "connectivity": false
        },
        {
            "lon": 30.67362,
            "lat": -27.41229,
            "school_name": "Grootspruit Commercial High School",
            "country_name": "South Africa",
            "connectivity": false
        },
        {
            "lon": 28.60663,
            "lat": -23.84126,
            "school_name": "Mookamedi Secondary School",
            "country_name": "South Africa",
            "connectivity": false
        },
        {
            "lon": 28.95184,
            "lat": -24.14895,
            "school_name": "Setjoamadi Primary School",
            "country_name": "South Africa",
            "connectivity": false
        },
        {
            "lon": 30.4729,
            "lat": -22.9442,
            "school_name": "Phaswana Secondary",
            "country_name": "South Africa",
            "connectivity": false
        },
        {
            "lon": 32.15838,
            "lat": -28.02696,
            "school_name": "Macabuzela Primary School",
            "country_name": "South Africa",
            "connectivity": false
        },
        {
            "lon": 30.97146,
            "lat": -29.74243,
            "school_name": "Mukelani Senior Primary School",
            "country_name": "South Africa",
            "connectivity": false
        },
        {
            "lon": 28.09849,
            "lat": -25.49853,
            "school_name": "Siyokhela Primary School",
            "country_name": "South Africa",
            "connectivity": false
        },
        {
            "lon": 27.96348,
            "lat": -26.08088,
            "school_name": "Bush Hill Pre Primary School",
            "country_name": "South Africa",
            "connectivity": false
        },
        {
            "lon": 28.03411,
            "lat": -26.24106,
            "school_name": "Turffontein Primary School",
            "country_name": "South Africa",
            "connectivity": false
        },
        {
            "lon": 28.2772,
            "lat": -25.7671,
            "school_name": "Master Maths",
            "country_name": "South Africa",
            "connectivity": false
        },
        {
            "lon": 28.35764,
            "lat": -26.36027,
            "school_name": "Thuthukanisizwe Primary School",
            "country_name": "South Africa",
            "connectivity": false
        },
        {
            "lon": 28.11887,
            "lat": -26.01363,
            "school_name": "Nick Mpshe Secondary School",
            "country_name": "South Africa",
            "connectivity": false
        },
        {
            "lon": 28.17592,
            "lat": -32.30928,
            "school_name": "Zhukunyo Junior Secondary School",
            "country_name": "South Africa",
            "connectivity": false
        },
        {
            "lon": 27.36702,
            "lat": -30.62765,
            "school_name": "Magwiji Junior Secondary School",
            "country_name": "South Africa",
            "connectivity": false
        },
        {
            "lon": 25.00293,
            "lat": -31.49135,
            "school_name": "Ho?\u0192?\u00abrskool Middelburg",
            "country_name": "South Africa",
            "connectivity": false
        },
        {
            "lon": -57.6306304,
            "lat": -35.7174064,
            "school_name": "ESCUELA PRIMARIA N\u00ba50 SAN JOSE DE CALAZANZ",
            "country_name": "Argentina",
            "connectivity": false
        },
        {
            "lon": -60.5916217,
            "lat": -37.0207156,
            "school_name": "ESCUELA PRIMARIA N\u00ba21 YAPEYU",
            "country_name": "Argentina",
            "connectivity": false
        },
        {
            "lon": -60.6179897,
            "lat": -31.5146463,
            "school_name": "NUCLEO II - JARDIN DE INFANTES NRO 92",
            "country_name": "Argentina",
            "connectivity": false
        },
        {
            "lon": -62.8168503,
            "lat": -38.0110284,
            "school_name": "ESCUELA PRIMARIA N\u00ba4 PEDRO BONIFACIO PALACIOS",
            "country_name": "Argentina",
            "connectivity": false
        },
        {
            "lon": -58.53620484,
            "lat": -34.58914155,
            "school_name": "NUESTRA SE\u00d1ORA DEL ROSARIO",
            "country_name": "Argentina",
            "connectivity": false
        },
        {
            "lon": -63.24873177,
            "lat": -32.39700839,
            "school_name": "CONSERVATORIO SUPERIOR DE MUSICA FELIPE BOERO",
            "country_name": "Argentina",
            "connectivity": false
        },
        {
            "lon": -58.78228179,
            "lat": -34.72036207,
            "school_name": "ESCUELA PRIMARIA N\u00ba32 GUSTAVO MARTINEZ ZUVIRIA",
            "country_name": "Argentina",
            "connectivity": false
        },
        {
            "lon": -60.47240838,
            "lat": -34.64721641,
            "school_name": "ESCUELA PRIMARIA N\u00ba4 JUAN BAUTISTA ALBERDI",
            "country_name": "Argentina",
            "connectivity": false
        },
        {
            "lon": -58.62443064,
            "lat": -34.64983528,
            "school_name": "INSTITUTO SUPERIOR N\u00ba108 M. DORREGO",
            "country_name": "Argentina",
            "connectivity": false
        },
        {
            "lon": -58.60756737,
            "lat": -34.76132881,
            "school_name": "ESCUELA PRIMARIA N\u00ba58 INDEPENDENCIA ARGENTINA",
            "country_name": "Argentina",
            "connectivity": false
        },
        {
            "lon": -58.77844335,
            "lat": -34.40985492,
            "school_name": "COLEGIO INMACULADA CONCEPCION",
            "country_name": "Argentina",
            "connectivity": false
        },
        {
            "lon": -59.03985114,
            "lat": -34.08031924,
            "school_name": "ESCUELA SECUNDARIA N\u00ba7",
            "country_name": "Argentina",
            "connectivity": false
        },
        {
            "lon": -58.5629981,
            "lat": -34.6748376,
            "school_name": "CENTRO DE FORMACION PROFESIONAL N\u00ba415",
            "country_name": "Argentina",
            "connectivity": false
        },
        {
            "lon": -60.1034889,
            "lat": -34.0638771,
            "school_name": "CENTRO INVESTIGACION EDUCATIVA",
            "country_name": "Argentina",
            "connectivity": false
        },
        {
            "lon": -60.71463559,
            "lat": -25.75489688,
            "school_name": "E.E.P. N\u00ba 735",
            "country_name": "Argentina",
            "connectivity": false
        },
        {
            "lon": -58.94060541,
            "lat": -27.49307507,
            "school_name": "E.E.P. N\u00ba 433-MARTIN DE MOUSSY",
            "country_name": "Argentina",
            "connectivity": false
        },
        {
            "lon": -65.28600296,
            "lat": -43.26583394,
            "school_name": "PCIA. DE TUCUMAN",
            "country_name": "Argentina",
            "connectivity": false
        },
        {
            "lon": -63.4894341,
            "lat": -31.0322447,
            "school_name": "PROVINCIA DE SANTA FE",
            "country_name": "Argentina",
            "connectivity": false
        },
        {
            "lon": -62.0876,
            "lat": -31.434,
            "school_name": "J.DE INF. RAFAEL NU\u00d1EZ",
            "country_name": "Argentina",
            "connectivity": false
        },
        {
            "lon": -64.3359,
            "lat": -33.1262,
            "school_name": "CEDER RIO CUARTO",
            "country_name": "Argentina",
            "connectivity": false
        },
        {
            "lon": -56.84069459,
            "lat": -29.08333891,
            "school_name": "ESCUELA N\u00ba 902",
            "country_name": "Argentina",
            "connectivity": false
        },
        {
            "lon": -58.24932955,
            "lat": -32.49485823,
            "school_name": "BENIGNO TEJEIRO MARTINEZ 4",
            "country_name": "Argentina",
            "connectivity": false
        },
        {
            "lon": -58.87711103,
            "lat": -32.37755764,
            "school_name": "PRIV. CENTRO CAPACITACION TECNICA 130",
            "country_name": "Argentina",
            "connectivity": false
        },
        {
            "lon": -59.89455232,
            "lat": -31.66547447,
            "school_name": "ESCUELA SECUNDARIA 55 HEROES DE MALVINAS",
            "country_name": "Argentina",
            "connectivity": false
        },
        {
            "lon": -59.6873844,
            "lat": -24.7753181,
            "school_name": "EPEP N\u00b0 287 SAN JOSE DE CALASANZ",
            "country_name": "Argentina",
            "connectivity": false
        },
        {
            "lon": -59.85308154,
            "lat": -25.21548232,
            "school_name": "EPEP N\u00ba 64 REPUBLICA DE VENEZUELA",
            "country_name": "Argentina",
            "connectivity": false
        },
        {
            "lon": -58.07313,
            "lat": -25.21222,
            "school_name": "EPEP N\u00ba297 DR. DOMINGO F.SARMIENTO",
            "country_name": "Argentina",
            "connectivity": false
        },
        {
            "lon": -62.2746059,
            "lat": -22.73975311,
            "school_name": "JIN N\u00ba 35 - EPEP N\u00ba 385",
            "country_name": "Argentina",
            "connectivity": false
        },
        {
            "lon": -60.6197921,
            "lat": -24.0723633,
            "school_name": "CBOSR EPEP N\u00b0 190 ANEXO 3",
            "country_name": "Argentina",
            "connectivity": false
        },
        {
            "lon": -59.462006,
            "lat": -24.5005186,
            "school_name": "JIN N\u00b0 25 - EPEP N\u00b0 327",
            "country_name": "Argentina",
            "connectivity": false
        },
        {
            "lon": -61.4705213,
            "lat": -23.4612449,
            "school_name": "CBOSR EPEP N\u00b0486",
            "country_name": "Argentina",
            "connectivity": false
        },
        {
            "lon": -66.85522172,
            "lat": -29.41008917,
            "school_name": "ESC.OPERADORES TOPOGRAFOS GENERAL SAN MARTIN",
            "country_name": "Argentina",
            "connectivity": false
        },
        {
            "lon": -68.07073864,
            "lat": -38.95261272,
            "school_name": "JARDIN DE INFANTES 14 AYELEN",
            "country_name": "Argentina",
            "connectivity": false
        },
        {
            "lon": -68.04334104,
            "lat": -38.95577638,
            "school_name": "COLEGIO DE CAPACITACION TECNICA SAN JOSE OBRERO N. MEDIO",
            "country_name": "Argentina",
            "connectivity": false
        },
        {
            "lon": -67.80810755,
            "lat": -38.99046528,
            "school_name": "JARDIN DE INFANTES INDEPENDIENTE NRO.30 NI\u00d1OS DE LA PATAG.",
            "country_name": "Argentina",
            "connectivity": false
        },
        {
            "lon": -63.80124863,
            "lat": -22.51916531,
            "school_name": "COLEGIO SECUNDARIO ALEJANDRO AGUADO EX N\u00b0 2",
            "country_name": "Argentina",
            "connectivity": false
        },
        {
            "lon": -61.75445256,
            "lat": -31.6793736,
            "school_name": "ESCUELA PARTIC.INC. NRO 1066 SANTA MARIA DE LOS ANGELES",
            "country_name": "Argentina",
            "connectivity": false
        },
        {
            "lon": -64.34177,
            "lat": -26.09186,
            "school_name": "ESCUELA N\u00ba1130",
            "country_name": "Argentina",
            "connectivity": false
        },
        {
            "lon": -64.23966513,
            "lat": -27.83827278,
            "school_name": "JARDIN DE INFANTES N\u00ba64 WALT DISNEY",
            "country_name": "Argentina",
            "connectivity": false
        },
        {
            "lon": -64.19989,
            "lat": -28.3,
            "school_name": "CENTRO DE ALFABETIZACION N\u00b0 099",
            "country_name": "Argentina",
            "connectivity": false
        },
        {
            "lon": 5.660106,
            "lat": 5.888832,
            "school_name": "Name unknown",
            "country_name": "Nigeria",
            "connectivity": false
        },
        {
            "lon": 6.0068,
            "lat": 5.45669,
            "school_name": "Name unknown",
            "country_name": "Nigeria",
            "connectivity": false
        },
        {
            "lon": 6.049866,
            "lat": 5.54941,
            "school_name": "Name unknown",
            "country_name": "Nigeria",
            "connectivity": false
        },
        {
            "lon": 7.32295,
            "lat": 5.263461,
            "school_name": "Name unknown",
            "country_name": "Nigeria",
            "connectivity": false
        },
        {
            "lon": 12.21097596,
            "lat": 10.58271501,
            "school_name": "Name unknown",
            "country_name": "Nigeria",
            "connectivity": false
        },
        {
            "lon": 7.967798333,
            "lat": 6.198266667,
            "school_name": "Name unknown",
            "country_name": "Nigeria",
            "connectivity": false
        },
        {
            "lon": 7.55906,
            "lat": 5.953145,
            "school_name": "Name unknown",
            "country_name": "Nigeria",
            "connectivity": false
        },
        {
            "lon": 5.61646,
            "lat": 6.37537,
            "school_name": "Name unknown",
            "country_name": "Nigeria",
            "connectivity": false
        },
        {
            "lon": 6.326653115,
            "lat": 6.721744111,
            "school_name": "Name unknown",
            "country_name": "Nigeria",
            "connectivity": false
        },
        {
            "lon": 6.354223,
            "lat": 7.12473,
            "school_name": "Name unknown",
            "country_name": "Nigeria",
            "connectivity": false
        },
        {
            "lon": 13.51567544,
            "lat": 12.50627527,
            "school_name": "Name unknown",
            "country_name": "Nigeria",
            "connectivity": false
        },
        {
            "lon": 5.417256667,
            "lat": 7.63721,
            "school_name": "Name unknown",
            "country_name": "Nigeria",
            "connectivity": false
        },
        {
            "lon": 5.4228,
            "lat": 7.454166667,
            "school_name": "Name unknown",
            "country_name": "Nigeria",
            "connectivity": false
        },
        {
            "lon": 7.50431,
            "lat": 6.105447,
            "school_name": "Name unknown",
            "country_name": "Nigeria",
            "connectivity": false
        },
        {
            "lon": 3.34753,
            "lat": 6.47299,
            "school_name": "Name unknown",
            "country_name": "Nigeria",
            "connectivity": false
        },
        {
            "lon": 7.385422,
            "lat": 6.866425,
            "school_name": "Name unknown",
            "country_name": "Nigeria",
            "connectivity": false
        },
        {
            "lon": 7.3327,
            "lat": 9.09984,
            "school_name": "Name unknown",
            "country_name": "Nigeria",
            "connectivity": false
        },
        {
            "lon": 10.996335,
            "lat": 9.984131667,
            "school_name": "Name unknown",
            "country_name": "Nigeria",
            "connectivity": false
        },
        {
            "lon": 11.5637,
            "lat": 10.0149517,
            "school_name": "Name unknown",
            "country_name": "Nigeria",
            "connectivity": false
        },
        {
            "lon": 11.22112,
            "lat": 10.27439,
            "school_name": "Name unknown",
            "country_name": "Nigeria",
            "connectivity": false
        },
        {
            "lon": 7.187253333,
            "lat": 5.478453333,
            "school_name": "Name unknown",
            "country_name": "Nigeria",
            "connectivity": false
        },
        {
            "lon": -76.5765,
            "lat": -8.17107,
            "school_name": "3",
            "country_name": "Peru",
            "connectivity": false
        },
        {
            "lon": -76.6066,
            "lat": -8.17062,
            "school_name": "671",
            "country_name": "Peru",
            "connectivity": false
        },
        {
            "lon": -76.6486,
            "lat": -7.48341,
            "school_name": "0755 HORACIO ZEVALLOS GAMEZ",
            "country_name": "Peru",
            "connectivity": false
        },
        {
            "lon": -79.2214,
            "lat": -6.06113,
            "school_name": "11159 VIRGEN DEL CARMEN",
            "country_name": "Peru",
            "connectivity": false
        },
        {
            "lon": -70.133,
            "lat": -13.8721,
            "school_name": "1128 MI NUEVO HOGAR",
            "country_name": "Peru",
            "connectivity": false
        },
        {
            "lon": -71.9796,
            "lat": -12.7832,
            "school_name": "1154",
            "country_name": "Peru",
            "connectivity": false
        },
        {
            "lon": -76.1405,
            "lat": -8.65399,
            "school_name": "1305",
            "country_name": "Peru",
            "connectivity": false
        },
        {
            "lon": -79.5622,
            "lat": -5.65069,
            "school_name": "14934",
            "country_name": "Peru",
            "connectivity": false
        },
        {
            "lon": -79.7707,
            "lat": -4.6679,
            "school_name": "15091",
            "country_name": "Peru",
            "connectivity": false
        },
        {
            "lon": -79.7296,
            "lat": -5.99205,
            "school_name": "167",
            "country_name": "Peru",
            "connectivity": false
        },
        {
            "lon": -73.1011,
            "lat": -14.0349,
            "school_name": "175 SULIMANA",
            "country_name": "Peru",
            "connectivity": false
        },