{
    "name": "Patchwork Kingdom #376 | Rorolbos",
    "description": "The twin kingdoms of Rorolbos, separated by a digital divide. A bustling kingdom of 129 schools on top that are all connected to the internet, and 98 schools, not connected, hidden in the upside down kingdom | Created for Giga (GigaConnect.org) \u2014 connecting every school in the world \u2014 in celebration of UNICEF's 75th birthday, by Nadieh Bremer",
    "external_url": "https://dummyURL.com/patchwork_kingdoms_376",
    "image": "https://dummy-storage-url.com/patchwork_kingdoms_376.png",
    "attributes": [
        {
            "trait_type": "Color palette",
            "value": "unicorn"
        },
        {
            "display_type": "number",
            "trait_type": "Schools",
            "value": 241,
            "max_value": 460
        },
        {
            "display_type": "number",
            "trait_type": "Ratio - Connected",
            "value": 0.54,
            "max_value": 1
        },
        {
            "display_type": "number",
            "trait_type": "Ratio - Unconnected",
            "value": 0.41,
            "max_value": 1
        },
        {
            "display_type": "number",
            "trait_type": "Ratio - Data unavailable",
            "value": 0.06,
            "max_value": 1
        },
        {
            "trait_type": "Countries",
            "value": "BJ-BR-CO-CR-HN-KZ-NA-PH-PS-RW-SL-ZW"
        },
        {
            "display_type": "number",
            "trait_type": "Symbols",
            "value": 43,
            "max_value": 51
        }
    ],
    "cluster_id": 376,
    "num_schools": 241,
    "num_schools_connected": 129,
    "num_schools_unconnected": 98,
    "num_schools_unknown": 14,
    "schools": [
        {
            "lon": 121.702993,
            "lat": 17.819059,
            "school_name": "Unag-Annabuculan ES",
            "country_name": "Philippines",
            "connectivity": true
        },
        {
            "lon": -87.64497,
            "lat": 14.33554,
            "school_name": "JOSE TRINIDAD REYES",
            "country_name": "Honduras",
            "connectivity": true
        },
        {
            "lon": -87.92271,
            "lat": 14.21929,
            "school_name": "UNION Y FE",
            "country_name": "Honduras",
            "connectivity": true
        },
        {
            "lon": -88.72514,
            "lat": 15.28223,
            "school_name": "EL TRIUNFO",
            "country_name": "Honduras",
            "connectivity": true
        },
        {
            "lon": -56.0763,
            "lat": -20.2899,
            "school_name": "ESCOLA MUNICIPAL VISCONDE DE TAUNAY",
            "country_name": "Brazil",
            "connectivity": true
        },
        {
            "lon": -87.51253,
            "lat": 14.80937,
            "school_name": "RODIMIRO DIAZ ZELAYA",
            "country_name": "Honduras",
            "connectivity": true
        },
        {
            "lon": 31.28715,
            "lat": -16.74963,
            "school_name": "NYAMARIDZA",
            "country_name": "Zimbabwe",
            "connectivity": true
        },
        {
            "lon": 31.64708,
            "lat": -19.30342,
            "school_name": "MURAMBINDA  'A'",
            "country_name": "Zimbabwe",
            "connectivity": true
        },
        {
            "lon": -43.2729,
            "lat": -22.8493,
            "school_name": "0410812 EDI CORONEL ASSUNCAO",
            "country_name": "Brazil",
            "connectivity": true
        },
        {
            "lon": -84.08556104,
            "lat": 9.80679147,
            "school_name": "CHIROGRES",
            "country_name": "Costa Rica",
            "connectivity": true
        },
        {
            "lon": -85.49109467,
            "lat": 10.25728994,
            "school_name": "ULISES DELGADO AGUILERA",
            "country_name": "Costa Rica",
            "connectivity": true
        },
        {
            "lon": -83.37758184,
            "lat": 10.17960437,
            "school_name": "LA PERLA",
            "country_name": "Costa Rica",
            "connectivity": true
        },
        {
            "lon": 35.199843,
            "lat": 31.913798,
            "school_name": "ein mesbah basic",
            "country_name": "Palestine",
            "connectivity": true
        },
        {
            "lon": 35.217099,
            "lat": 31.646306,
            "school_name": "tuquu.s.s.f.b",
            "country_name": "Palestine",
            "connectivity": true
        },
        {
            "lon": 35.158131,
            "lat": 31.51904,
            "school_name": "bni naeam secondry boys",
            "country_name": "Palestine",
            "connectivity": true
        },
        {
            "lon": 34.91124,
            "lat": 31.438513,
            "school_name": "al borj sec girls school",
            "country_name": "Palestine",
            "connectivity": true
        },
        {
            "lon": 25.98709,
            "lat": -18.08265,
            "school_name": "NDLOVU",
            "country_name": "Zimbabwe",
            "connectivity": true
        },
        {
            "lon": -56.068,
            "lat": -9.847,
            "school_name": "E M MENINO JESUS",
            "country_name": "Brazil",
            "connectivity": true
        },
        {
            "lon": 122.0405786,
            "lat": 12.24726132,
            "school_name": "Don Manuel L. Solidum Memorial Elementary School",
            "country_name": "Philippines",
            "connectivity": true
        },
        {
            "lon": 120.988831,
            "lat": 13.413603,
            "school_name": "Saclag Settlement Farm Sch.",
            "country_name": "Philippines",
            "connectivity": true
        },
        {
            "lon": 123.564161,
            "lat": 12.439209,
            "school_name": "B. TITONG ELEMENTARY SCHOOL",
            "country_name": "Philippines",
            "connectivity": true
        },
        {
            "lon": 122.494125,
            "lat": 11.098567,
            "school_name": "Tabucan PS",
            "country_name": "Philippines",
            "connectivity": true
        },
        {
            "lon": 124.44485,
            "lat": 9.88857,
            "school_name": "Alicia Central Elem.",
            "country_name": "Philippines",
            "connectivity": true
        },
        {
            "lon": 123.660652,
            "lat": 9.167941,
            "school_name": "Candaping Elementary School",
            "country_name": "Philippines",
            "connectivity": true
        },
        {
            "lon": 125.0621367,
            "lat": 12.39588036,
            "school_name": "Cagugubngan ES",
            "country_name": "Philippines",
            "connectivity": true
        },
        {
            "lon": 124.9277902,
            "lat": 11.01233182,
            "school_name": "PATONG ELEMENTARY SCHOOL",
            "country_name": "Philippines",
            "connectivity": true
        },
        {
            "lon": 124.6975123,
            "lat": 10.93872702,
            "school_name": "Talisayan ES",
            "country_name": "Philippines",
            "connectivity": true
        },
        {
            "lon": 125.6603902,
            "lat": 8.785876207,
            "school_name": "Senai ES",
            "country_name": "Philippines",
            "connectivity": true
        },
        {
            "lon": 120.8092171,
            "lat": 16.47199804,
            "school_name": "Bangao ES",
            "country_name": "Philippines",
            "connectivity": true
        },
        {
            "lon": 120.9884,
            "lat": 18.1186,
            "school_name": "Malitao PS",
            "country_name": "Philippines",
            "connectivity": true
        },
        {
            "lon": -43.699398,
            "lat": -22.747969,
            "school_name": "CIEP 155 MARIA JOAQUINA DE OLIVEIRA",
            "country_name": "Brazil",
            "connectivity": true
        },
        {
            "lon": 120.774755,
            "lat": 15.803467,
            "school_name": "Baloy ES",
            "country_name": "Philippines",
            "connectivity": true
        },
        {
            "lon": -72.37046283,
            "lat": 5.954448251,
            "school_name": "I.E. EL MORAL - SEDE PRINCIPAL",
            "country_name": "Colombia",
            "connectivity": true
        },
        {
            "lon": -72.67402386,
            "lat": 5.966678682,
            "school_name": "ESC RUR BISVITA",
            "country_name": "Colombia",
            "connectivity": true
        },
        {
            "lon": -72.75345839,
            "lat": 6.704610814,
            "school_name": "ESCUELA RURAL BUENAVISTA",
            "country_name": "Colombia",
            "connectivity": true
        },
        {
            "lon": -73.336981,
            "lat": 8.455127706,
            "school_name": "SEDE ELIAS PEREZ RAMIREZ",
            "country_name": "Colombia",
            "connectivity": true
        },
        {
            "lon": -73.79394994,
            "lat": 6.617610669,
            "school_name": "ESCUELA RURAL LA MILITOSA",
            "country_name": "Colombia",
            "connectivity": true
        },
        {
            "lon": -74.23628098,
            "lat": 2.361209582,
            "school_name": "SEDE PRINCIPAL - EL RUBI",
            "country_name": "Colombia",
            "connectivity": true
        },
        {
            "lon": -75.944722,
            "lat": 5.818611,
            "school_name": "C. E. R. ERNESTO ARANGO",
            "country_name": "Colombia",
            "connectivity": true
        },
        {
            "lon": -76.023333,
            "lat": 5.065278,
            "school_name": "SE ALTO BARCINAL",
            "country_name": "Colombia",
            "connectivity": true
        },
        {
            "lon": -76.10197264,
            "lat": 5.378796413,
            "school_name": "SE ARENALES",
            "country_name": "Colombia",
            "connectivity": true
        },
        {
            "lon": -76.21055556,
            "lat": 1.74666666,
            "school_name": "LA ESPERANZA",
            "country_name": "Colombia",
            "connectivity": true
        },
        {
            "lon": -76.36,
            "lat": 2.64,
            "school_name": "ESC SAN ANTONIO",
            "country_name": "Colombia",
            "connectivity": true
        },
        {
            "lon": -76.474722,
            "lat": 0.620278,
            "school_name": "ESC RUR MIX LA DIANA",
            "country_name": "Colombia",
            "connectivity": true
        },
        {
            "lon": -78.40356669,
            "lat": 2.491989385,
            "school_name": "CENTRO EDUCATIVO PAMPA QUI\u00d1ONES",
            "country_name": "Colombia",
            "connectivity": true
        },
        {
            "lon": -48.41,
            "lat": -9.5516,
            "school_name": "CENTRO MUNICIPAL DE EDUCACAO INFANTIL ISIS SARDINHA MORAES",
            "country_name": "Brazil",
            "connectivity": true
        },
        {
            "lon": -61.1616,
            "lat": -11.6869,
            "school_name": "EEEFM ORLANDO BUENO DA SILVA",
            "country_name": "Brazil",
            "connectivity": true
        },
        {
            "lon": -67.7951,
            "lat": -9.991,
            "school_name": "ESC DONA MOZINHA FEITOSA",
            "country_name": "Brazil",
            "connectivity": false
        },
        {
            "lon": -65.0936,
            "lat": -2.1971,
            "school_name": "ESC MUN BOA VISTA",
            "country_name": "Brazil",
            "connectivity": false
        },
        {
            "lon": -51.102,
            "lat": -29.6937,
            "school_name": "EMEF MACHADO DE ASSIS",
            "country_name": "Brazil",
            "connectivity": true
        },
        {
            "lon": -58.0482,
            "lat": -3.7766,
            "school_name": "ESC MUN ELVIRA DOS SANTOS LABORDA",
            "country_name": "Brazil",
            "connectivity": false
        },
        {
            "lon": -59.9476,
            "lat": -3.0152,
            "school_name": "EM CESAR AUGUSTO BEZERRA GALVAO",
            "country_name": "Brazil",
            "connectivity": true
        },
        {
            "lon": -61.3398,
            "lat": 3.7718,
            "school_name": "ESCOLA MUNICIPAL INDIGENA MARIO SIMPLICIO PERERIA",
            "country_name": "Brazil",
            "connectivity": true
        },
        {
            "lon": -50.66,
            "lat": -0.883,
            "school_name": "E M E F SANTO ANTONIO RIO TAUAJURI",
            "country_name": "Brazil",
            "connectivity": false
        },
        {
            "lon": -50.0859,
            "lat": -21.4187,
            "school_name": "CASA DA AMIZADE EMEF",
            "country_name": "Brazil",
            "connectivity": true
        },
        {
            "lon": -47.9822,
            "lat": -1.388,
            "school_name": "EMEI E F PROF MARIA BANDEIRA BRAGA",
            "country_name": "Brazil",
            "connectivity": false
        },
        {
            "lon": -49.073,
            "lat": -1.7468,
            "school_name": "E M E I F SAO BENEDITO",
            "country_name": "Brazil",
            "connectivity": false
        },
        {
            "lon": -48.8645,
            "lat": -6.4461,
            "school_name": "EEEM ALICE SILVEIRA LIMA",
            "country_name": "Brazil",
            "connectivity": false
        },
        {
            "lon": -54.8096,
            "lat": -1.5816,
            "school_name": "E M E I F NOSSA SENHORA DE APARECIDA II",
            "country_name": "Brazil",
            "connectivity": false
        },
        {
            "lon": -50.7185,
            "lat": -1.8022,
            "school_name": "EMEF JOSE MARIA RODRIGUES VIEGAS JUNIOR",
            "country_name": "Brazil",
            "connectivity": true
        },
        {
            "lon": -50.9089,
            "lat": -17.7811,
            "school_name": "ESCOLA MUNICIPAL DE ENSINO FUNDAMENTAL DOMINGOS MONI",
            "country_name": "Brazil",
            "connectivity": true
        },
        {
            "lon": -50.4774,
            "lat": -1.6911,
            "school_name": "E M E I COELHINHO FELIZ",
            "country_name": "Brazil",
            "connectivity": true
        },
        {
            "lon": -51.0467,
            "lat": 0.0442,
            "school_name": "ESC EST BENEVENUTO SOARES RODRIGUES",
            "country_name": "Brazil",
            "connectivity": false
        },
        {
            "lon": -48.9082,
            "lat": -11.3322,
            "school_name": "ESC EST ALIANCA DO TOCANTINS",
            "country_name": "Brazil",
            "connectivity": true
        },
        {
            "lon": -45.3748,
            "lat": -1.8843,
            "school_name": "EM SEVERA MAFRA",
            "country_name": "Brazil",
            "connectivity": true
        },
        {
            "lon": -45.4061,
            "lat": -5.5874,
            "school_name": "UI JOAO MARTINS JORGE - CATETE DE CIMA",
            "country_name": "Brazil",
            "connectivity": false
        },
        {
            "lon": -44.2892,
            "lat": -3.1647,
            "school_name": "EM JOSE DOS REIS CARVALHO",
            "country_name": "Brazil",
            "connectivity": true
        },
        {
            "lon": -43.784,
            "lat": -6.1815,
            "school_name": "ESCOLA MUNICIPAL PROFESSORA MARIA JOSE REIS",
            "country_name": "Brazil",
            "connectivity": true
        },
        {
            "lon": -45.7792,
            "lat": -2.5284,
            "school_name": "CENTRO EDUCACIONAL RAIMUNDO CARVALHO RAMOS",
            "country_name": "Brazil",
            "connectivity": true
        },
        {
            "lon": -42.2209,
            "lat": -3.8518,
            "school_name": "ESCOLA MUNICIPAL JOAQUIM BATISTA DE AMORIM",
            "country_name": "Brazil",
            "connectivity": false
        },
        {
            "lon": -42.7065,
            "lat": -3.892,
            "school_name": "UNID ESC PROF ALBERTINA DAMASCENO",
            "country_name": "Brazil",
            "connectivity": true
        },
        {
            "lon": -39.9043,
            "lat": -6.6255,
            "school_name": "MANOEL VICENTE DE OLIVEIRA EEIF",
            "country_name": "Brazil",
            "connectivity": false
        },
        {
            "lon": -39.2993,
            "lat": -7.2338,
            "school_name": "ASSUNCAO GONCALVES PROFESSORA EMEI",
            "country_name": "Brazil",
            "connectivity": true
        },
        {
            "lon": -36.854,
            "lat": -7.5198,
            "school_name": "UMEIEF LUIZ MARIANO DE ARAUJO",
            "country_name": "Brazil",
            "connectivity": true
        },
        {
            "lon": -36.6323,
            "lat": -7.2225,
            "school_name": "CRECHE MUNICIPAL BRANCA DE NEVE",
            "country_name": "Brazil",
            "connectivity": true
        },
        {
            "lon": -45.6722,
            "lat": -3.4297,
            "school_name": "CENTRO DE ENSINO ANTONIO MACEDO DE ALMEIDA",
            "country_name": "Brazil",
            "connectivity": true
        },
        {
            "lon": -34.9777,
            "lat": -6.6241,
            "school_name": "EMEF DR CARLOS RODRIGUES",
            "country_name": "Brazil",
            "connectivity": false
        },
        {
            "lon": -35.2522,
            "lat": -7.1186,
            "school_name": "EMEIEF 21 DE ABRIL",
            "country_name": "Brazil",
            "connectivity": false
        },
        {
            "lon": -37.1177,
            "lat": -9.1125,
            "school_name": "COLEGIO MUNICIPAL GERSON DE ALBUQUERQUE MARANHAO",
            "country_name": "Brazil",
            "connectivity": true
        },
        {
            "lon": -48.446,
            "lat": -1.4531,
            "school_name": "EEEFM MARIO BARBOSA",
            "country_name": "Brazil",
            "connectivity": true
        },
        {
            "lon": -36.5074,
            "lat": -8.9541,
            "school_name": "GRUPO ESCOLAR MANOEL BENTO DANTAS",
            "country_name": "Brazil",
            "connectivity": false
        },
        {
            "lon": -35.8936,
            "lat": -9.7124,
            "school_name": "IFAL - CAMPUS MARECHAL DEODORO",
            "country_name": "Brazil",
            "connectivity": true
        },
        {
            "lon": -36.5359,
            "lat": -10.4347,
            "school_name": "JD DE INFANCIA PROF MA LEOPOLDINA LINS",
            "country_name": "Brazil",
            "connectivity": true
        },
        {
            "lon": -37.0546,
            "lat": -10.8551,
            "school_name": "COLEGIO ESTADUAL JOAO BATISTA NASCIMENTO",
            "country_name": "Brazil",
            "connectivity": true
        },
        {
            "lon": -37.8526,
            "lat": -11.3485,
            "school_name": "ESCOLA MUNICIPAL DE ENSINO FUNDAMENTAL JOSE RAIMUNDO DA FONSECA",
            "country_name": "Brazil",
            "connectivity": false
        },
        {
            "lon": -40.3165,
            "lat": -10.501,
            "school_name": "CRECHE CASULO DR HERALDO ROCHA",
            "country_name": "Brazil",
            "connectivity": true
        },
        {
            "lon": -38.5318,
            "lat": -10.8222,
            "school_name": "ESCOLA MUNICIPAL PROFESSORA MARIA MENEZES CRUZ CONCEICAO",
            "country_name": "Brazil",
            "connectivity": true
        },
        {
            "lon": -38.289,
            "lat": -12.6176,
            "school_name": "ESCOLA JOSE DA CONCEICAO ALMEIDA",
            "country_name": "Brazil",
            "connectivity": true
        },
        {
            "lon": -39.5292,
            "lat": -13.0811,
            "school_name": "SEMED-ESCOLA MUNICIPAL JOSE MEDRADO",
            "country_name": "Brazil",
            "connectivity": true
        },
        {
            "lon": -43.1537,
            "lat": -14.5412,
            "school_name": "ESCOLA MUNICIPAL HERMINIO MONCAO",
            "country_name": "Brazil",
            "connectivity": true
        },
        {
            "lon": -40.6806,
            "lat": -14.0666,
            "school_name": "ESCOLA MUNICIPAL MANOEL ALVES",
            "country_name": "Brazil",
            "connectivity": false
        },
        {
            "lon": -41.6113,
            "lat": -11.6132,
            "school_name": "ESCOLA MUNICIPAL EMILIA CARNEIRO",
            "country_name": "Brazil",
            "connectivity": false
        },
        {
            "lon": -39.6347,
            "lat": -11.6068,
            "school_name": "COLEGIO MUNICIPAL NOSSA SENHORA DE FATIMA",
            "country_name": "Brazil",
            "connectivity": true
        },
        {
            "lon": -43.9878,
            "lat": -19.8025,
            "school_name": "ESCOLA MUNICIPAL PROFESSOR PEDRO GUERRA",
            "country_name": "Brazil",
            "connectivity": true
        },
        {
            "lon": -44.1119,
            "lat": -19.9385,
            "school_name": "EE DO BAIRRO SAO CAETANO",
            "country_name": "Brazil",
            "connectivity": true
        },
        {
            "lon": -41.4935,
            "lat": -20.1995,
            "school_name": "EM SAO MANOEL DA SAPUCAIA",
            "country_name": "Brazil",
            "connectivity": false
        },
        {
            "lon": -46.8015,
            "lat": -18.7701,
            "school_name": "ESCOLA MUNICIPAL JAHYR NUNES PERES",
            "country_name": "Brazil",
            "connectivity": true
        },
        {
            "lon": -46.2026,
            "lat": -23.5311,
            "school_name": "ANTONIO NACIF SALEMI EM",
            "country_name": "Brazil",
            "connectivity": true
        },
        {
            "lon": -44.013,
            "lat": -19.8149,
            "school_name": "EM SARGENTO VALERIO DOS SANTOS OLIVEIRA",
            "country_name": "Brazil",
            "connectivity": true
        },
        {
            "lon": -40.2804,
            "lat": -18.932,
            "school_name": "EMUEF CORREGO DA PEDRA ROXA",
            "country_name": "Brazil",
            "connectivity": false
        },
        {
            "lon": -40.7734,
            "lat": -20.6205,
            "school_name": "EEUEF BARRA DO BATATAL",
            "country_name": "Brazil",
            "connectivity": false
        },
        {
            "lon": -42.9833,
            "lat": -22.7934,
            "school_name": "CE DOM ANTONIO DE ALMEIDA MORAES JUNIOR",
            "country_name": "Brazil",
            "connectivity": true
        },
        {
            "lon": -43.3336,
            "lat": -22.7591,
            "school_name": "CE PROFESSORA SANDRA MARIA SANTOS DE SOUSA",
            "country_name": "Brazil",
            "connectivity": true
        },
        {
            "lon": -39.0637,
            "lat": -11.8359,
            "school_name": "ESCOLA MUNICIPAL JOSE ALVINO PEREIRA",
            "country_name": "Brazil",
            "connectivity": true
        },
        {
            "lon": -38.1685,
            "lat": -11.2743,
            "school_name": "ESCOLA ENGENHEIRO ANTONIO DANTAS FONTES",
            "country_name": "Brazil",
            "connectivity": true
        },
        {
            "lon": -46.5961,
            "lat": -22.4841,
            "school_name": "CRECHE MUNICIPAL PAULINO FORMAGIO",
            "country_name": "Brazil",
            "connectivity": false
        },
        {
            "lon": -51.0889,
            "lat": -21.6832,
            "school_name": "SONHO DE CRIANCA EMEI CICLO I",
            "country_name": "Brazil",
            "connectivity": true
        },
        {
            "lon": -51.3859,
            "lat": -20.8994,
            "school_name": "SANTA RITA DE CASSIA CRECHE EMEI",
            "country_name": "Brazil",
            "connectivity": false
        },
        {
            "lon": -37.059,
            "lat": -10.0821,
            "school_name": "ESCOLA ESTADUAL PROF EULINA BATISTA DE MELO",
            "country_name": "Brazil",
            "connectivity": true
        },
        {
            "lon": -46.8507,
            "lat": -23.1509,
            "school_name": "VASCO ANTONIO VENCHIARUTTI PREF EMEB",
            "country_name": "Brazil",
            "connectivity": true
        },
        {
            "lon": -49.2093,
            "lat": -21.473,
            "school_name": "EMEB PROFESSORA HEBE DE ALMEIDA LEITE CARDOSO",
            "country_name": "Brazil",
            "connectivity": false
        },
        {
            "lon": -47.3773,
            "lat": -22.584,
            "school_name": "ARY LEVY PEREIRA PREFEITO CENTRO INFANTIL",
            "country_name": "Brazil",
            "connectivity": false
        },
        {
            "lon": -47.5988,
            "lat": -21.2138,
            "school_name": "DALZIRA BARROS MARTINS PROFA EMEF",
            "country_name": "Brazil",
            "connectivity": true
        },
        {
            "lon": -46.7179,
            "lat": -22.8537,
            "school_name": "JOSE PIRES DE CAMARGO EM",
            "country_name": "Brazil",
            "connectivity": true
        },
        {
            "lon": -47.8538,
            "lat": -24.4947,
            "school_name": "JOAO BATISTA POCI JUNIOR EMEB",
            "country_name": "Brazil",
            "connectivity": false
        },
        {
            "lon": -47.5066,
            "lat": -22.9972,
            "school_name": "AUGUSTO CASTANHO ESCOLA MUNICIPAL",
            "country_name": "Brazil",
            "connectivity": true
        },
        {
            "lon": -45.2559,
            "lat": -22.8313,
            "school_name": "BENEDITO LUCIO THOMAZ EMEF",
            "country_name": "Brazil",
            "connectivity": true
        },
        {
            "lon": -51.548,
            "lat": -22.016,
            "school_name": "CENTRO DE ATEND SOCIOEDUC AO ADOLESC PRES BERNARDES CI",
            "country_name": "Brazil",
            "connectivity": false
        },
        {
            "lon": -51.0696,
            "lat": -29.7462,
            "school_name": "EMEF CASTRO ALVES",
            "country_name": "Brazil",
            "connectivity": true
        },
        {
            "lon": -52.1216,
            "lat": -29.1683,
            "school_name": "ESC MUN ENS FUN HEITOR VILLA LOBOS",
            "country_name": "Brazil",
            "connectivity": true
        },
        {
            "lon": -41.9893,
            "lat": -21.0329,
            "school_name": "ESCOLA CRECHE MUNICIPAL JOAO FERNANDES",
            "country_name": "Brazil",
            "connectivity": true
        },
        {
            "lon": -53.1935,
            "lat": -25.2998,
            "school_name": "VALENTIN BERNARDO THISEN E R M PR EI EF",
            "country_name": "Brazil",
            "connectivity": true
        },
        {
            "lon": -43.3152,
            "lat": -22.7246,
            "school_name": "CIEP 118 VEREADOR VILSON CAMPOS DE MACEDO",
            "country_name": "Brazil",
            "connectivity": true
        },
        {
            "lon": -46.4574,
            "lat": -23.6107,
            "school_name": "WILFREDO PINHEIRO PROF",
            "country_name": "Brazil",
            "connectivity": true
        },
        {
            "lon": -49.3532,
            "lat": -25.484,
            "school_name": "CAIUA II C M E I",
            "country_name": "Brazil",
            "connectivity": true
        },
        {
            "lon": -51.3512,
            "lat": -26.0191,
            "school_name": "VOVO CECILIA DA SILVA C M E I",
            "country_name": "Brazil",
            "connectivity": true
        },
        {
            "lon": -52.6126,
            "lat": -23.8734,
            "school_name": "CRECHE MUNICIPAL CRIANCA ESPERANCA",
            "country_name": "Brazil",
            "connectivity": true
        },
        {
            "lon": -49.3454,
            "lat": -25.9066,
            "school_name": "MARIA SENEK WOSNHAKI C E C PROFA EF M",
            "country_name": "Brazil",
            "connectivity": true
        },
        {
            "lon": -51.1763,
            "lat": -23.3087,
            "school_name": "IFPR - CAMPUS LONDRINA",
            "country_name": "Brazil",
            "connectivity": true
        },
        {
            "lon": -48.6406,
            "lat": -27.7225,
            "school_name": "ESCOLA BASICA PROFESSORA FRANCISCA RAIMUNDA FARIAS DA COSTA",
            "country_name": "Brazil",
            "connectivity": true
        },
        {
            "lon": -51.5434,
            "lat": -30.4618,
            "school_name": "ESC MUN ENS FUND CARLOS PAPKE SOBRINHO",
            "country_name": "Brazil",
            "connectivity": false
        },
        {
            "lon": -42.6963,
            "lat": -17.1154,
            "school_name": "EE DE GOUVEIA",
            "country_name": "Brazil",
            "connectivity": true
        },
        {
            "lon": -52.5122,
            "lat": -22.0125,
            "school_name": "EE PROF EZEQUIEL BALBINO",
            "country_name": "Brazil",
            "connectivity": true
        },
        {
            "lon": -54.5313,
            "lat": -25.515,
            "school_name": "CORA CORALINA E M EF",
            "country_name": "Brazil",
            "connectivity": true
        },
        {
            "lon": -49.398,
            "lat": -25.3778,
            "school_name": "JOSE VALENGA E M EI EF",
            "country_name": "Brazil",
            "connectivity": true
        },
        {
            "lon": -46.5458,
            "lat": -23.1128,
            "school_name": "ELEONOR DE BARROS DIRETORA EMEI",
            "country_name": "Brazil",
            "connectivity": true
        },
        {
            "lon": -50.7238,
            "lat": -21.9163,
            "school_name": "PARQUE DAS NACOES",
            "country_name": "Brazil",
            "connectivity": true
        },
        {
            "lon": -49.5083,
            "lat": -15.0778,
            "school_name": "ESCOLA ESTADUAL MARIANA SCHETTINI",
            "country_name": "Brazil",
            "connectivity": true
        },
        {
            "lon": -47.9669,
            "lat": -16.0822,
            "school_name": "ESCOLA MUNICIPAL CHICO MENDES",
            "country_name": "Brazil",
            "connectivity": true
        },
        {
            "lon": -37.3096,
            "lat": -10.6589,
            "school_name": "ESC MUL JOSE JOAQUIM PACHECO",
            "country_name": "Brazil",
            "connectivity": true
        },
        {
            "lon": -37.2602,
            "lat": -10.612,
            "school_name": "ESCOLA MUNICIPAL ADOLFO ROLLEMBERG",
            "country_name": "Brazil",
            "connectivity": true
        },
        {
            "lon": -52.866,
            "lat": -25.33,
            "school_name": "LINHA MATO QUEIMADO E E C DE EF",
            "country_name": "Brazil",
            "connectivity": true
        },
        {
            "lon": -47.0818,
            "lat": -22.8247,
            "school_name": "GERALDO DE REZENDE BARAO",
            "country_name": "Brazil",
            "connectivity": true
        },
        {
            "lon": -43.3682,
            "lat": -23.0086,
            "school_name": "0724014 ESCOLA MUNICIPAL PROFESSORA DIDIA MACHADO FORTES",
            "country_name": "Brazil",
            "connectivity": true
        },
        {
            "lon": -37.3518,
            "lat": -5.205,
            "school_name": "ESCOLA MUNICIPAL FRANCISCO DE ASSIS BATISTA",
            "country_name": "Brazil",
            "connectivity": true
        },
        {
            "lon": -38.9632,
            "lat": -8.7435,
            "school_name": "CRECHE MUNICIPAL RECANTO INFANTIL",
            "country_name": "Brazil",
            "connectivity": true
        },
        {
            "lon": -37.3281,
            "lat": -5.214,
            "school_name": "CEEP CENTRO ESTADUAL DE EDUCACAO PROFISSIONAL PROFESSOR FRANCISCO DE ASSIS PEDROSA",
            "country_name": "Brazil",
            "connectivity": true
        }
    ],
    "num_countries": 12,
    "countries": [
        "Benin",
        "Brazil",
        "Colombia",
        "Costa Rica",
        "Honduras",
        "Kazakhstan",
        "Namibia",
        "Palestine",
        "Philippines",
        "Rwanda",
        "Sierra Leone",
        "Zimbabwe"
    ],
    "schools_no_data": [
        {
            "lon": -59.07392924,
            "lat": -36.01472871,
            "school_name": "JARDIN DE INFANTES N\u00ba907 EL JARDIN DE LA LAGUNA",
            "country_name": "Argentina",
            "connectivity": false
        },
        {
            "lon": -11.237525,
            "lat": 6.978654,
            "school_name": "Sinje Community",
            "country_name": "Liberia",
            "connectivity": false
        },
        {
            "lon": -10.594663,
            "lat": 6.228201,
            "school_name": "Elizabeth S. Mulbah Institute",
            "country_name": "Liberia",
            "connectivity": false
        },
        {
            "lon": -8.378059,
            "lat": 6.922641,
            "school_name": "Gomaplay Public School",
            "country_name": "Liberia",
            "connectivity": false
        },
        {
            "lon": -8.715328,
            "lat": 7.135608,
            "school_name": "Gbahnwin Pub. Sch",
            "country_name": "Liberia",
            "connectivity": false
        },
        {
            "lon": 0.4780586,
            "lat": 6.5980518,
            "school_name": "Name unknown",
            "country_name": "Ghana",
            "connectivity": false
        },
        {
            "lon": -0.4404454,
            "lat": 5.5576739,
            "school_name": "Name unknown",
            "country_name": "Ghana",
            "connectivity": false
        },
        {
            "lon": 30.4738252,
            "lat": 19.30833768,
            "school_name": "Name unknown",
            "country_name": "Sudan",
            "connectivity": false
        },
        {
            "lon": 33.5459721,
            "lat": 16.78182345,
            "school_name": "Name unknown",
            "country_name": "Sudan",
            "connectivity": false
        },
        {
            "lon": 25.43721665,
            "lat": 12.07576642,
            "school_name": "Name unknown",
            "country_name": "Sudan",
            "connectivity": false
        },
        {
            "lon": -1.8500544,
            "lat": 9.2521339,
            "school_name": "Name unknown",
            "country_name": "Ghana",
            "connectivity": false
        },
        {
            "lon": -1.8085599,
            "lat": 4.8953303,
            "school_name": "Name unknown",
            "country_name": "Ghana",
            "connectivity": false
        },
        {
            "lon": -1.6464678,
            "lat": 6.706863,
            "school_name": "Name unknown",
            "country_name": "Ghana",
            "connectivity": false
        },
        {
            "lon": -1.6441914,
            "lat": 6.6666323,
            "school_name": "Name unknown",
            "country_name": "Ghana",
            "connectivity": false
        },
        {
            "lon": -0.2827707,
            "lat": 7.6838048,
            "school_name": "Name unknown",
            "country_name": "Ghana",
            "connectivity": false
        },
        {
            "lon": -1.464871,
            "lat": 6.6584322,
            "school_name": "Name unknown",
            "country_name": "Ghana",
            "connectivity": false
        },
        {
            "lon": -0.8291433,
            "lat": 5.9400493,
            "school_name": "Name unknown",
            "country_name": "Ghana",
            "connectivity": false
        },
        {
            "lon": -1.6806427,
            "lat": 6.5777694,
            "school_name": "Name unknown",
            "country_name": "Ghana",
            "connectivity": false
        },
        {
            "lon": 34.77377,
            "lat": -9.36347,
            "school_name": "COMPASSION",
            "country_name": "United Republic of Tanzania",
            "connectivity": false
        },
        {
            "lon": 36.88487,
            "lat": -3.36939,
            "school_name": "DIAMOND",
            "country_name": "United Republic of Tanzania",
            "connectivity": false
        },
        {
            "lon": 37.23578,
            "lat": -3.22442,
            "school_name": "KISERENI",
            "country_name": "United Republic of Tanzania",
            "connectivity": false
        },
        {
            "lon": 38.01596,
            "lat": -4.73571,
            "school_name": "NANYOGIE",
            "country_name": "United Republic of Tanzania",
            "connectivity": false
        },
        {
            "lon": 38.37196,
            "lat": -4.65179,
            "school_name": "KWEKANGA",
            "country_name": "United Republic of Tanzania",
            "connectivity": false
        },
        {
            "lon": 33.43473,
            "lat": -9.09646,
            "school_name": "ISANGATI",
            "country_name": "United Republic of Tanzania",
            "connectivity": false
        },
        {
            "lon": 39.06581,
            "lat": -7.72238,
            "school_name": "NYAMWIMBE",
            "country_name": "United Republic of Tanzania",
            "connectivity": false
        },
        {
            "lon": 36.29329,
            "lat": -7.34254,
            "school_name": "IGUNDA",
            "country_name": "United Republic of Tanzania",
            "connectivity": false
        },
        {
            "lon": 35.75453,
            "lat": -6.00894,
            "school_name": "MAKUTUPORA",
            "country_name": "United Republic of Tanzania",
            "connectivity": false
        },
        {
            "lon": 32.24233,
            "lat": -3.13802,
            "school_name": "IVUMWA",
            "country_name": "United Republic of Tanzania",
            "connectivity": false
        },
        {
            "lon": 30.66482,
            "lat": -3.63681,
            "school_name": "KAHAMA",
            "country_name": "United Republic of Tanzania",
            "connectivity": false
        },
        {
            "lon": 38.76511,
            "lat": -10.27892,
            "school_name": "IKUNGU",
            "country_name": "United Republic of Tanzania",
            "connectivity": false
        },
        {
            "lon": 32.93117,
            "lat": -9.3052,
            "school_name": "IPANGA",
            "country_name": "United Republic of Tanzania",
            "connectivity": false
        },
        {
            "lon": 35.7535,
            "lat": -8.42437,
            "school_name": "MAPANDA",
            "country_name": "United Republic of Tanzania",
            "connectivity": false
        },
        {
            "lon": 36.47747,
            "lat": -6.42584,
            "school_name": "ISINGHU",
            "country_name": "United Republic of Tanzania",
            "connectivity": false
        },
        {
            "lon": -1.5678037,
            "lat": 6.7120489,
            "school_name": "Name unknown",
            "country_name": "Ghana",
            "connectivity": false
        },
        {
            "lon": 40.0787873,
            "lat": 1.7481845,
            "school_name": "Iqra Elite Academy",
            "country_name": "Kenya",
            "connectivity": false
        },
        {
            "lon": 39.8266684,
            "lat": 1.153266,
            "school_name": "Madah Libah Primary School",
            "country_name": "Kenya",
            "connectivity": false
        },
        {
            "lon": 32.9111,
            "lat": -2.54058,
            "school_name": "IGOGO B",
            "country_name": "United Republic of Tanzania",
            "connectivity": false
        },
        {
            "lon": 1.20276,
            "lat": 9.649061,
            "school_name": "JEP LASSA GNAKOUDE",
            "country_name": "Togo",
            "connectivity": false
        },
        {
            "lon": 1.22033092,
            "lat": 6.1577132,
            "school_name": "EPL LE SAHEL",
            "country_name": "Togo",
            "connectivity": false
        },
        {
            "lon": 1.594375,
            "lat": 7.141838,
            "school_name": "EPP TADO",
            "country_name": "Togo",
            "connectivity": false
        },
        {
            "lon": 0.74464,
            "lat": 7.779713,
            "school_name": "EPP KODJOAZA",
            "country_name": "Togo",
            "connectivity": false
        },
        {
            "lon": 0.97909,
            "lat": 8.560248,
            "school_name": "EPC SOTOUBOUA VILLE G/A",
            "country_name": "Togo",
            "connectivity": false
        },
        {
            "lon": 0.766233,
            "lat": 9.242233,
            "school_name": "EPP BINAPARBA II",
            "country_name": "Togo",
            "connectivity": false
        },
        {
            "lon": 1.194317,
            "lat": 9.650837,
            "school_name": "EPP SAHOUDE",
            "country_name": "Togo",
            "connectivity": false
        },
        {
            "lon": 1.205021,
            "lat": 6.25548,
            "school_name": "COLLEGE ISLAMIQUE TANKO",
            "country_name": "Togo",
            "connectivity": false
        },
        {
            "lon": 31.46905,
            "lat": -2.18262,
            "school_name": "KABUNGO",
            "country_name": "United Republic of Tanzania",
            "connectivity": false
        },
        {
            "lon": 30.29161,
            "lat": -4.99817,
            "school_name": "MSEBEI",
            "country_name": "United Republic of Tanzania",
            "connectivity": false
        },
        {
            "lon": 36.64546,
            "lat": -6.08718,
            "school_name": "MIEMBENI",
            "country_name": "United Republic of Tanzania",
            "connectivity": false
        },
        {
            "lon": 33.37899,
            "lat": -1.82322,
            "school_name": "KURUGONGO B",
            "country_name": "United Republic of Tanzania",
            "connectivity": false
        },
        {
            "lon": 35.80033,
            "lat": -3.90736,
            "school_name": "MBUGWE",
            "country_name": "United Republic of Tanzania",
            "connectivity": false
        },
        {
            "lon": 0.633651667,
            "lat": 6.92043,
            "school_name": "CPL LAROUSSE",
            "country_name": "Togo",
            "connectivity": false
        },
        {
            "lon": 34.99143192,
            "lat": -15.82431593,
            "school_name": "Namasimba LEA",
            "country_name": "Malawi",
            "connectivity": false
        },
        {
            "lon": 33.68201124,
            "lat": -9.966309536,
            "school_name": "Kayuni Primary",
            "country_name": "Malawi",
            "connectivity": false
        },
        {
            "lon": 33.73749812,
            "lat": -14.43135694,
            "school_name": "Chindoole J. P.",
            "country_name": "Malawi",
            "connectivity": false
        },
        {
            "lon": 34.12039836,
            "lat": -11.22520151,
            "school_name": "Bula",
            "country_name": "Malawi",
            "connectivity": false
        },
        {
            "lon": 24.56451275,
            "lat": 0.704819985,
            "school_name": "CS  LOTOKILA",
            "country_name": "Democratic Republic of the Congo",
            "connectivity": false
        },
        {
            "lon": 25.74655035,
            "lat": -6.99564824,
            "school_name": "EP TWAYAY",
            "country_name": "Democratic Republic of the Congo",
            "connectivity": false
        },
        {
            "lon": 21.5509509,
            "lat": -4.86375043,
            "school_name": "INST KOLELA",
            "country_name": "Democratic Republic of the Congo",
            "connectivity": false
        },
        {
            "lon": 7.366155,
            "lat": 5.570933333,
            "school_name": "Name unknown",
            "country_name": "Nigeria",
            "connectivity": false
        },
        {
            "lon": 24.38240677,
            "lat": -6.412944691,
            "school_name": "ISNT SENDELA",
            "country_name": "Democratic Republic of the Congo",
            "connectivity": false
        },
        {
            "lon": 28.8968,
            "lat": -8.4634,
            "school_name": "EP KABUNYANGE",
            "country_name": "Democratic Republic of the Congo",
            "connectivity": false
        },
        {
            "lon": 26.32143889,
            "lat": -3.434352778,
            "school_name": "EP KISUBI 1",
            "country_name": "Democratic Republic of the Congo",
            "connectivity": false
        },
        {
            "lon": 20.24944586,
            "lat": 2.634687243,
            "school_name": "INST BOLOW",
            "country_name": "Democratic Republic of the Congo",
            "connectivity": false
        },
        {
            "lon": 19.01680692,
            "lat": 2.403742671,
            "school_name": "INST NGOMBE - SUD",
            "country_name": "Democratic Republic of the Congo",
            "connectivity": false
        },
        {
            "lon": 29.1461738,
            "lat": -3.372681917,
            "school_name": "INST HERI",
            "country_name": "Democratic Republic of the Congo",
            "connectivity": false
        },
        {
            "lon": 28.53636389,
            "lat": -2.356872222,
            "school_name": "EP CHOLOBERA",
            "country_name": "Democratic Republic of the Congo",
            "connectivity": false
        },
        {
            "lon": 28.50638058,
            "lat": -2.027272207,
            "school_name": "INST LUHOHO",
            "country_name": "Democratic Republic of the Congo",
            "connectivity": false
        },
        {
            "lon": -110.30418,
            "lat": 24.15214,
            "school_name": "PREPARATORIA MAESTRO JOSE VASCONCELOS",
            "country_name": "Mexico",
            "connectivity": false
        },
        {
            "lon": -99.24312,
            "lat": 18.938287,
            "school_name": "LICEO EUROPEO CAMPUS CUERNAVACA",
            "country_name": "Mexico",
            "connectivity": false
        },
        {
            "lon": -10.84668,
            "lat": 17.06263,
            "school_name": "\u0645\u062f\u0631\u0633\u0629\u0628\u0642\u0631\u0644\u0649",
            "country_name": "Mauritania",
            "connectivity": false
        },
        {
            "lon": 33.79579,
            "lat": 1.43994,
            "school_name": "NYAMONGO PRIMARY SCHOOL",
            "country_name": "Uganda",
            "connectivity": false
        },
        {
            "lon": 31.40847,
            "lat": -0.97458,
            "school_name": "KYASIMBI PRIMARY SCHOOL",
            "country_name": "Uganda",
            "connectivity": false
        },
        {
            "lon": 31.41944,
            "lat": -0.68306,
            "school_name": "LUMBUGU CHILD INTERGRATED CENTRE  P/S",
            "country_name": "Uganda",
            "connectivity": false
        },
        {
            "lon": 31.61885,
            "lat": -0.6511,
            "school_name": "NGANDA PRIMARY SCHOOL",
            "country_name": "Uganda",
            "connectivity": false
        },
        {
            "lon": 31.22295,
            "lat": -0.83597,
            "school_name": "PARENTAL CARE NURSERY &PRI SCH",
            "country_name": "Uganda",
            "connectivity": false
        },
        {
            "lon": 33.15022,
            "lat": 0.43662,
            "school_name": "AHMADIYA PRI.SCHOOL",
            "country_name": "Uganda",
            "connectivity": false
        },
        {
            "lon": 33.75643,
            "lat": 0.57369,
            "school_name": "Busanzi P.S",
            "country_name": "Uganda",
            "connectivity": false
        },
        {
            "lon": 32.57808,
            "lat": 0.34185,
            "school_name": "Occupational Therapy School",
            "country_name": "Uganda",
            "connectivity": false
        },
        {
            "lon": 30.26386,
            "lat": 0.39645,
            "school_name": "Katuma Progressive",
            "country_name": "Uganda",
            "connectivity": false
        },
        {
            "lon": 31.17679,
            "lat": -0.96546,
            "school_name": "Rwambaga",
            "country_name": "Uganda",
            "connectivity": false
        },
        {
            "lon": 30.48536,
            "lat": -0.07712,
            "school_name": "Kanaama P.S.",
            "country_name": "Uganda",
            "connectivity": false
        },
        {
            "lon": 31.56058,
            "lat": -0.24677,
            "school_name": "St. Andrew Mitete",
            "country_name": "Uganda",
            "connectivity": false
        },
        {
            "lon": 29.47572,
            "lat": -25.7886,
            "school_name": "Elite",
            "country_name": "South Africa",
            "connectivity": false
        },
        {
            "lon": 29.61504,
            "lat": -26.73793,
            "school_name": "Nqobangolwazi Secondary School",
            "country_name": "South Africa",
            "connectivity": false
        },
        {
            "lon": 29.62014,
            "lat": -27.16053,
            "school_name": "Perdekop Agricultural School",
            "country_name": "South Africa",
            "connectivity": false
        },
        {
            "lon": 25.45679,
            "lat": -25.86536,
            "school_name": "Saane Middle School",
            "country_name": "South Africa",
            "connectivity": false
        },
        {
            "lon": 18.47232,
            "lat": -34.01429,
            "school_name": "Dominican School for the Deaf",
            "country_name": "South Africa",
            "connectivity": false
        },
        {
            "lon": 29.92986,
            "lat": -24.51106,
            "school_name": "Dinakanyane Secondary School",
            "country_name": "South Africa",
            "connectivity": false
        },
        {
            "lon": 18.48316,
            "lat": -33.90669,
            "school_name": "Ysterplaat Junior Primary School",
            "country_name": "South Africa",
            "connectivity": false
        },
        {
            "lon": 19.30252,
            "lat": -32.90281,
            "school_name": "Voorsorg Ngk Primary School",
            "country_name": "South Africa",
            "connectivity": false
        },
        {
            "lon": 22.47986,
            "lat": -33.95801,
            "school_name": "Van Kervel School",
            "country_name": "South Africa",
            "connectivity": false
        },
        {
            "lon": 29.43601,
            "lat": -23.88457,
            "school_name": "Capricorn Fire Training Academy",
            "country_name": "South Africa",
            "connectivity": false
        },
        {
            "lon": 28.69621,
            "lat": -24.54246,
            "school_name": "Mokhari Intermediate School",
            "country_name": "South Africa",
            "connectivity": false
        },
        {
            "lon": 29.00647,
            "lat": -24.19771,
            "school_name": "School",
            "country_name": "South Africa",
            "connectivity": false
        },
        {
            "lon": 18.6775,
            "lat": -34.04213,
            "school_name": "Chuma Primary School",
            "country_name": "South Africa",
            "connectivity": false
        },
        {
            "lon": 18.83368,
            "lat": -34.08682,
            "school_name": "Mondeor Eco School",
            "country_name": "South Africa",
            "connectivity": false
        },
        {
            "lon": 29.84694,
            "lat": -29.57272,
            "school_name": "Novuka Primary School",
            "country_name": "South Africa",
            "connectivity": false
        },
        {
            "lon": 30.82905,
            "lat": -29.91201,
            "school_name": "Nkonseleni Primary School",
            "country_name": "South Africa",
            "connectivity": false
        },
        {
            "lon": 32.55705,
            "lat": -27.23648,
            "school_name": "Ingutshana Primary School",
            "country_name": "South Africa",
            "connectivity": false
        },
        {
            "lon": 31.83879,
            "lat": -28.524,
            "school_name": "Mgezeni High School",
            "country_name": "South Africa",
            "connectivity": false
        },
        {
            "lon": 30.98358,
            "lat": -28.88117,
            "school_name": "Mandlalathi Primary School",
            "country_name": "South Africa",
            "connectivity": false
        },
        {
            "lon": 28.06662,
            "lat": -26.19845,
            "school_name": "Paradise Bend Primary School",
            "country_name": "South Africa",
            "connectivity": false
        },
        {
            "lon": 27.83964,
            "lat": -26.1393,
            "school_name": "Hoerskool Die Adelaar",
            "country_name": "South Africa",
            "connectivity": false
        },
        {
            "lon": 27.87952,
            "lat": -26.21743,
            "school_name": "Kwa-Mahlobo Secondary School",
            "country_name": "South Africa",
            "connectivity": false
        },
        {
            "lon": 27.80873,
            "lat": -26.37987,
            "school_name": "Lawley Secondary School",
            "country_name": "South Africa",
            "connectivity": false
        },
        {
            "lon": 24.42987,
            "lat": -11.73791,
            "school_name": "MWINILUNGA SEC.SCH.",
            "country_name": "Zambia",
            "connectivity": false
        },
        {
            "lon": 28.99314,
            "lat": -28.37216,
            "school_name": "Mabate Intermediate Farm School",
            "country_name": "South Africa",
            "connectivity": false
        },
        {
            "lon": 28.38587,
            "lat": -30.30293,
            "school_name": "Ongeluk's Nek Combined School",
            "country_name": "South Africa",
            "connectivity": false
        },
        {
            "lon": 25.56756,
            "lat": -33.9417,
            "school_name": "Addskills Cc",
            "country_name": "South Africa",
            "connectivity": false
        },
        {
            "lon": 29.13809,
            "lat": -31.26687,
            "school_name": "Mtika Senior Primary School",
            "country_name": "South Africa",
            "connectivity": false
        },
        {
            "lon": -57.56777533,
            "lat": -38.05755654,
            "school_name": "ESCUELA MUNICIPAL N\u00ba10 ERIBERTO E. BRIGNOLE",
            "country_name": "Argentina",
            "connectivity": false
        },
        {
            "lon": -60.2925313,
            "lat": -37.3215479,
            "school_name": "JARDIN DE INFANTES N\u00ba909",
            "country_name": "Argentina",
            "connectivity": false
        },
        {
            "lon": -58.79411354,
            "lat": -34.52933535,
            "school_name": "ESCUELA PRIMARIA N\u00ba22 REPUBLICA DE SAN MARINO",
            "country_name": "Argentina",
            "connectivity": false
        },
        {
            "lon": -58.12560691,
            "lat": -34.88795048,
            "school_name": "ESCUELA PRIMARIA N\u00ba32 ARTURO SEGUI",
            "country_name": "Argentina",
            "connectivity": false
        },
        {
            "lon": -59.05795,
            "lat": -26.23447,
            "school_name": "EPEP N\u00ba511",
            "country_name": "Argentina",
            "connectivity": false
        },
        {
            "lon": -58.75228752,
            "lat": -34.48302361,
            "school_name": "JARDIN DE INFANTES N\u00ba920 LYDIA PENCHANSKY DE BOSCH",
            "country_name": "Argentina",
            "connectivity": false
        },
        {
            "lon": -58.69693285,
            "lat": -34.43231516,
            "school_name": "ESC. SECUNDARIA BASICA N\u00ba40",
            "country_name": "Argentina",
            "connectivity": false
        },
        {
            "lon": -62.42306809,
            "lat": -27.64440273,
            "school_name": "CENTRO DE EDUCACION BASICA DEL ADULTO N\u00ba107",
            "country_name": "Argentina",
            "connectivity": false
        },
        {
            "lon": -58.2642157,
            "lat": -34.8042592,
            "school_name": "INSTITUTO EDUCATIVO SECUNDARIO JOSE HERNANDEZ",
            "country_name": "Argentina",
            "connectivity": false
        },
        {
            "lon": -58.93294035,
            "lat": -27.47290854,
            "school_name": "PRIM.ADULTOS N\u00ba 2",
            "country_name": "Argentina",
            "connectivity": false
        },
        {
            "lon": -58.64399657,
            "lat": -27.07793918,
            "school_name": "E.E.P. N\u00ba 811-IGNACIO HAMILTON FOTHERINGHAM",
            "country_name": "Argentina",
            "connectivity": false
        },
        {
            "lon": -63.22581986,
            "lat": -33.63205024,
            "school_name": "DOMINGO FAUSTINO SARMIENTO",
            "country_name": "Argentina",
            "connectivity": false
        },
        {
            "lon": -64.11296554,
            "lat": -32.17462321,
            "school_name": "CONSERVATORIO SUPERIOR DE MUSICA JUAN JOSE CASTRO",
            "country_name": "Argentina",
            "connectivity": false
        },
        {
            "lon": -64.37422157,
            "lat": -33.1251417,
            "school_name": "ESC. ESP. VICENTA CASTRO CAMBON",
            "country_name": "Argentina",
            "connectivity": false
        },
        {
            "lon": -64.36537157,
            "lat": -30.58003113,
            "school_name": "FERNANDO FADER",
            "country_name": "Argentina",
            "connectivity": false
        },
        {
            "lon": -59.36725982,
            "lat": -29.33957688,
            "school_name": "ESCUELA N\u00ba 593",
            "country_name": "Argentina",
            "connectivity": false
        },
        {
            "lon": -59.01628932,
            "lat": -28.53231359,
            "school_name": "ESCUELA N\u00ba 707",
            "country_name": "Argentina",
            "connectivity": false
        },
        {
            "lon": -60.50151099,
            "lat": -31.74670685,
            "school_name": "ALTE. GUILLERMO BROWN TECNICA 2",
            "country_name": "Argentina",
            "connectivity": false
        },
        {
            "lon": -58.91816221,
            "lat": -31.15574369,
            "school_name": "ARGENTINA SOBERANA 47",
            "country_name": "Argentina",
            "connectivity": false
        },
        {
            "lon": -59.36572433,
            "lat": -26.18591606,
            "school_name": "NEP Y FP N\u00ba 27",
            "country_name": "Argentina",
            "connectivity": false
        },
        {
            "lon": -61.144766,
            "lat": -24.272219,
            "school_name": "JIN N\u00b0 42 - EPEP N\u00b0 95",
            "country_name": "Argentina",
            "connectivity": false
        },
        {
            "lon": -69.95182839,
            "lat": -35.1541609,
            "school_name": "COMANDANTE RAMON FREIRE",
            "country_name": "Argentina",
            "connectivity": false
        },
        {
            "lon": -68.85729915,
            "lat": -32.87820935,
            "school_name": "INST.PRIVADO DE CAPACITACION LABORAL ISLAS MALVINAS",
            "country_name": "Argentina",
            "connectivity": false
        },
        {
            "lon": -54.04619543,
            "lat": -25.67085483,
            "school_name": "INST. ADVENTISTA GRAL. URQUIZA",
            "country_name": "Argentina",
            "connectivity": false
        },
        {
            "lon": -68.29827,
            "lat": -38.62496,
            "school_name": "CENTRO DE FORMACION PROFESIONAL AGROPECUARIA 2",
            "country_name": "Argentina",
            "connectivity": false
        },
        {
            "lon": -65.36872897,
            "lat": -24.57701543,
            "school_name": "COMBATE DE LOS SAUCES EX N\u00b0 561",
            "country_name": "Argentina",
            "connectivity": false
        },
        {
            "lon": -61.4917638,
            "lat": -31.24533492,
            "school_name": "E.E. T\u00c9CNICO PROFESIONAL NRO 654 DOCTOR NICOL\u00c1S AVELLANEDA",
            "country_name": "Argentina",
            "connectivity": false
        },
        {
            "lon": -60.65035416,
            "lat": -33.02052372,
            "school_name": "ESCUELA PART. INC. NRO 1220 SAN MARTIN DE PORRES",
            "country_name": "Argentina",
            "connectivity": false
        },
        {
            "lon": -62.17738,
            "lat": -27.91531,
            "school_name": "ESCUELA N\u00ba 539 ESCUELA DE LA PATRIA",
            "country_name": "Argentina",
            "connectivity": false
        },
        {
            "lon": -64.48057828,
            "lat": -27.16180486,
            "school_name": "CENTRO EDUCATIVO DE EDUC. PARA ADULTOS N\u00ba148",
            "country_name": "Argentina",
            "connectivity": false
        },
        {
            "lon": 5.662465,
            "lat": 5.889675,
            "school_name": "Name unknown",
            "country_name": "Nigeria",
            "connectivity": false
        },
        {
            "lon": 6.02254,
            "lat": 5.49639,
            "school_name": "Name unknown",
            "country_name": "Nigeria",
            "connectivity": false
        },
        {
            "lon": 7.37718,
            "lat": 5.4207,
            "school_name": "Name unknown",
            "country_name": "Nigeria",
            "connectivity": false
        },
        {
            "lon": 7.3160065,
            "lat": 4.924398938,
            "school_name": "Name unknown",
            "country_name": "Nigeria",
            "connectivity": false
        },
        {
            "lon": 7.455913333,
            "lat": 5.573768333,
            "school_name": "Name unknown",
            "country_name": "Nigeria",
            "connectivity": false
        },
        {
            "lon": 13.70672691,
            "lat": 11.54150821,
            "school_name": "Name unknown",
            "country_name": "Nigeria",
            "connectivity": false
        },
        {
            "lon": 12.66789256,
            "lat": 11.15085397,
            "school_name": "Name unknown",
            "country_name": "Nigeria",
            "connectivity": false
        },
        {
            "lon": 8.224056667,
            "lat": 6.395395,
            "school_name": "Name unknown",
            "country_name": "Nigeria",
            "connectivity": false
        },
        {
            "lon": 5.18809,
            "lat": 7.603143333,
            "school_name": "Name unknown",
            "country_name": "Nigeria",
            "connectivity": false
        },
        {
            "lon": 5.229571667,
            "lat": 7.502498333,
            "school_name": "Name unknown",
            "country_name": "Nigeria",
            "connectivity": false
        },
        {
            "lon": 7.569123,
            "lat": 6.030312,
            "school_name": "Name unknown",
            "country_name": "Nigeria",
            "connectivity": false
        },
        {
            "lon": 7.433506667,
            "lat": 6.262846667,
            "school_name": "Name unknown",
            "country_name": "Nigeria",
            "connectivity": false
        },
        {
            "lon": 7.47028,
            "lat": 6.13566,
            "school_name": "Name unknown",
            "country_name": "Nigeria",
            "connectivity": false
        },
        {
            "lon": 7.495225,
            "lat": 6.426806,
            "school_name": "Name unknown",
            "country_name": "Nigeria",
            "connectivity": false
        },
        {
            "lon": 7.426823333,
            "lat": 6.703261667,
            "school_name": "Name unknown",
            "country_name": "Nigeria",
            "connectivity": false
        },
        {
            "lon": 7.050599,
            "lat": 8.92917,
            "school_name": "Name unknown",
            "country_name": "Nigeria",
            "connectivity": false
        },
        {
            "lon": 7.371778,
            "lat": 8.978558,
            "school_name": "Name unknown",
            "country_name": "Nigeria",
            "connectivity": false
        },
        {
            "lon": 11.20698833,
            "lat": 10.27246833,
            "school_name": "Name unknown",
            "country_name": "Nigeria",
            "connectivity": false
        },
        {
            "lon": -77.5146,
            "lat": -5.70339,
            "school_name": "00022 SAN JUAN DEL MAYO",
            "country_name": "Peru",
            "connectivity": false
        },
        {
            "lon": -76.9734,
            "lat": -6.04073,
            "school_name": "00659 FRANCISCO TEJADA ROJAS",
            "country_name": "Peru",
            "connectivity": false
        },
        {
            "lon": -76.0004,
            "lat": -6.2202,
            "school_name": "591",
            "country_name": "Peru",
            "connectivity": false
        },
        {
            "lon": -75.1982,
            "lat": -12.067,
            "school_name": "1116",
            "country_name": "Peru",
            "connectivity": false
        },
        {
            "lon": -79.7753,
            "lat": -6.77016,
            "school_name": "11521 MARIA DE LOURDES",
            "country_name": "Peru",
            "connectivity": false
        },
        {
            "lon": 9.6319342,
            "lat": 12.3466101,
            "school_name": "Name unknown",
            "country_name": "Nigeria",
            "connectivity": false
        },
        {
            "lon": -79.5024,
            "lat": -4.57254,
            "school_name": "14194",
            "country_name": "Peru",
            "connectivity": false
        },
        {
            "lon": -79.6188,
            "lat": -5.2635,
            "school_name": "14489",
            "country_name": "Peru",
            "connectivity": false
        },
        {
            "lon": -76.6384,
            "lat": -7.41425,
            "school_name": "152",
            "country_name": "Peru",
            "connectivity": false
        },
        {
            "lon": -81.2219,
            "lat": -4.2691,
            "school_name": "15515",
            "country_name": "Peru",
            "connectivity": false
        },
        {
            "lon": -78.1948,
            "lat": -5.93069,
            "school_name": "16257",
            "country_name": "Peru",
            "connectivity": false
        },
        {
            "lon": -78.5551,
            "lat": -5.40751,
            "school_name": "16578",
            "country_name": "Peru",
            "connectivity": false
        },
        {
            "lon": -78.9058,
            "lat": -6.2964,
            "school_name": "16975",
            "country_name": "Peru",
            "connectivity": false
        },
        {
            "lon": -78.5156,
            "lat": -6.1951,
            "school_name": "17436",
            "country_name": "Peru",
            "connectivity": false
        },
        {
            "lon": -79.1769,
            "lat": -5.93753,
            "school_name": "17592",
            "country_name": "Peru",
            "connectivity": false
        },
        {
            "lon": -76.3931,
            "lat": -12.0173,
            "school_name": "20584",
            "country_name": "Peru",
            "connectivity": false
        },
        {
            "lon": -75.6771,
            "lat": -13.2538,
            "school_name": "22284",
            "country_name": "Peru",
            "connectivity": false
        },
        {
            "lon": -74.2334,
            "lat": -14.6035,
            "school_name": "24388",
            "country_name": "Peru",
            "connectivity": false
        },
        {
            "lon": -73.4363,
            "lat": -13.5058,
            "school_name": "282",
            "country_name": "Peru",
            "connectivity": false
        },
        {
            "lon": -75.3567,
            "lat": -11.0175,
            "school_name": "30125",
            "country_name": "Peru",
            "connectivity": false
        },
        {
            "lon": -75.2522,
            "lat": -11.9721,
            "school_name": "30227",
            "country_name": "Peru",
            "connectivity": false
        },
        {
            "lon": -74.7187,
            "lat": -11.1741,
            "school_name": "31431",
            "country_name": "Peru",
            "connectivity": false
        },
        {
            "lon": -75.9695,
            "lat": -9.79374,
            "school_name": "32070",
            "country_name": "Peru",
            "connectivity": false
        },
        {
            "lon": -76.1121,
            "lat": -9.80586,
            "school_name": "33286",
            "country_name": "Peru",
            "connectivity": false
        },
        {
            "lon": -75.6324,
            "lat": -10.0246,
            "school_name": "34509",
            "country_name": "Peru",
            "connectivity": false
        },
        {
            "lon": -74.6872,
            "lat": -12.8883,
            "school_name": "36354",
            "country_name": "Peru",
            "connectivity": false
        },
        {
            "lon": -73.7238,
            "lat": -12.7221,
            "school_name": "38601",
            "country_name": "Peru",
            "connectivity": false
        },
        {
            "lon": -71.0605,
            "lat": -16.1837,
            "school_name": "40196 TEC. AGROPECUARIO ARTESANAL",
            "country_name": "Peru",
            "connectivity": false
        },
        {
            "lon": -74.3542,
            "lat": -13.4101,
            "school_name": "432-143",
            "country_name": "Peru",
            "connectivity": false
        },
        {
            "lon": -72.2219,
            "lat": -14.1299,
            "school_name": "50664 CHILA",
            "country_name": "Peru",
            "connectivity": false
        },
        {
            "lon": -70.2506,
            "lat": -12.9192,
            "school_name": "52013 SANTA RITA ALTA",
            "country_name": "Peru",
            "connectivity": false
        },
        {
            "lon": -71.2284,
            "lat": -14.6441,
            "school_name": "56154",
            "country_name": "Peru",
            "connectivity": false
        },
        {
            "lon": -71.8856,
            "lat": -14.5087,
            "school_name": "56275",
            "country_name": "Peru",
            "connectivity": false
        },
        {
            "lon": -72.9698,
            "lat": -3.383,
            "school_name": "6010268",
            "country_name": "Peru",
            "connectivity": false
        },
        {
            "lon": -70.6489,
            "lat": -3.8703,
            "school_name": "60271",
            "country_name": "Peru",
            "connectivity": false
        },
        {
            "lon": 0.227506,
            "lat": 10.985008,
            "school_name": "EPP DALAGOU G/A",
            "country_name": "Togo",
            "connectivity": false
        },
        {
            "lon": -71.2719,
            "lat": -14.3355,
            "school_name": "614",
            "country_name": "Peru",
            "connectivity": false
        },
        {
            "lon": -76.6987,
            "lat": -5.33772,
            "school_name": "62363",
            "country_name": "Peru",
            "connectivity": false
        },
        {
            "lon": -76.8408,
            "lat": -9.50052,
            "school_name": "665",
            "country_name": "Peru",
            "connectivity": false
        },
        {
            "lon": -77.9785,
            "lat": -9.205,
            "school_name": "693",
            "country_name": "Peru",
            "connectivity": false
        },
        {
            "lon": -75.0706,
            "lat": -8.5959,
            "school_name": "726",
            "country_name": "Peru",
            "connectivity": false
        },
        {
            "lon": -78.282,
            "lat": -6.60944,
            "school_name": "821143",
            "country_name": "Peru",
            "connectivity": false
        },
        {
            "lon": 7.741928,
            "lat": 6.299855,
            "school_name": "Name unknown",
            "country_name": "Nigeria",
            "connectivity": false
        },
        {
            "lon": -78.422,
            "lat": -7.02805,
            "school_name": "821598",
            "country_name": "Peru",
            "connectivity": false
        },
        {
            "lon": -78.0359,
            "lat": -8.3515,
            "school_name": "88264",
            "country_name": "Peru",
            "connectivity": false
        },
        {
            "lon": -74.2286,
            "lat": -14.7565,
            "school_name": "AGROPECUARIO INDUSTRIAL APURIMAC",
            "country_name": "Peru",
            "connectivity": false
        },
        {
            "lon": -71.5277,
            "lat": -16.4112,
            "school_name": "ALEXANDER FLEMING",
            "country_name": "Peru",
            "connectivity": false
        },
        {
            "lon": -77.3666,
            "lat": -9.15812,
            "school_name": "AMIGUITOS DE ALAMEDA",
            "country_name": "Peru",
            "connectivity": false
        },
        {
            "lon": -77.03,
            "lat": -12.0512,
            "school_name": "CEBA - 1049 JUANA ALARCO DE DAMMERT",
            "country_name": "Peru",
            "connectivity": false
        },
        {
            "lon": -74.8755,
            "lat": -10.9277,
            "school_name": "CEBA - ALBERTO BENJAMIN SIMPSON",
            "country_name": "Peru",
            "connectivity": false
        },
        {
            "lon": -79.0826,
            "lat": -6.36199,
            "school_name": "CESAR VALLEJO",
            "country_name": "Peru",
            "connectivity": false
        },
        {
            "lon": -80.2039,
            "lat": -5.9235,
            "school_name": "CPED - CERRO DE ARENA",
            "country_name": "Peru",
            "connectivity": false
        },
        {
            "lon": -80.2591,
            "lat": -3.4954,
            "school_name": "EL CANARIO",
            "country_name": "Peru",
            "connectivity": false
        },
        {
            "lon": -75.6785,
            "lat": -11.4152,
            "school_name": "FE Y ALEGRIA 67 MARIA INMACULADA",
            "country_name": "Peru",
            "connectivity": false
        },
        {
            "lon": -77.5912,
            "lat": -9.37467,
            "school_name": "GOTITAS DE AMOR",
            "country_name": "Peru",
            "connectivity": false
        },
        {
            "lon": -71.534,
            "lat": -14.3593,
            "school_name": "HIPOLITO TUPAC AMARU",
            "country_name": "Peru",
            "connectivity": false
        },
        {
            "lon": -73.835,
            "lat": -13.431,
            "school_name": "HORACIO ZEBALLOS GAMEZ",
            "country_name": "Peru",
            "connectivity": false
        },
        {
            "lon": -69.9544,
            "lat": -15.3567,
            "school_name": "HUANCOLLUSCO I",
            "country_name": "Peru",
            "connectivity": false
        },
        {
            "lon": -69.6769,
            "lat": -15.9918,
            "school_name": "HUANTACACHI",
            "country_name": "Peru",
            "connectivity": false
        },
        {
            "lon": -75.6838,
            "lat": -11.4161,
            "school_name": "HUGO VELASQUEZ MACASSI",
            "country_name": "Peru",
            "connectivity": false
        },
        {
            "lon": 15.25015488,
            "lat": -4.448508292,
            "school_name": "C.S SAINT ANTOINE DE PADOUE",
            "country_name": "Democratic Republic of the Congo",
            "connectivity": false
        },
        {
            "lon": -77.0035,
            "lat": -12.1781,
            "school_name": "INNOVA SCHOOLS LA CAMPI\u00d1A",
            "country_name": "Peru",
            "connectivity": false
        },
        {
            "lon": -76.2407,
            "lat": -9.94269,
            "school_name": "JESUS DE NAZARETH",
            "country_name": "Peru",
            "connectivity": false
        },
        {
            "lon": -77.0263,
            "lat": -12.053,
            "school_name": "JESUS REPARADOR",
            "country_name": "Peru",
            "connectivity": false
        },
        {
            "lon": -80.5496,
            "lat": -4.64016,
            "school_name": "JUAN JOSE FARFAN",
            "country_name": "Peru",
            "connectivity": false
        },
        {
            "lon": -69.0737,
            "lat": -16.3047,
            "school_name": "JUAN VELASCO ALVARADO",
            "country_name": "Peru",
            "connectivity": false
        },
        {
            "lon": -79.8339,
            "lat": -6.74096,
            "school_name": "LA ANUNCIATA",
            "country_name": "Peru",
            "connectivity": false
        },
        {
            "lon": -76.9049,
            "lat": -12.2143,
            "school_name": "LA CATOLICA",
            "country_name": "Peru",
            "connectivity": false
        },
        {
            "lon": -79.1151,
            "lat": -8.08499,
            "school_name": "LOS DIAMANTES",
            "country_name": "Peru",
            "connectivity": false
        },
        {
            "lon": -78.2174,
            "lat": -7.82865,
            "school_name": "LUZ RADIANTE",
            "country_name": "Peru",
            "connectivity": false
        },
        {
            "lon": -70.4897,
            "lat": -15.0063,
            "school_name": "MALLACASI",
            "country_name": "Peru",
            "connectivity": false
        },
        {
            "lon": -74.4872,
            "lat": -11.4792,
            "school_name": "MANUEL SCORZA",
            "country_name": "Peru",
            "connectivity": false
        },
        {
            "lon": -76.9381,
            "lat": -12.1784,
            "school_name": "MANUEL SCORZA TORRES",
            "country_name": "Peru",
            "connectivity": false
        },
        {
            "lon": -75.9931,
            "lat": -11.161,
            "school_name": "MERCEDES CABELLO",
            "country_name": "Peru",
            "connectivity": false
        },
        {
            "lon": -71.4963,
            "lat": -16.4084,
            "school_name": "PALMER",
            "country_name": "Peru",
            "connectivity": false
        },
        {
            "lon": -74.9865,
            "lat": -11.0209,
            "school_name": "POLITECNICO SELVA CENTRAL",
            "country_name": "Peru",
            "connectivity": false
        },
        {
            "lon": -76.9681,
            "lat": -12.165,
            "school_name": "ROSARIO DEL SOLAR",
            "country_name": "Peru",
            "connectivity": false
        },
        {
            "lon": -79.84,
            "lat": -6.80608,
            "school_name": "ROTARY CLUB DE SANTA VICTORIA",
            "country_name": "Peru",
            "connectivity": false
        },
        {
            "lon": -71.5328,
            "lat": -16.4329,
            "school_name": "SANTA CLARA",
            "country_name": "Peru",
            "connectivity": false
        },
        {
            "lon": -72.8761,
            "lat": -13.6286,
            "school_name": "SANTA ROSA",
            "country_name": "Peru",
            "connectivity": false
        },
        {
            "lon": -76.9564,
            "lat": -12.0564,
            "school_name": "SEMILLITAS DEL SABER",
            "country_name": "Peru",
            "connectivity": false
        },
        {
            "lon": -71.615,
            "lat": -16.3102,
            "school_name": "SE\u00d1OR DE LOS MILAGROS (CIRCA)",
            "country_name": "Peru",
            "connectivity": false
        },
        {
            "lon": -73.1686,
            "lat": -14.1084,
            "school_name": "SOCCO",
            "country_name": "Peru",
            "connectivity": false
        },
        {
            "lon": -76.2543,
            "lat": -10.6826,
            "school_name": "THALES DE MILETO",
            "country_name": "Peru",
            "connectivity": false
        },
        {
            "lon": 9.7050772,
            "lat": 12.1022043,
            "school_name": "Name unknown",
            "country_name": "Nigeria",
            "connectivity": false
        },
        {
            "lon": 7.46541941,
            "lat": 10.43974506,
            "school_name": "Name unknown",
            "country_name": "Nigeria",
            "connectivity": false
        },
        {
            "lon": 7.42242319,
            "lat": 10.43495113,
            "school_name": "Name unknown",
            "country_name": "Nigeria",
            "connectivity": false
        },
        {
            "lon": 7.934092283,
            "lat": 9.693315625,
            "school_name": "Name unknown",
            "country_name": "Nigeria",
            "connectivity": false
        },
        {
            "lon": 7.940415094,
            "lat": 9.635430981,
            "school_name": "Name unknown",
            "country_name": "Nigeria",
            "connectivity": false
        },
        {
            "lon": 8.49421654,
            "lat": 9.456521841,
            "school_name": "Name unknown",
            "country_name": "Nigeria",
            "connectivity": false
        },
        {
            "lon": 8.295023178,
            "lat": 9.806657291,
            "school_name": "Name unknown",
            "country_name": "Nigeria",
            "connectivity": false
        },
        {
            "lon": 8.21798362,
            "lat": 9.60619852,
            "school_name": "Name unknown",
            "country_name": "Nigeria",
            "connectivity": false
        },
        {
            "lon": 12.123629,
            "lat": 9.505788,
            "school_name": "Name unknown",
            "country_name": "Nigeria",
            "connectivity": false
        },
        {
            "lon": 8.816052,
            "lat": 11.83954,
            "school_name": "Name unknown",
            "country_name": "Nigeria",
            "connectivity": false
        },
        {
            "lon": 12.42999,
            "lat": 9.772242,
            "school_name": "Name unknown",
            "country_name": "Nigeria",
            "connectivity": false
        },
        {
            "lon": 6.764957,
            "lat": 8.043293,
            "school_name": "Name unknown",
            "country_name": "Nigeria",
            "connectivity": false
        },
        {
            "lon": 6.19527,
            "lat": 7.631929,
            "school_name": "Name unknown",
            "country_name": "Nigeria",
            "connectivity": false
        },
        {
            "lon": 7.593058,
            "lat": 7.19577,
            "school_name": "Name unknown",
            "country_name": "Nigeria",
            "connectivity": false
        },
        {
            "lon": 6.016449,
            "lat": 8.753585,
            "school_name": "Name unknown",
            "country_name": "Nigeria",
            "connectivity": false
        },
        {
            "lon": 3.280664267,
            "lat": 6.631795072,
            "school_name": "Name unknown",
            "country_name": "Nigeria",
            "connectivity": false
        },
        {
            "lon": 3.292536,
            "lat": 6.609011,
            "school_name": "Name unknown",
            "country_name": "Nigeria",
            "connectivity": false
        },
        {
            "lon": 3.239754,
            "lat": 6.566256,
            "school_name": "Name unknown",
            "country_name": "Nigeria",
            "connectivity": false
        },
        {
            "lon": 3.269371537,
            "lat": 6.644051255,
            "school_name": "Name unknown",
            "country_name": "Nigeria",
            "connectivity": false
        },
        {
            "lon": 7.223287,
            "lat": 4.846189,
            "school_name": "Name unknown",
            "country_name": "Nigeria",
            "connectivity": false
        },
        {
            "lon": 3.66184,
            "lat": 6.44704,
            "school_name": "Name unknown",
            "country_name": "Nigeria",
            "connectivity": false
        },
        {
            "lon": 3.71976,
            "lat": 6.46974,
            "school_name": "Name unknown",
            "country_name": "Nigeria",
            "connectivity": false
        },
        {
            "lon": 3.19014,
            "lat": 6.45247,
            "school_name": "Name unknown",
            "country_name": "Nigeria",
            "connectivity": false
        },
        {
            "lon": 6.940323114,
            "lat": 9.645754695,
            "school_name": "Name unknown",
            "country_name": "Nigeria",
            "connectivity": false
        },
        {
            "lon": 7.004076667,
            "lat": 9.633383333,
            "school_name": "Name unknown",
            "country_name": "Nigeria",
            "connectivity": false
        },
        {
            "lon": 6.24953,
            "lat": 10.19314,
            "school_name": "Name unknown",
            "country_name": "Nigeria",
            "connectivity": false
        },
        {
            "lon": 5.258277655,
            "lat": 11.10469937,
            "school_name": "Name unknown",
            "country_name": "Nigeria",
            "connectivity": false
        },
        {
            "lon": 3.192993333,
            "lat": 6.806561667,
            "school_name": "Name unknown",
            "country_name": "Nigeria",
            "connectivity": false
        },
        {
            "lon": 3.31998922,
            "lat": 6.68162813,
            "school_name": "Name unknown",
            "country_name": "Nigeria",
            "connectivity": false
        },
        {
            "lon": 4.1684278,
            "lat": 6.6427467,
            "school_name": "Name unknown",
            "country_name": "Nigeria",
            "connectivity": false
        },
        {
            "lon": 3.940508333,
            "lat": 6.949355,
            "school_name": "Name unknown",
            "country_name": "Nigeria",
            "connectivity": false
        },
        {
            "lon": 3.434618333,
            "lat": 7.187605,
            "school_name": "Name unknown",
            "country_name": "Nigeria",
            "connectivity": false
        },
        {
            "lon": 5.17598,
            "lat": 7.24157,
            "school_name": "Name unknown",
            "country_name": "Nigeria",
            "connectivity": false
        },
        {
            "lon": 4.984129,
            "lat": 6.769821,
            "school_name": "Name unknown",
            "country_name": "Nigeria",
            "connectivity": false
        },
        {
            "lon": 4.889721,
            "lat": 7.560384,
            "school_name": "Name unknown",
            "country_name": "Nigeria",
            "connectivity": false
        },
        {
            "lon": 7.779499,
            "lat": 5.393648,
            "school_name": "Name unknown",
            "country_name": "Nigeria",
            "connectivity": false
        },
        {
            "lon": 3.935675,
            "lat": 7.368827,
            "school_name": "Name unknown",
            "country_name": "Nigeria",
            "connectivity": false
        },
        {
            "lon": 4.251806,
            "lat": 8.142852,
            "school_name": "Name unknown",
            "country_name": "Nigeria",
            "connectivity": false
        },
        {
            "lon": 4.140566,
            "lat": 8.747142,
            "school_name": "Name unknown",
            "country_name": "Nigeria",
            "connectivity": false
        },
        {
            "lon": 3.952159,
            "lat": 7.345418,
            "school_name": "Name unknown",
            "country_name": "Nigeria",
            "connectivity": false
        },
        {
            "lon": 8.996061,
            "lat": 9.297426,
            "school_name": "Name unknown",
            "country_name": "Nigeria",
            "connectivity": false
        },
        {
            "lon": 7.378692,
            "lat": 4.567487,
            "school_name": "Name unknown",
            "country_name": "Nigeria",
            "connectivity": false
        },
        {
            "lon": 7.069083333,
            "lat": 4.83975,
            "school_name": "Name unknown",
            "country_name": "Nigeria",
            "connectivity": false
        },
        {
            "lon": 11.063329,
            "lat": 9.520764,
            "school_name": "Name unknown",
            "country_name": "Nigeria",
            "connectivity": false
        },
        {
            "lon": 10.418301,
            "lat": 8.703028,
            "school_name": "Name unknown",
            "country_name": "Nigeria",
            "connectivity": false
        },
        {
            "lon": 10.04042,
            "lat": 7.329152,
            "school_name": "Name unknown",
            "country_name": "Nigeria",
            "connectivity": false
        },
        {
            "lon": 9.962121,
            "lat": 7.459459,
            "school_name": "Name unknown",
            "country_name": "Nigeria",
            "connectivity": false
        },
        {
            "lon": 10.0556,
            "lat": 7.195729,
            "school_name": "Name unknown",
            "country_name": "Nigeria",
            "connectivity": false
        },
        {
            "lon": 11.657272,
            "lat": 8.748663,
            "school_name": "Name unknown",
            "country_name": "Nigeria",
            "connectivity": false
        },
        {
            "lon": 6.822052,
            "lat": 6.257582,
            "school_name": "Name unknown",
            "country_name": "Nigeria",
            "connectivity": false
        },
        {
            "lon": 7.030338,
            "lat": 6.308277,
            "school_name": "Name unknown",
            "country_name": "Nigeria",
            "connectivity": false
        },
        {
            "lon": 7.20555,
            "lat": 6.066191,
            "school_name": "Name unknown",
            "country_name": "Nigeria",
            "connectivity": false
        },
        {
            "lon": 7.27958441,
            "lat": 12.85921706,
            "school_name": "Name unknown",
            "country_name": "Nigeria",
            "connectivity": false
        },
        {
            "lon": 7.281720042,
            "lat": 11.41718209,
            "school_name": "Name unknown",
            "country_name": "Nigeria",
            "connectivity": false
        },
        {
            "lon": 7.94760035,
            "lat": 12.7290239,
            "school_name": "Name unknown",
            "country_name": "Nigeria",
            "connectivity": false
        },
        {
            "lon": 10.21896422,
            "lat": 10.08456409,
            "school_name": "Name unknown",
            "country_name": "Nigeria",
            "connectivity": false
        },
        {
            "lon": 9.535211053,
            "lat": 9.57104276,
            "school_name": "Name unknown",
            "country_name": "Nigeria",
            "connectivity": false
        },
        {
            "lon": 10.30858956,
            "lat": 11.24545236,
            "school_name": "Name unknown",
            "country_name": "Nigeria",
            "connectivity": false
        },
        {
            "lon": 10.47750825,
            "lat": 11.50559397,
            "school_name": "Name unknown",
            "country_name": "Nigeria",
            "connectivity": false
        },
        {
            "lon": 10.45160294,
            "lat": 10.5223006,
            "school_name": "Name unknown",
            "country_name": "Nigeria",
            "connectivity": false
        },
        {
            "lon": 4.8518,
            "lat": 11.41134,
            "school_name": "Name unknown",
            "country_name": "Nigeria",
            "connectivity": false
        },
        {
            "lon": 4.510349035,
            "lat": 11.42412901,
            "school_name": "Name unknown",
            "country_name": "Nigeria",
            "connectivity": false
        },
        {
            "lon": 5.47990723,
            "lat": 11.47353135,
            "school_name": "Name unknown",
            "country_name": "Nigeria",
            "connectivity": false
        },
        {
            "lon": 6.425307,
            "lat": 5.300131,
            "school_name": "Name unknown",
            "country_name": "Nigeria",
            "connectivity": false
        },
        {
            "lon": 6.48847,
            "lat": 5.15922,
            "school_name": "Name unknown",
            "country_name": "Nigeria",
            "connectivity": false
        },
        {
            "lon": 5.589085716,
            "lat": 12.55945994,
            "school_name": "Name unknown",
            "country_name": "Nigeria",
            "connectivity": false
        },
        {
            "lon": 8.870028,
            "lat": 7.414194,
            "school_name": "Name unknown",
            "country_name": "Nigeria",
            "connectivity": false
        },
        {
            "lon": 9.487912,
            "lat": 7.244759,
            "school_name": "Name unknown",
            "country_name": "Nigeria",
            "connectivity": false
        },
        {
            "lon": 9.414629,
            "lat": 6.782925,
            "school_name": "Name unknown",
            "country_name": "Nigeria",
            "connectivity": false
        },
        {
            "lon": 7.721885,
            "lat": 7.095381,
            "school_name": "Name unknown",
            "country_name": "Nigeria",
            "connectivity": false
        },
        {
            "lon": 8.5101,
            "lat": 7.053643,
            "school_name": "Name unknown",
            "country_name": "Nigeria",
            "connectivity": false
        },
        {
            "lon": 5.92568812,
            "lat": 12.10659026,
            "school_name": "Name unknown",
            "country_name": "Nigeria",
            "connectivity": false
        },
        {
            "lon": 6.149436235,
            "lat": 11.69763386,
            "school_name": "Name unknown",
            "country_name": "Nigeria",
            "connectivity": false
        },
        {
            "lon": 9.25132,
            "lat": 6.541248,
            "school_name": "Name unknown",
            "country_name": "Nigeria",
            "connectivity": false
        },
        {
            "lon": 35.13547438,
            "lat": -15.32540762,
            "school_name": "Mulambe Primary",
            "country_name": "Malawi",
            "connectivity": false
        },
        {
            "lon": -10.680183,
            "lat": 16.87,
            "school_name": "Amriche",
            "country_name": "Mauritania",
            "connectivity": false
        },
        {
            "lon": -56.69870473,
            "lat": -36.54179654,
            "school_name": "JARDIN DE INFANTES N\u00ba903",
            "country_name": "Argentina",
            "connectivity": false
        },
        {
            "lon": -57.203502,
            "lat": -27.67831469,
            "school_name": "ANEXO CENTRO DE FORMACION PROFESIONAL",
            "country_name": "Argentina",
            "connectivity": false
        },
        {
            "lon": -78.4463,
            "lat": -5.6902,
            "school_name": "17297",
            "country_name": "Peru",
            "connectivity": false
        },
        {
            "lon": -74.8131,
            "lat": -10.8788,
            "school_name": "2112",
            "country_name": "Peru",
            "connectivity": false
        },
        {
            "lon": -77.6494,
            "lat": -9.24116,
            "school_name": "86289 VIRGEN DE NATIVIDAD",
            "country_name": "Peru",
            "connectivity": false
        },
        {
            "lon": -71.5275,
            "lat": -16.4316,
            "school_name": "SKY GARDEN",
            "country_name": "Peru",
            "connectivity": false
        },
        {
            "lon": 7.4921983,
            "lat": 6.4160467,
            "school_name": "Name unknown",
            "country_name": "Nigeria",
            "connectivity": false
        },
        {
            "lon": 12.061185,
            "lat": 9.455094,
            "school_name": "Name unknown",
            "country_name": "Nigeria",
            "connectivity": false
        },
        {
            "lon": 5.89035,
            "lat": 7.46205,
            "school_name": "Name unknown",
            "country_name": "Nigeria",
            "connectivity": false
        },
        {
            "lon": 59.4491,
            "lat": 42.42375,
            "school_name": "15 - sonli IDUM",
            "country_name": "Uzbekistan",
            "connectivity": false
        },
        {
            "lon": 67.25404125,
            "lat": 39.3950111,
            "school_name": "152-  sonli umumta\u2018lim maktabi",
            "country_name": "Uzbekistan",
            "connectivity": false
        },