{
    "name": "Patchwork Kingdom #377 | Malfroros",
    "description": "The twin kingdoms of Malfroros, separated by a digital divide. A bustling kingdom of 223 schools on top that are all connected to the internet, and 127 schools, not connected, hidden in the upside down kingdom | Created for Giga (GigaConnect.org) \u2014 connecting every school in the world \u2014 in celebration of UNICEF's 75th birthday, by Nadieh Bremer",
    "external_url": "https://dummyURL.com/patchwork_kingdoms_377",
    "image": "https://dummy-storage-url.com/patchwork_kingdoms_377.png",
    "attributes": [
        {
            "trait_type": "Color palette",
            "value": "santa's workshop"
        },
        {
            "display_type": "number",
            "trait_type": "Schools",
            "value": 380,
            "max_value": 460
        },
        {
            "display_type": "number",
            "trait_type": "Ratio - Connected",
            "value": 0.59,
            "max_value": 1
        },
        {
            "display_type": "number",
            "trait_type": "Ratio - Unconnected",
            "value": 0.33,
            "max_value": 1
        },
        {
            "display_type": "number",
            "trait_type": "Ratio - Data unavailable",
            "value": 0.08,
            "max_value": 1
        },
        {
            "trait_type": "Countries",
            "value": "BR-CO-CR-HN-KG-KZ-NA-PH-PS-RW-SL-ZW"
        },
        {
            "display_type": "number",
            "trait_type": "Symbols",
            "value": 44,
            "max_value": 51
        }
    ],
    "cluster_id": 377,
    "num_schools": 380,
    "num_schools_connected": 223,
    "num_schools_unconnected": 127,
    "num_schools_unknown": 30,
    "schools": [
        {
            "lon": -52.1901,
            "lat": -29.6069,
            "school_name": "ESC EST ENS MED CONEGO ALBINO JUCHEM",
            "country_name": "Brazil",
            "connectivity": true
        },
        {
            "lon": -88.58445,
            "lat": 14.27962,
            "school_name": "MARIA LIDIA PEREZ",
            "country_name": "Honduras",
            "connectivity": true
        },
        {
            "lon": -46.5522,
            "lat": -22.9409,
            "school_name": "JOSE MAURICIO DA ROCHA DOM",
            "country_name": "Brazil",
            "connectivity": true
        },
        {
            "lon": -53.7126,
            "lat": -27.1707,
            "school_name": "EMEI CRECHE ELISABETA ROST",
            "country_name": "Brazil",
            "connectivity": true
        },
        {
            "lon": -85.88083,
            "lat": 15.92733,
            "school_name": "CARLOS RENE RIVERA",
            "country_name": "Honduras",
            "connectivity": true
        },
        {
            "lon": -53.3265,
            "lat": -26.5337,
            "school_name": "CENTRO MUNICIPAL DE EDUCACAO",
            "country_name": "Brazil",
            "connectivity": true
        },
        {
            "lon": -89.17429,
            "lat": 14.82199,
            "school_name": "MARCO TULIO CUEVA",
            "country_name": "Honduras",
            "connectivity": true
        },
        {
            "lon": -88.742,
            "lat": 15.26213,
            "school_name": "JOSE NOE GALVEZ",
            "country_name": "Honduras",
            "connectivity": true
        },
        {
            "lon": -51.457314,
            "lat": -27.678509,
            "school_name": "COL EST JESUS MENINO",
            "country_name": "Brazil",
            "connectivity": true
        },
        {
            "lon": -87.07539,
            "lat": 13.47645,
            "school_name": "INSTITUTO MANUEL BONILLA",
            "country_name": "Honduras",
            "connectivity": true
        },
        {
            "lon": -86.95604,
            "lat": 13.74117,
            "school_name": "PEDRO NUFIO",
            "country_name": "Honduras",
            "connectivity": true
        },
        {
            "lon": -87.03919,
            "lat": 13.58908,
            "school_name": "JUAN LINDO",
            "country_name": "Honduras",
            "connectivity": true
        },
        {
            "lon": -87.02889,
            "lat": 14.26751,
            "school_name": "POLIVALENTE SAN JUAN DE FLORES",
            "country_name": "Honduras",
            "connectivity": true
        },
        {
            "lon": -84.82158,
            "lat": 15.91099,
            "school_name": "YAMNI KAYKAN",
            "country_name": "Honduras",
            "connectivity": true
        },
        {
            "lon": 32.43467,
            "lat": -20.82751,
            "school_name": "HAKWATA",
            "country_name": "Zimbabwe",
            "connectivity": true
        },
        {
            "lon": 31.84458,
            "lat": -19.59405,
            "school_name": "BASIRA",
            "country_name": "Zimbabwe",
            "connectivity": true
        },
        {
            "lon": 31.89157,
            "lat": -19.28872,
            "school_name": "NYASHANU",
            "country_name": "Zimbabwe",
            "connectivity": true
        },
        {
            "lon": 31.09421,
            "lat": -16.85808,
            "school_name": "GOTEKA",
            "country_name": "Zimbabwe",
            "connectivity": true
        },
        {
            "lon": 31.35646,
            "lat": -17.5978,
            "school_name": "MASHAMBANHAKA",
            "country_name": "Zimbabwe",
            "connectivity": true
        },
        {
            "lon": 31.57081,
            "lat": -17.88614,
            "school_name": "MUNAMBA",
            "country_name": "Zimbabwe",
            "connectivity": true
        },
        {
            "lon": -84.08805769,
            "lat": 9.87046416,
            "school_name": "CORAZON DE JESUS",
            "country_name": "Costa Rica",
            "connectivity": true
        },
        {
            "lon": -83.65047874,
            "lat": 9.36641777,
            "school_name": "LA LINDA",
            "country_name": "Costa Rica",
            "connectivity": true
        },
        {
            "lon": -84.36299665,
            "lat": 9.96070736,
            "school_name": "THOMAS JEFFERSON",
            "country_name": "Costa Rica",
            "connectivity": true
        },
        {
            "lon": -84.2466119,
            "lat": 10.51418127,
            "school_name": "OSCAR RULAMAN SALAS",
            "country_name": "Costa Rica",
            "connectivity": true
        },
        {
            "lon": -84.11090902,
            "lat": 10.50696065,
            "school_name": "I.D.A. SARAPIQUI",
            "country_name": "Costa Rica",
            "connectivity": true
        },
        {
            "lon": 35.284955,
            "lat": 32.164651,
            "school_name": "awarta sec girls",
            "country_name": "Palestine",
            "connectivity": true
        },
        {
            "lon": 35.245622,
            "lat": 32.224771,
            "school_name": "elmalek  talal secondary for boys",
            "country_name": "Palestine",
            "connectivity": true
        },
        {
            "lon": 35.223165,
            "lat": 31.874424,
            "school_name": "Name unknown",
            "country_name": "Palestine",
            "connectivity": true
        },
        {
            "lon": -84.26671768,
            "lat": 9.70192297,
            "school_name": "COLORADO",
            "country_name": "Costa Rica",
            "connectivity": true
        },
        {
            "lon": -84.1552142,
            "lat": 9.43892401,
            "school_name": "COLINAS DEL ESTE",
            "country_name": "Costa Rica",
            "connectivity": true
        },
        {
            "lon": 30.24088,
            "lat": -17.8298,
            "school_name": "MADZORERA HIGH",
            "country_name": "Zimbabwe",
            "connectivity": true
        },
        {
            "lon": 30.05764,
            "lat": -16.9324,
            "school_name": "GUDUBU",
            "country_name": "Zimbabwe",
            "connectivity": true
        },
        {
            "lon": 31.28018,
            "lat": -19.41139,
            "school_name": "WETE",
            "country_name": "Zimbabwe",
            "connectivity": true
        },
        {
            "lon": 30.55993,
            "lat": -19.97218,
            "school_name": "ZVAMAHANDE",
            "country_name": "Zimbabwe",
            "connectivity": true
        },
        {
            "lon": 28.05073,
            "lat": -19.94774,
            "school_name": "ST.JAMES",
            "country_name": "Zimbabwe",
            "connectivity": true
        },
        {
            "lon": 29.06365,
            "lat": -20.80154,
            "school_name": "DOMBASHOKO",
            "country_name": "Zimbabwe",
            "connectivity": true
        },
        {
            "lon": 28.86516,
            "lat": -17.96808,
            "school_name": "SUNGWIZA",
            "country_name": "Zimbabwe",
            "connectivity": true
        },
        {
            "lon": 29.14195,
            "lat": -18.97089,
            "school_name": "KANYE S.D.A",
            "country_name": "Zimbabwe",
            "connectivity": true
        },
        {
            "lon": -76.90472222,
            "lat": 0.423333333,
            "school_name": "COL AGROP VALLE DEL GUAMUEZ",
            "country_name": "Colombia",
            "connectivity": true
        },
        {
            "lon": -73.02384357,
            "lat": 6.68266777,
            "school_name": "Name unknown",
            "country_name": "Colombia",
            "connectivity": false
        },
        {
            "lon": -74.10527778,
            "lat": 4.498888889,
            "school_name": "Name unknown",
            "country_name": "Colombia",
            "connectivity": false
        },
        {
            "lon": 16.378595,
            "lat": -17.516914,
            "school_name": "Epinga JP",
            "country_name": "Namibia",
            "connectivity": false
        },
        {
            "lon": 121.178284,
            "lat": 16.5223,
            "school_name": "Solano North ES",
            "country_name": "Philippines",
            "connectivity": true
        },
        {
            "lon": 121.4057333,
            "lat": 16.71788333,
            "school_name": "Villa Miemban ES",
            "country_name": "Philippines",
            "connectivity": true
        },
        {
            "lon": 121.0193987,
            "lat": 14.33536697,
            "school_name": "Estrella ES",
            "country_name": "Philippines",
            "connectivity": true
        },
        {
            "lon": 118.053075,
            "lat": 9.18419,
            "school_name": "Malangsee Hilside ES",
            "country_name": "Philippines",
            "connectivity": true
        },
        {
            "lon": 123.331869,
            "lat": 13.558059,
            "school_name": "San Antonio ES",
            "country_name": "Philippines",
            "connectivity": true
        },
        {
            "lon": 123.7503552,
            "lat": 13.3086386,
            "school_name": "San Francisco ES",
            "country_name": "Philippines",
            "connectivity": true
        },
        {
            "lon": 124.38555,
            "lat": 9.72048,
            "school_name": "Angilan ES",
            "country_name": "Philippines",
            "connectivity": true
        },
        {
            "lon": 123.820702,
            "lat": 10.566739,
            "school_name": "Bairan ES",
            "country_name": "Philippines",
            "connectivity": true
        },
        {
            "lon": 125.3731,
            "lat": 11.9181,
            "school_name": "Danao ES",
            "country_name": "Philippines",
            "connectivity": true
        },
        {
            "lon": 125.5085144,
            "lat": 11.277306,
            "school_name": "Pingan ES",
            "country_name": "Philippines",
            "connectivity": true
        },
        {
            "lon": 124.792923,
            "lat": 7.662234,
            "school_name": "Manubiray ES",
            "country_name": "Philippines",
            "connectivity": true
        },
        {
            "lon": 125.989696,
            "lat": 8.428551,
            "school_name": "Manangahon ES",
            "country_name": "Philippines",
            "connectivity": true
        },
        {
            "lon": 125.505913,
            "lat": 9.723027,
            "school_name": "Quezon ES",
            "country_name": "Philippines",
            "connectivity": true
        },
        {
            "lon": -43.93347,
            "lat": -19.327646,
            "school_name": "EM NELSON RIBEIRO DA SILVA",
            "country_name": "Brazil",
            "connectivity": true
        },
        {
            "lon": -41.468105,
            "lat": -19.6898,
            "school_name": "EM ALGODAO DOCE",
            "country_name": "Brazil",
            "connectivity": false
        },
        {
            "lon": -41.348804,
            "lat": -21.724644,
            "school_name": "EM FRANCISCO FARIA BARBOSA",
            "country_name": "Brazil",
            "connectivity": true
        },
        {
            "lon": 120.0107828,
            "lat": 15.27504495,
            "school_name": "Bangan -Capayawan ES",
            "country_name": "Philippines",
            "connectivity": true
        },
        {
            "lon": 124.851689,
            "lat": 10.133255,
            "school_name": "Tomas Oppus Pilot School (TOPS)",
            "country_name": "Philippines",
            "connectivity": true
        },
        {
            "lon": -72.48519444,
            "lat": 6.44252777,
            "school_name": "ESC EL CHIVECHE",
            "country_name": "Colombia",
            "connectivity": true
        },
        {
            "lon": -72.76611165,
            "lat": 7.833326993,
            "school_name": "SEDE SAN LUIS DE CARRIZAL",
            "country_name": "Colombia",
            "connectivity": true
        },
        {
            "lon": -72.985833,
            "lat": 6.995,
            "school_name": "INSTITUTO DEL ORIENTE",
            "country_name": "Colombia",
            "connectivity": true
        },
        {
            "lon": -73.02419609,
            "lat": 10.39080867,
            "school_name": "INST. EDU. CONCENTRACI\u00c0N DE DESARROLLO RURAL",
            "country_name": "Colombia",
            "connectivity": true
        },
        {
            "lon": -73.29194444,
            "lat": 5.82666666,
            "school_name": "CENT EDUC AVENDA\u00d1OS",
            "country_name": "Colombia",
            "connectivity": true
        },
        {
            "lon": -73.33197222,
            "lat": 5.71436111,
            "school_name": "ESC SANTA BARBARA",
            "country_name": "Colombia",
            "connectivity": true
        },
        {
            "lon": -73.714722,
            "lat": 3.981111,
            "school_name": "SEDE PRINCIPAL - SANTA TERESITA",
            "country_name": "Colombia",
            "connectivity": true
        },
        {
            "lon": -74.02105064,
            "lat": 5.56370976,
            "school_name": "ESC MARIPI VIEJO",
            "country_name": "Colombia",
            "connectivity": true
        },
        {
            "lon": -73.988896,
            "lat": 5.448892,
            "school_name": "I.E. SAN MIGUEL - SEDE PRINCIPAL",
            "country_name": "Colombia",
            "connectivity": true
        },
        {
            "lon": -73.99218696,
            "lat": 9.863528911,
            "school_name": "ERM ALTO PLANO",
            "country_name": "Colombia",
            "connectivity": true
        },
        {
            "lon": -74.17823333,
            "lat": 5.22083333,
            "school_name": "ESCUELA RURAL  VERAGUITAS",
            "country_name": "Colombia",
            "connectivity": true
        },
        {
            "lon": -74.12759553,
            "lat": 5.636967496,
            "school_name": "ESC SAN RAFAEL",
            "country_name": "Colombia",
            "connectivity": true
        },
        {
            "lon": -74.47994395,
            "lat": 4.969051797,
            "school_name": "ESCUELA RURAL MAVE",
            "country_name": "Colombia",
            "connectivity": true
        },
        {
            "lon": -75.158056,
            "lat": 5.508056,
            "school_name": "ESCUELA RURAL LA CEIBA",
            "country_name": "Colombia",
            "connectivity": true
        },
        {
            "lon": -75.18505592,
            "lat": 6.098811619,
            "school_name": "C. E. R. CAMPO ALEGRE",
            "country_name": "Colombia",
            "connectivity": true
        },
        {
            "lon": -75.08695698,
            "lat": 10.80434067,
            "school_name": "INSTITUCION EDUCATIVA SAN JOSE DE SACO - SEDE PRINCIPAL",
            "country_name": "Colombia",
            "connectivity": true
        },
        {
            "lon": -75.91860872,
            "lat": 4.743048963,
            "school_name": "GABO SECUNDARIA",
            "country_name": "Colombia",
            "connectivity": true
        },
        {
            "lon": -76.001111,
            "lat": 6.248333,
            "school_name": "C. E. R. EL INDIO",
            "country_name": "Colombia",
            "connectivity": true
        },
        {
            "lon": -76.22195846,
            "lat": 1.892513977,
            "school_name": "INDEPENDENCIA",
            "country_name": "Colombia",
            "connectivity": true
        },
        {
            "lon": -76.24431221,
            "lat": 7.921231831,
            "school_name": "ESC NVA JAMAICA",
            "country_name": "Colombia",
            "connectivity": true
        },
        {
            "lon": -76.34,
            "lat": 2.87,
            "school_name": "CENTRO DOCENTE GUAYOPE",
            "country_name": "Colombia",
            "connectivity": true
        },
        {
            "lon": -76.63254224,
            "lat": 2.761748438,
            "school_name": "ESCUELA RURAL MIXTA LA FLORIDA",
            "country_name": "Colombia",
            "connectivity": true
        },
        {
            "lon": -76.48197937,
            "lat": 5.785656452,
            "school_name": "IE DIEGO LUIS CORDOBA - SEDE PRINCIPAL",
            "country_name": "Colombia",
            "connectivity": true
        },
        {
            "lon": -76.64968682,
            "lat": 7.75453245,
            "school_name": "I. E. JOSE MARIA MU\u00d1OZ FLOREZ",
            "country_name": "Colombia",
            "connectivity": true
        },
        {
            "lon": -76.636667,
            "lat": 7.385278,
            "school_name": "E R LOS CEDROS",
            "country_name": "Colombia",
            "connectivity": true
        },
        {
            "lon": -36.70921,
            "lat": -7.1376667,
            "school_name": "EEEF E EJA GERONCIO NOBREGA",
            "country_name": "Brazil",
            "connectivity": true
        },
        {
            "lon": -77.53472222,
            "lat": 1.518333333,
            "school_name": "INSTITUCION EDUCATIVA LA PAZ",
            "country_name": "Colombia",
            "connectivity": true
        },
        {
            "lon": -77.58928991,
            "lat": 1.098345095,
            "school_name": "CENTRO EDUCATIVO SAN CARLOS",
            "country_name": "Colombia",
            "connectivity": true
        },
        {
            "lon": -77.61418115,
            "lat": 1.194155282,
            "school_name": "CENTRO EDUCATIVO VILLA NUEVA",
            "country_name": "Colombia",
            "connectivity": true
        },
        {
            "lon": -77.68200782,
            "lat": 1.211152531,
            "school_name": "CENTRO EDUCATIVO SAN JOSE",
            "country_name": "Colombia",
            "connectivity": true
        },
        {
            "lon": -78.03339809,
            "lat": 2.489795988,
            "school_name": "CENTRO EDUCATIVO BOCA DE ANGOSTURA",
            "country_name": "Colombia",
            "connectivity": true
        },
        {
            "lon": -78.67047942,
            "lat": 1.765813619,
            "school_name": "SEDE # 2 INDIGENA AWA ALTO PALAY",
            "country_name": "Colombia",
            "connectivity": true
        },
        {
            "lon": -53.5341,
            "lat": -29.4336,
            "school_name": "ESC EST ENS FUN NOSSA SENHORA APARECIDA",
            "country_name": "Brazil",
            "connectivity": true
        },
        {
            "lon": -60.8067,
            "lat": -12.5717,
            "school_name": "EIEEFM CAPITAO ARITIMON",
            "country_name": "Brazil",
            "connectivity": false
        },
        {
            "lon": -61.3723,
            "lat": -3.9023,
            "school_name": "ESC BOM JESUS",
            "country_name": "Brazil",
            "connectivity": false
        },
        {
            "lon": -60.003,
            "lat": -3.1275,
            "school_name": "ESCOLA ESTADUAL BALBINA MESTRINHO",
            "country_name": "Brazil",
            "connectivity": true
        },
        {
            "lon": -66.8892,
            "lat": -4.8694,
            "school_name": "CRECHE PROF RAIMUNDA ROSILDA DA SILVA BARROSO",
            "country_name": "Brazil",
            "connectivity": false
        },
        {
            "lon": -69.8665,
            "lat": 0.5775,
            "school_name": "ESC MUN INDIGENA SAO JOSE DE ANCHIETA",
            "country_name": "Brazil",
            "connectivity": false
        },
        {
            "lon": -69.8152,
            "lat": -4.3945,
            "school_name": "ESC BELO HORIZONTE",
            "country_name": "Brazil",
            "connectivity": false
        },
        {
            "lon": -61.3341,
            "lat": 1.9767,
            "school_name": "ESCOLA ESTADUAL VALERIO MAGALHAES",
            "country_name": "Brazil",
            "connectivity": false
        },
        {
            "lon": -60.5265,
            "lat": 4.1778,
            "school_name": "ESCOLA ESTADUAL INDIGENA INDIA KAIPITA",
            "country_name": "Brazil",
            "connectivity": false
        },
        {
            "lon": -47.3677,
            "lat": -20.5266,
            "school_name": "ANGELO GOSUEN PROF",
            "country_name": "Brazil",
            "connectivity": true
        },
        {
            "lon": -55.0589,
            "lat": -4.1674,
            "school_name": "E M E F AMARO ALBERTINO DE SOUSA",
            "country_name": "Brazil",
            "connectivity": false
        },
        {
            "lon": -47.7715,
            "lat": -1.7671,
            "school_name": "E M E F MONTE DE OURO",
            "country_name": "Brazil",
            "connectivity": true
        },
        {
            "lon": -53.0015,
            "lat": -3.5416,
            "school_name": "E M E F SAO JOAO BATISTA I",
            "country_name": "Brazil",
            "connectivity": false
        },
        {
            "lon": -50.4161,
            "lat": -1.565,
            "school_name": "E M E I F JUSTINO COSTA",
            "country_name": "Brazil",
            "connectivity": true
        },
        {
            "lon": -46.8409,
            "lat": -1.1551,
            "school_name": "E M E F GABRIEL MONTES",
            "country_name": "Brazil",
            "connectivity": false
        },
        {
            "lon": -56.0628,
            "lat": -1.1648,
            "school_name": "EMEF SAO FRANCISCO",
            "country_name": "Brazil",
            "connectivity": false
        },
        {
            "lon": -48.4122,
            "lat": -1.3546,
            "school_name": "UEI JADER BARBALHO",
            "country_name": "Brazil",
            "connectivity": true
        },
        {
            "lon": -47.7419,
            "lat": -5.7029,
            "school_name": "ESC MUL SAO JOSE",
            "country_name": "Brazil",
            "connectivity": false
        },
        {
            "lon": -47.6043,
            "lat": -5.5893,
            "school_name": "ESCOLA MUNICIPAL JARBAS PASSARINHO",
            "country_name": "Brazil",
            "connectivity": true
        },
        {
            "lon": -49.5567,
            "lat": -8.8043,
            "school_name": "CRECHE MUNICIPAL TIA ERNESTINA",
            "country_name": "Brazil",
            "connectivity": true
        },
        {
            "lon": -44.9914,
            "lat": -3.4019,
            "school_name": "EM ELZA DE OLIVEIRA SOUSA",
            "country_name": "Brazil",
            "connectivity": true
        },
        {
            "lon": -45.5173,
            "lat": -2.2937,
            "school_name": "EM SAO JORGE",
            "country_name": "Brazil",
            "connectivity": false
        },
        {
            "lon": -45.7704,
            "lat": -3.6386,
            "school_name": "EMEB MEN DE SA",
            "country_name": "Brazil",
            "connectivity": false
        },
        {
            "lon": -36.0667,
            "lat": -7.0754,
            "school_name": "EMEF OSMAN CAVALCANTI LEAL",
            "country_name": "Brazil",
            "connectivity": true
        },
        {
            "lon": -46.7195,
            "lat": -5.8302,
            "school_name": "ESCOLA MUNICIPAL SANTA MARIA",
            "country_name": "Brazil",
            "connectivity": false
        },
        {
            "lon": -44.1494,
            "lat": -5.7308,
            "school_name": "UE ANTONIO ARAUJO GOMES",
            "country_name": "Brazil",
            "connectivity": false
        },
        {
            "lon": -56.139,
            "lat": -21.4899,
            "school_name": "EM PROF\u00aa RUFINA LOUREIRO CALDAS",
            "country_name": "Brazil",
            "connectivity": true
        },
        {
            "lon": -44.7788,
            "lat": -4.2516,
            "school_name": "UEF PANTANAL",
            "country_name": "Brazil",
            "connectivity": true
        },
        {
            "lon": -44.9343,
            "lat": -4.0398,
            "school_name": "UNIDADE INTEGRADA PEQUENO PRINCIPE",
            "country_name": "Brazil",
            "connectivity": true
        },
        {
            "lon": -44.0813,
            "lat": -3.2057,
            "school_name": "EM SANTA CATARINA",
            "country_name": "Brazil",
            "connectivity": false
        },
        {
            "lon": -45.3503,
            "lat": -2.973,
            "school_name": "JI CHAPEUZINHO VERMELHO",
            "country_name": "Brazil",
            "connectivity": false
        },
        {
            "lon": -46.0138,
            "lat": -4.9003,
            "school_name": "UNIDADE INTEGRADA DE EDUCACAO ESCOLAR INDIGENA BACURI DOCE",
            "country_name": "Brazil",
            "connectivity": false
        },
        {
            "lon": -42.3483,
            "lat": -4.3314,
            "school_name": "ESCOLA MUNICIPAL HONORIO DOMINGOS DE OLIVEIRA",
            "country_name": "Brazil",
            "connectivity": true
        },
        {
            "lon": -42.7832,
            "lat": -3.9898,
            "school_name": "ESC MUL FRANCISCO LUIS DOS SANTOS",
            "country_name": "Brazil",
            "connectivity": false
        },
        {
            "lon": -43.2246,
            "lat": -7.898,
            "school_name": "ESC MUN ALMIR DA COSTA E SILVA",
            "country_name": "Brazil",
            "connectivity": false
        },
        {
            "lon": -44.7342,
            "lat": -10.3325,
            "school_name": "UNID ESC DE RECREIO",
            "country_name": "Brazil",
            "connectivity": false
        },
        {
            "lon": -41.243,
            "lat": -6.8715,
            "school_name": "ESC MUL MARIANO ROCHA",
            "country_name": "Brazil",
            "connectivity": true
        },
        {
            "lon": -42.1085,
            "lat": -6.5191,
            "school_name": "UNIDADE ESCOLAR VANDERLANE NUNES",
            "country_name": "Brazil",
            "connectivity": true
        },
        {
            "lon": -42.6732,
            "lat": -5.3626,
            "school_name": "ESCOLA MUNICIPAL VICENTE DE OLIVEIRA LOPES",
            "country_name": "Brazil",
            "connectivity": true
        },
        {
            "lon": -40.855,
            "lat": -3.8398,
            "school_name": "LUIS ANTONIO DE AGUIAR EEIEF",
            "country_name": "Brazil",
            "connectivity": true
        },
        {
            "lon": -38.9563,
            "lat": -4.4484,
            "school_name": "JOSE SARAIVA SOBRINHO EEF",
            "country_name": "Brazil",
            "connectivity": true
        },
        {
            "lon": -38.9533,
            "lat": -3.7482,
            "school_name": "ALICE MOREIRA DE OLIVEIRA EEIEF",
            "country_name": "Brazil",
            "connectivity": true
        },
        {
            "lon": -38.951,
            "lat": -5.8514,
            "school_name": "MARIA NEZITE NOGUEIRA EEIEF",
            "country_name": "Brazil",
            "connectivity": true
        },
        {
            "lon": -40.9193,
            "lat": -3.8535,
            "school_name": "OSCAR DE OLIVEIRA MAGALHAES EEIEF",
            "country_name": "Brazil",
            "connectivity": true
        },
        {
            "lon": -37.027,
            "lat": -6.0515,
            "school_name": "UNIVERSIDADE INFANTIL RITA MEDEIROS",
            "country_name": "Brazil",
            "connectivity": false
        },
        {
            "lon": -35.3212,
            "lat": -5.5984,
            "school_name": "EM MARA CABRAL",
            "country_name": "Brazil",
            "connectivity": false
        },
        {
            "lon": -38.12,
            "lat": -6.798,
            "school_name": "EMEF NIVALDO GOMES DE SA",
            "country_name": "Brazil",
            "connectivity": true
        },
        {
            "lon": -37.717,
            "lat": -7.1074,
            "school_name": "EMEFM VICENTE NUNES TAVARES",
            "country_name": "Brazil",
            "connectivity": true
        },
        {
            "lon": -35.8488,
            "lat": -7.5391,
            "school_name": "EMEF FRANCISCO BARBOSA DE AGUIAR",
            "country_name": "Brazil",
            "connectivity": false
        },
        {
            "lon": -35.6213,
            "lat": -7.507,
            "school_name": "E M E F MANOEL BERNARDO FRAZAO",
            "country_name": "Brazil",
            "connectivity": true
        },
        {
            "lon": -35.1807,
            "lat": -6.6337,
            "school_name": "EMEIF ANTONIA DE OLIVEIRA FERNANDES",
            "country_name": "Brazil",
            "connectivity": true
        },
        {
            "lon": -39.8046,
            "lat": -7.5048,
            "school_name": "GRUPO MUL TENENTE MANOEL MIGUEL CRISTOVAO",
            "country_name": "Brazil",
            "connectivity": false
        },
        {
            "lon": -36.9786,
            "lat": -8.5577,
            "school_name": "ESCOLA PEDRO CAMPELO SALVIANO",
            "country_name": "Brazil",
            "connectivity": true
        },
        {
            "lon": -35.6593,
            "lat": -7.7221,
            "school_name": "ESCOLA MUN ANTONIO DA MATA RIBEIRO",
            "country_name": "Brazil",
            "connectivity": true
        },
        {
            "lon": -35.5389,
            "lat": -8.4679,
            "school_name": "CRECHE SAO FRANCISCO DAS CHAGAS",
            "country_name": "Brazil",
            "connectivity": true
        },
        {
            "lon": -34.9921,
            "lat": -8.0224,
            "school_name": "ESCOLA PROFESSORA ALICE DE BARROS MAURICIO",
            "country_name": "Brazil",
            "connectivity": false
        },
        {
            "lon": -37.2211,
            "lat": -10.4347,
            "school_name": "ESCOLA MUNICIPAL PROFESSORA OTILIA SANTANA",
            "country_name": "Brazil",
            "connectivity": true
        },
        {
            "lon": -40.967,
            "lat": -10.1844,
            "school_name": "COLEGIO MUNICIPAL ROSALVO LUIZ CELESTINO",
            "country_name": "Brazil",
            "connectivity": true
        },
        {
            "lon": -41.8889,
            "lat": -11.0073,
            "school_name": "ESCOLA MUNICIPAL OTILIO MENDES BATISTA",
            "country_name": "Brazil",
            "connectivity": true
        },
        {
            "lon": -39.0005,
            "lat": -11.6835,
            "school_name": "ESCOLA MUNICIPAL PROFESSORA MARIA MARLENE DE MATOS BACELAR",
            "country_name": "Brazil",
            "connectivity": true
        },
        {
            "lon": -38.4218,
            "lat": -12.9238,
            "school_name": "ESCOLA MUNICIPAL DE CANABRAVA",
            "country_name": "Brazil",
            "connectivity": true
        },
        {
            "lon": -40.4352,
            "lat": -13.4364,
            "school_name": "ESCOLA ESPECIAL OLGA SARAIVA DA FONSECA",
            "country_name": "Brazil",
            "connectivity": true
        },
        {
            "lon": -42.7139,
            "lat": -13.7742,
            "school_name": "COLEGIO MUNICIPAL JOANA ANGELICA",
            "country_name": "Brazil",
            "connectivity": true
        },
        {
            "lon": -42.3741,
            "lat": -15.0361,
            "school_name": "ESCOLA MUNICIPAL JUSCELINO KUBITSCHEK",
            "country_name": "Brazil",
            "connectivity": true
        },
        {
            "lon": -46.5793,
            "lat": -23.459,
            "school_name": "CYRENE DE OLIVEIRA LAET DONA",
            "country_name": "Brazil",
            "connectivity": true
        },
        {
            "lon": -38.1098,
            "lat": -10.5345,
            "school_name": "CENTRO DE EDUCACAO INFANTIL HILDA SANTANA RIBEIRO",
            "country_name": "Brazil",
            "connectivity": true
        },
        {
            "lon": -42.7772,
            "lat": -18.0856,
            "school_name": "EM SAO GIL",
            "country_name": "Brazil",
            "connectivity": true
        },
        {
            "lon": -43.9648,
            "lat": -15.6071,
            "school_name": "EM HORACIO PEREIRA DA SILVA",
            "country_name": "Brazil",
            "connectivity": true
        },
        {
            "lon": -44.453,
            "lat": -22.1862,
            "school_name": "EM JOAO CARVALHO DA COSTA",
            "country_name": "Brazil",
            "connectivity": false
        },
        {
            "lon": -44.6878,
            "lat": -17.8148,
            "school_name": "EM JUSCELINO RODRIGUES",
            "country_name": "Brazil",
            "connectivity": true
        },
        {
            "lon": -47.2856,
            "lat": -20.0322,
            "school_name": "ESCOLA MUNICIPAL CORONEL JULIO BORGES",
            "country_name": "Brazil",
            "connectivity": true
        },
        {
            "lon": -49.7026,
            "lat": -24.7749,
            "school_name": "JOSE NERY C DE NAPOLI E M EF",
            "country_name": "Brazil",
            "connectivity": true
        },
        {
            "lon": -43.4912,
            "lat": -16.4789,
            "school_name": "E M WALDEMIRA CELESTINO DE OLIVEIRA",
            "country_name": "Brazil",
            "connectivity": true
        },
        {
            "lon": -43.9869,
            "lat": -19.7765,
            "school_name": "EM ELVIRA DE FREITAS OLIVEIRA",
            "country_name": "Brazil",
            "connectivity": true
        },
        {
            "lon": -44.0392,
            "lat": -19.6231,
            "school_name": "CEMAI VO NENZINHA APROVEMI",
            "country_name": "Brazil",
            "connectivity": true
        },
        {
            "lon": -40.4561,
            "lat": -19.2548,
            "school_name": "EMEF BELIZARIO GUSMAO",
            "country_name": "Brazil",
            "connectivity": true
        },
        {
            "lon": -40.9843,
            "lat": -19.7753,
            "school_name": "EMPEFEI JOSE FERNANDES",
            "country_name": "Brazil",
            "connectivity": true
        },
        {
            "lon": -40.3166,
            "lat": -20.3012,
            "school_name": "CMEI VALDIVIA DA PENHA ANTUNES RODRIGUES",
            "country_name": "Brazil",
            "connectivity": true
        },
        {
            "lon": -46.7518,
            "lat": -23.2103,
            "school_name": "PARQUE INTERNACIONAL EMEI",
            "country_name": "Brazil",
            "connectivity": true
        },
        {
            "lon": -42.2642,
            "lat": -22.2777,
            "school_name": "E M PINHEIRAL",
            "country_name": "Brazil",
            "connectivity": false
        },
        {
            "lon": -43.3387,
            "lat": -22.846,
            "school_name": "0515004 ESCOLA MUNICIPAL LUIZ DE CAMOES",
            "country_name": "Brazil",
            "connectivity": true
        },
        {
            "lon": -51.5124,
            "lat": -22.2831,
            "school_name": "TED TEIXEIRA PROFESSOR EMEIF",
            "country_name": "Brazil",
            "connectivity": true
        },
        {
            "lon": -43.1915,
            "lat": -22.9155,
            "school_name": "0123002 ESCOLA MUNICIPAL SANTA CATARINA",
            "country_name": "Brazil",
            "connectivity": true
        },
        {
            "lon": -46.9414,
            "lat": -23.5438,
            "school_name": "CEMEB DIMARAES ANTONIO SANDEI",
            "country_name": "Brazil",
            "connectivity": true
        },
        {
            "lon": -46.4511,
            "lat": -23.7006,
            "school_name": "ANTONIO MESSIAS SZYMANSKI PROFESSOR",
            "country_name": "Brazil",
            "connectivity": true
        },
        {
            "lon": -46.6541,
            "lat": -23.479,
            "school_name": "EMEF MARCILIO DIAS",
            "country_name": "Brazil",
            "connectivity": true
        },
        {
            "lon": -51.7678,
            "lat": -22.4559,
            "school_name": "MONTEIRO LOBATO EMEIF E SUP DE PG",
            "country_name": "Brazil",
            "connectivity": true
        },
        {
            "lon": -48.0505,
            "lat": -20.7274,
            "school_name": "FELIPE GARCIA TERRIBAS PIM",
            "country_name": "Brazil",
            "connectivity": true
        },
        {
            "lon": -46.9943,
            "lat": -23.9229,
            "school_name": "FONTE DAS AGUAS CLARAS EM",
            "country_name": "Brazil",
            "connectivity": true
        },
        {
            "lon": -49.102,
            "lat": -22.3312,
            "school_name": "APPARECIDA P PEZZATTO PROFA EMEI",
            "country_name": "Brazil",
            "connectivity": true
        },
        {
            "lon": -47.4513,
            "lat": -23.4801,
            "school_name": "MARIA GARCIA VECINA CEI 38",
            "country_name": "Brazil",
            "connectivity": true
        },
        {
            "lon": -47.6513,
            "lat": -22.6996,
            "school_name": "ESCOLA DE ENSINO MEDIO EDUCACAO PROFISSIONAL DA FUMEP COTIP",
            "country_name": "Brazil",
            "connectivity": true
        },
        {
            "lon": -44.9535,
            "lat": -23.072,
            "school_name": "CANTINHO DO CEU EMEI",
            "country_name": "Brazil",
            "connectivity": false
        },
        {
            "lon": -46.3756,
            "lat": -23.5048,
            "school_name": "EMEI SEBASTIANA DE ARRUDA CRUZ OLIVEIRA PROFA",
            "country_name": "Brazil",
            "connectivity": true
        },
        {
            "lon": -47.1221,
            "lat": -23.5585,
            "school_name": "JOSE LUIZ PINTO EMEF",
            "country_name": "Brazil",
            "connectivity": true
        },
        {
            "lon": -38.5282,
            "lat": -12.9964,
            "school_name": "CENTRO MUNICIPAL DE EDUCACAO INFANTIL NOSSA SENHORA DA VITORIA",
            "country_name": "Brazil",
            "connectivity": true
        },
        {
            "lon": -46.8006,
            "lat": -23.7483,
            "school_name": "ANICE CHADDAD DE MORAES EM",
            "country_name": "Brazil",
            "connectivity": true
        },
        {
            "lon": -49.0848,
            "lat": -22.291,
            "school_name": "NACILDA DE CAMPOS EMEF",
            "country_name": "Brazil",
            "connectivity": false
        },
        {
            "lon": -46.4715,
            "lat": -23.5496,
            "school_name": "CENTRO ATEND SOCIO-EDUC AO ADOLESCENTE - ITAQUERA-CI",
            "country_name": "Brazil",
            "connectivity": false
        },
        {
            "lon": -52.5791,
            "lat": -29.2674,
            "school_name": "EMEF ESPIRITO SANTO",
            "country_name": "Brazil",
            "connectivity": true
        },
        {
            "lon": -47.1746,
            "lat": -22.3376,
            "school_name": "ARNALDO ORESTES BOTOSO VEREADOR CEMEI",
            "country_name": "Brazil",
            "connectivity": true
        },
        {
            "lon": -50.9273,
            "lat": -20.2189,
            "school_name": "SERGIO DELLA LIBERA PROFESSOR EMEI",
            "country_name": "Brazil",
            "connectivity": true
        },
        {
            "lon": -48.2437,
            "lat": -21.3696,
            "school_name": "EDGARD PONTIERI SARGENTO EMEB",
            "country_name": "Brazil",
            "connectivity": true
        },
        {
            "lon": -48.9275,
            "lat": -23.0948,
            "school_name": "CEEJA DE AVARE",
            "country_name": "Brazil",
            "connectivity": true
        },
        {
            "lon": -45.2678,
            "lat": -23.1656,
            "school_name": "JOAQUIM RIBEIRO DE ALMEIDA EMEF",
            "country_name": "Brazil",
            "connectivity": true
        },
        {
            "lon": -50.2467,
            "lat": -29.8967,
            "school_name": "EMEF MAJOR ANTONIO DE ALENCAR",
            "country_name": "Brazil",
            "connectivity": true
        },
        {
            "lon": -41.7579,
            "lat": -2.9181,
            "school_name": "U E EDISON CUNHA",
            "country_name": "Brazil",
            "connectivity": true
        },
        {
            "lon": -51.2133,
            "lat": -30.0746,
            "school_name": "ESC EST ENS FUN BRIGADEIRO SILVA PAES",
            "country_name": "Brazil",
            "connectivity": true
        },
        {
            "lon": -53.7007,
            "lat": -25.8223,
            "school_name": "ESQUINA GAUCHA E E C DE EF",
            "country_name": "Brazil",
            "connectivity": true
        },
        {
            "lon": -53.263,
            "lat": -25.8984,
            "school_name": "NOVA ESPERANCA C E EF M",
            "country_name": "Brazil",
            "connectivity": true
        },
        {
            "lon": -49.4294,
            "lat": -26.0185,
            "school_name": "VILSON HASSELMANN E M C EI EF",
            "country_name": "Brazil",
            "connectivity": true
        },
        {
            "lon": -53.4853,
            "lat": -24.9531,
            "school_name": "SONHO MEU C M E I",
            "country_name": "Brazil",
            "connectivity": true
        },
        {
            "lon": -48.7801,
            "lat": -27.5024,
            "school_name": "NUCLEO ESC MUN PE ALFREDO JUNKES",
            "country_name": "Brazil",
            "connectivity": false
        },
        {
            "lon": -49.3925,
            "lat": -26.7707,
            "school_name": "EI BAIXO SANTA MARIA",
            "country_name": "Brazil",
            "connectivity": false
        },
        {
            "lon": -49.4464,
            "lat": -26.6919,
            "school_name": "EI RIBEIRAO DO CAMPO",
            "country_name": "Brazil",
            "connectivity": false
        },
        {
            "lon": -51.224,
            "lat": -26.1606,
            "school_name": "REYNALDO F GAEBLER E M EI EF",
            "country_name": "Brazil",
            "connectivity": true
        },
        {
            "lon": -48.5155,
            "lat": -27.4332,
            "school_name": "NEIM MARIA TEREZINHA SARDA DA LUZ",
            "country_name": "Brazil",
            "connectivity": true
        },
        {
            "lon": -51.5272,
            "lat": -29.1488,
            "school_name": "ESCOLA MUNICIPAL DE ENSINO FUNDAMENTAL ERNESTO DORNELES",
            "country_name": "Brazil",
            "connectivity": true
        },
        {
            "lon": -43.9149,
            "lat": -21.5632,
            "school_name": "EM DE PARAISO GARCIA",
            "country_name": "Brazil",
            "connectivity": true
        },
        {
            "lon": -52.5089,
            "lat": -29.4816,
            "school_name": "ESC MUN ENS FUN CARLOS BOETTCHER FILHO",
            "country_name": "Brazil",
            "connectivity": true
        },
        {
            "lon": -49.5072,
            "lat": -25.6705,
            "school_name": "RUI BARBOSA E M C EF",
            "country_name": "Brazil",
            "connectivity": true
        },
        {
            "lon": -51.9789,
            "lat": -23.3973,
            "school_name": "ZEFERINO M KRUKOSKI C M E I DES",
            "country_name": "Brazil",
            "connectivity": true
        },
        {
            "lon": -47.2054,
            "lat": -22.8487,
            "school_name": "ANTONIO ZANLUCHI PROFESSOR",
            "country_name": "Brazil",
            "connectivity": true
        },
        {
            "lon": -49.7027,
            "lat": -14.4276,
            "school_name": "ESC MUL JOAO DURAES",
            "country_name": "Brazil",
            "connectivity": false
        },
        {
            "lon": -42.8716,
            "lat": -15.8128,
            "school_name": "EE ANANIAS ALVES",
            "country_name": "Brazil",
            "connectivity": true
        },
        {
            "lon": -46.7988,
            "lat": -21.3012,
            "school_name": "EE CARVALHO BRITO",
            "country_name": "Brazil",
            "connectivity": true
        },
        {
            "lon": -50.4525,
            "lat": -18.4517,
            "school_name": "ESCOLA MUNICIPAL MILITARIZADA CANAA",
            "country_name": "Brazil",
            "connectivity": true
        },
        {
            "lon": -48.1558,
            "lat": -18.2626,
            "school_name": "CRECHE ESCOLA ADELICE FELIPE DOS SANTOS",
            "country_name": "Brazil",
            "connectivity": true
        },
        {
            "lon": -51.3099,
            "lat": -30.048,
            "school_name": "ESC EST ENS MED PROFESSOR AMERICO BRAGA",
            "country_name": "Brazil",
            "connectivity": true
        },
        {
            "lon": -38.4767,
            "lat": -3.7263,
            "school_name": "ESCOLA MUNICIPAL LUIS ANGELO PEREIRA",
            "country_name": "Brazil",
            "connectivity": true
        },
        {
            "lon": -47.2861,
            "lat": -21.7102,
            "school_name": "YVONE FIORAVANTI BARBON PROFESSORA EMEIF",
            "country_name": "Brazil",
            "connectivity": true
        },
        {
            "lon": -47.9454,
            "lat": -15.8039,
            "school_name": "EC 08 DO CRUZEIRO",
            "country_name": "Brazil",
            "connectivity": true
        },
        {
            "lon": -43.0194,
            "lat": -19.2323,
            "school_name": "EE PROFESSOR ALCIDES FERNANDES DE ASSUNCAO",
            "country_name": "Brazil",
            "connectivity": true
        },
        {
            "lon": -42.1289,
            "lat": -7.0243,
            "school_name": "ESCOLA MUNICIPAL MERCES ROMAO",
            "country_name": "Brazil",
            "connectivity": true
        },
        {
            "lon": -54.5521,
            "lat": -28.138,
            "school_name": "ESCOLA MUNICIPAL DE ENSINO FUNDAMENTAL CLEMENTE SOLTIS",
            "country_name": "Brazil",
            "connectivity": true
        },
        {
            "lon": -51.6621,
            "lat": -23.5203,
            "school_name": "ANGELINA T PINHEIRO E M PROFA EF",
            "country_name": "Brazil",
            "connectivity": true
        },
        {
            "lon": -46.3281,
            "lat": -23.9544,
            "school_name": "DINO BUENO DOUTOR UME",
            "country_name": "Brazil",
            "connectivity": true
        },
        {
            "lon": -47.3995,
            "lat": -22.3532,
            "school_name": "VICENTE FERREIRA DOS SANTOS PROFESSOR",
            "country_name": "Brazil",
            "connectivity": true
        },
        {
            "lon": -60.539,
            "lat": -13.1177,
            "school_name": "EEEFM MANUEL BANDEIRA",
            "country_name": "Brazil",
            "connectivity": true
        },
        {
            "lon": -43.8501,
            "lat": -19.9845,
            "school_name": "EM EMILIA DE LIMA",
            "country_name": "Brazil",
            "connectivity": true
        },
        {
            "lon": -52.7871,
            "lat": -24.2458,
            "school_name": "ALESSANDRA BASTIDA MANCIN E M EI EF",
            "country_name": "Brazil",
            "connectivity": true
        },
        {
            "lon": -43.3528,
            "lat": -22.827,
            "school_name": "0625008 ESCOLA MUNICIPAL VIRGILIO FRANCISCO MONTEIRO",
            "country_name": "Brazil",
            "connectivity": true
        },
        {
            "lon": -49.0929,
            "lat": -25.4372,
            "school_name": "HERMINIO DE A COSTA E M EF",
            "country_name": "Brazil",
            "connectivity": true
        },
        {
            "lon": -43.5361,
            "lat": -22.7751,
            "school_name": "CIEP 168 HILDA SILVEIRA RODRIGUES",
            "country_name": "Brazil",
            "connectivity": true
        },
        {
            "lon": -35.8916,
            "lat": -7.1933,
            "school_name": "CRECHE MUNICIPAL GALBA FARIAS PIMENTEL",
            "country_name": "Brazil",
            "connectivity": true
        },
        {
            "lon": -52.9298,
            "lat": -27.9368,
            "school_name": "ESC EST ENS MED DR ALDO CONTE",
            "country_name": "Brazil",
            "connectivity": true
        },
        {
            "lon": -48.6892,
            "lat": -21.5187,
            "school_name": "PEDRO MASCARI",
            "country_name": "Brazil",
            "connectivity": true
        },
        {
            "lon": -46.4149,
            "lat": -15.6233,
            "school_name": "EE ANALIA CARNEIRO DOS SANTOS",
            "country_name": "Brazil",
            "connectivity": true
        },
        {
            "lon": -43.6683,
            "lat": -19.9023,
            "school_name": "CEMAE II",
            "country_name": "Brazil",
            "connectivity": true
        },
        {
            "lon": -43.5646,
            "lat": -22.9212,
            "school_name": "0918029 ESCOLA MUNICIPAL PRESIDENTE ARTHUR BERNARDES",
            "country_name": "Brazil",
            "connectivity": true
        },
        {
            "lon": -40.4498,
            "lat": -2.8976,
            "school_name": "SENADOR CARLOS JEREISSATI EMEF E LEB INF",
            "country_name": "Brazil",
            "connectivity": true
        },
        {
            "lon": -40.0644,
            "lat": -13.8778,
            "school_name": "COLEGIO MUNICIPAL STELA CAMARA DUBOIS",
            "country_name": "Brazil",
            "connectivity": true
        },
        {
            "lon": -35.5358,
            "lat": -6.6968,
            "school_name": "EMEIEF AFONSO ASTROGILDO DE PAULA",
            "country_name": "Brazil",
            "connectivity": true
        },
        {
            "lon": -39.3683,
            "lat": -5.5834,
            "school_name": "ODILO LOPES GALVAO EEIEF PADRE",
            "country_name": "Brazil",
            "connectivity": true
        },
        {
            "lon": -35.1353,
            "lat": -6.3746,
            "school_name": "EM HOMERO HOMEM",
            "country_name": "Brazil",
            "connectivity": true
        },
        {
            "lon": -35.2026,
            "lat": -5.8274,
            "school_name": "ESCOLA ESTADUAL HEGESIPPO REIS",
            "country_name": "Brazil",
            "connectivity": true
        },
        {
            "lon": -35.0215,
            "lat": -8.1157,
            "school_name": "ESCOLA MUNICIPAL PROFESSOR ROBERTO INACIO DA SILVA",
            "country_name": "Brazil",
            "connectivity": true
        }
    ],
    "num_countries": 12,
    "countries": [
        "Brazil",
        "Colombia",
        "Costa Rica",
        "Honduras",
        "Kazakhstan",
        "Kyrgyzstan",
        "Namibia",
        "Palestine",
        "Philippines",
        "Rwanda",
        "Sierra Leone",
        "Zimbabwe"
    ],
    "schools_no_data": [
        {
            "lon": 25.9544492,
            "lat": -24.6770331,
            "school_name": "Batlokwa (RPC)",
            "country_name": "Botswana",
            "connectivity": false
        },
        {
            "lon": 2.1092999,
            "lat": 13.5415997,
            "school_name": "ADRA Dar-Es-Salam",
            "country_name": "Niger",
            "connectivity": false
        },
        {
            "lon": -10.118557,
            "lat": 5.952916,
            "school_name": "New Series Public",
            "country_name": "Liberia",
            "connectivity": false
        },
        {
            "lon": -8.599929,
            "lat": 5.009422,
            "school_name": "Weatuzon Elem.",
            "country_name": "Liberia",
            "connectivity": false
        },
        {
            "lon": 13.6467653,
            "lat": -5.425078806,
            "school_name": "INST DIATEZULUA",
            "country_name": "Democratic Republic of the Congo",
            "connectivity": false
        },
        {
            "lon": 0.2994441,
            "lat": 6.9956425,
            "school_name": "Name unknown",
            "country_name": "Ghana",
            "connectivity": false
        },
        {
            "lon": -0.2024374,
            "lat": 5.5734763,
            "school_name": "Name unknown",
            "country_name": "Ghana",
            "connectivity": false
        },
        {
            "lon": 30.5022093,
            "lat": 19.27437235,
            "school_name": "Name unknown",
            "country_name": "Sudan",
            "connectivity": false
        },
        {
            "lon": 33.6457729,
            "lat": 16.81382982,
            "school_name": "Name unknown",
            "country_name": "Sudan",
            "connectivity": false
        },
        {
            "lon": 33.69246213,
            "lat": 16.88917262,
            "school_name": "Name unknown",
            "country_name": "Sudan",
            "connectivity": false
        },
        {
            "lon": 33.3699029,
            "lat": 16.66593347,
            "school_name": "Name unknown",
            "country_name": "Sudan",
            "connectivity": false
        },
        {
            "lon": 32.7779694333333,
            "lat": 14.85887165,
            "school_name": "Name unknown",
            "country_name": "Sudan",
            "connectivity": false
        },
        {
            "lon": 32.7481127833333,
            "lat": 14.4064644166667,
            "school_name": "Name unknown",
            "country_name": "Sudan",
            "connectivity": false
        },
        {
            "lon": 22.28430748,
            "lat": 43.1987941,
            "school_name": "\u0409\u0443\u043f\u0447\u0435 \u0428\u043f\u0430\u043d\u0430\u0446",
            "country_name": "Serbia",
            "connectivity": false
        },
        {
            "lon": 23.48174643,
            "lat": 12.90184703,
            "school_name": "Name unknown",
            "country_name": "Sudan",
            "connectivity": false
        },
        {
            "lon": 26.14351915,
            "lat": 11.49265478,
            "school_name": "Name unknown",
            "country_name": "Sudan",
            "connectivity": false
        },
        {
            "lon": -0.361197,
            "lat": 5.8249088,
            "school_name": "Name unknown",
            "country_name": "Ghana",
            "connectivity": false
        },
        {
            "lon": -0.1290746,
            "lat": 10.8593394,
            "school_name": "Name unknown",
            "country_name": "Ghana",
            "connectivity": false
        },
        {
            "lon": -1.4790945,
            "lat": 5.4152432,
            "school_name": "Name unknown",
            "country_name": "Ghana",
            "connectivity": false
        },
        {
            "lon": -2.3925864,
            "lat": 7.6527539,
            "school_name": "Name unknown",
            "country_name": "Ghana",
            "connectivity": false
        },
        {
            "lon": -0.5819186,
            "lat": 5.3915534,
            "school_name": "Name unknown",
            "country_name": "Ghana",
            "connectivity": false
        },
        {
            "lon": -1.5433055,
            "lat": 6.699011,
            "school_name": "Name unknown",
            "country_name": "Ghana",
            "connectivity": false
        },
        {
            "lon": 36.01701,
            "lat": -5.70567,
            "school_name": "MIKWININI",
            "country_name": "United Republic of Tanzania",
            "connectivity": false
        },
        {
            "lon": 32.78766,
            "lat": -3.85714,
            "school_name": "GEMBE",
            "country_name": "United Republic of Tanzania",
            "connectivity": false
        },
        {
            "lon": 38.24286,
            "lat": -6.71892,
            "school_name": "KISEMO",
            "country_name": "United Republic of Tanzania",
            "connectivity": false
        },
        {
            "lon": 33.70213,
            "lat": -9.51499,
            "school_name": "LWANGWA",
            "country_name": "United Republic of Tanzania",
            "connectivity": false
        },
        {
            "lon": 37.94296,
            "lat": -8.07989,
            "school_name": "WANGAMA",
            "country_name": "United Republic of Tanzania",
            "connectivity": false
        },
        {
            "lon": 38.666,
            "lat": -5.28825,
            "school_name": "MKULUMILO",
            "country_name": "United Republic of Tanzania",
            "connectivity": false
        },
        {
            "lon": -2.3119032,
            "lat": 7.3794353,
            "school_name": "Name unknown",
            "country_name": "Ghana",
            "connectivity": false
        },
        {
            "lon": 35.7077845,
            "lat": 0.7815186,
            "school_name": "turbei primary",
            "country_name": "Kenya",
            "connectivity": false
        },
        {
            "lon": 1.27636873,
            "lat": 6.18039316,
            "school_name": "JEPL SCHEKINA",
            "country_name": "Togo",
            "connectivity": false
        },
        {
            "lon": 0.976647,
            "lat": 9.946635,
            "school_name": "JEP AWOULONTA",
            "country_name": "Togo",
            "connectivity": false
        },
        {
            "lon": 0.017062,
            "lat": 11.100872,
            "school_name": "JEP CINKASSE CENTRAL",
            "country_name": "Togo",
            "connectivity": false
        },
        {
            "lon": 0.802154,
            "lat": 7.107454,
            "school_name": "EPP KPELE ADETA ZIONOU",
            "country_name": "Togo",
            "connectivity": false
        },
        {
            "lon": 1.0828138,
            "lat": 8.5065215,
            "school_name": "EPP TABENDE",
            "country_name": "Togo",
            "connectivity": false
        },
        {
            "lon": 1.410731667,
            "lat": 9.026785,
            "school_name": "EPP LIMAMWA G/C",
            "country_name": "Togo",
            "connectivity": false
        },
        {
            "lon": 1.494987,
            "lat": 8.479383,
            "school_name": "EPP BLOU ELAVAGNON",
            "country_name": "Togo",
            "connectivity": false
        },
        {
            "lon": 0.473143,
            "lat": 10.357129,
            "school_name": "EPP MANGO CENTRALE G/A",
            "country_name": "Togo",
            "connectivity": false
        },
        {
            "lon": 0.411971,
            "lat": 10.776179,
            "school_name": "EPP NAKPATONGOU",
            "country_name": "Togo",
            "connectivity": false
        },
        {
            "lon": 1.222621667,
            "lat": 6.134036667,
            "school_name": "CPL LE GRAND ESPOIR",
            "country_name": "Togo",
            "connectivity": false
        },
        {
            "lon": 19.559203,
            "lat": 44.808547,
            "school_name": "\u0416\u0438\u043a\u0430 \u041f\u043e\u043f\u043e\u0432\u0438\u045b",
            "country_name": "Serbia",
            "connectivity": false
        },
        {
            "lon": 19.20478821,
            "lat": 44.5317588,
            "school_name": "\u0412\u0443\u043a \u041a\u0430\u0440\u0430\u045f\u0438\u045b",
            "country_name": "Serbia",
            "connectivity": false
        },
        {
            "lon": 37.34266,
            "lat": -11.03842,
            "school_name": "MATAKA",
            "country_name": "United Republic of Tanzania",
            "connectivity": false
        },
        {
            "lon": 36.13808,
            "lat": -10.46465,
            "school_name": "MANDEPWENDE",
            "country_name": "United Republic of Tanzania",
            "connectivity": false
        },
        {
            "lon": 34.89419,
            "lat": -4.57731,
            "school_name": "MKENGE",
            "country_name": "United Republic of Tanzania",
            "connectivity": false
        },
        {
            "lon": 33.36099,
            "lat": -2.75915,
            "school_name": "BUGANDO",
            "country_name": "United Republic of Tanzania",
            "connectivity": false
        },
        {
            "lon": 33.90836,
            "lat": -1.24756,
            "school_name": "NYAMAGARO",
            "country_name": "United Republic of Tanzania",
            "connectivity": false
        },
        {
            "lon": 35.00143104,
            "lat": -15.74629061,
            "school_name": "Michiru View Girls Sec",
            "country_name": "Malawi",
            "connectivity": false
        },
        {
            "lon": 33.852214,
            "lat": -14.07708096,
            "school_name": "Ching'ombe Primary School",
            "country_name": "Malawi",
            "connectivity": false
        },
        {
            "lon": 35.79910612,
            "lat": -14.71301088,
            "school_name": "Ngokwe",
            "country_name": "Malawi",
            "connectivity": false
        },
        {
            "lon": 35.41814219,
            "lat": -15.02356469,
            "school_name": "Ntulira",
            "country_name": "Malawi",
            "connectivity": false
        },
        {
            "lon": 25.27432194,
            "lat": 1.064619818,
            "school_name": "EP BADJOGE",
            "country_name": "Democratic Republic of the Congo",
            "connectivity": false
        },
        {
            "lon": 28.57684187,
            "lat": 3.651123502,
            "school_name": "INST LANZI",
            "country_name": "Democratic Republic of the Congo",
            "connectivity": false
        },
        {
            "lon": 27.55191968,
            "lat": -10.51469448,
            "school_name": "INST LUKAFU",
            "country_name": "Democratic Republic of the Congo",
            "connectivity": false
        },
        {
            "lon": 29.0161811,
            "lat": -1.691369906,
            "school_name": "INST 2 KABALEKASHA",
            "country_name": "Democratic Republic of the Congo",
            "connectivity": false
        },
        {
            "lon": 29.35640517,
            "lat": 0.742678875,
            "school_name": "INST MATHUMBI",
            "country_name": "Democratic Republic of the Congo",
            "connectivity": false
        },
        {
            "lon": 22.84549416,
            "lat": -9.713980205,
            "school_name": "INST KAJILEJI",
            "country_name": "Democratic Republic of the Congo",
            "connectivity": false
        },
        {
            "lon": 26.80062182,
            "lat": -4.143374572,
            "school_name": "INST BOFENGENE",
            "country_name": "Democratic Republic of the Congo",
            "connectivity": false
        },
        {
            "lon": 18.64927017,
            "lat": 3.947277587,
            "school_name": "INST NGENE",
            "country_name": "Democratic Republic of the Congo",
            "connectivity": false
        },
        {
            "lon": 29.04192004,
            "lat": -4.30902991,
            "school_name": "EP SUMA",
            "country_name": "Democratic Republic of the Congo",
            "connectivity": false
        },
        {
            "lon": 14.42817902,
            "lat": -5.56417798,
            "school_name": "INST SANZIKUA",
            "country_name": "Democratic Republic of the Congo",
            "connectivity": false
        },
        {
            "lon": 15.05793353,
            "lat": -5.13612887,
            "school_name": "INST NLANDU MUKOKO",
            "country_name": "Democratic Republic of the Congo",
            "connectivity": false
        },
        {
            "lon": -67.564445,
            "lat": -16.833423,
            "school_name": "TIRCO",
            "country_name": "Bolivia (Plurinational State of)",
            "connectivity": false
        },
        {
            "lon": -99.880833,
            "lat": 19.170278,
            "school_name": "TELEBACHILLERATO COMUNITARIO NUM. 448 MESON VIEJO TEMASCALTEPEC",
            "country_name": "Mexico",
            "connectivity": false
        },
        {
            "lon": -96.8,
            "lat": 18.07,
            "school_name": "TELEBACHILLERATO COMUNITARIO NUM. 81",
            "country_name": "Mexico",
            "connectivity": false
        },
        {
            "lon": -97.00018,
            "lat": 18.66602,
            "school_name": "TELEBACHILLERATO ZONGOLICA",
            "country_name": "Mexico",
            "connectivity": false
        },
        {
            "lon": 31.41531,
            "lat": -0.74964,
            "school_name": "Sserinya P.S.",
            "country_name": "Uganda",
            "connectivity": false
        },
        {
            "lon": 33.81649,
            "lat": 0.14564,
            "school_name": "Buduma Island P.S.",
            "country_name": "Uganda",
            "connectivity": false
        },
        {
            "lon": 34.08285,
            "lat": 0.48176,
            "school_name": "BUCHICHA P.S",
            "country_name": "Uganda",
            "connectivity": false
        },
        {
            "lon": 32.39241,
            "lat": 2.97042,
            "school_name": "Wilul P.S.",
            "country_name": "Uganda",
            "connectivity": false
        },
        {
            "lon": 32.58353,
            "lat": 0.32129,
            "school_name": "Nakesero P.S",
            "country_name": "Uganda",
            "connectivity": false
        },
        {
            "lon": 32.57937,
            "lat": 0.29121,
            "school_name": "Minaka Kindergaten & P.S",
            "country_name": "Uganda",
            "connectivity": false
        },
        {
            "lon": 29.621,
            "lat": -1.32467,
            "school_name": "Bukazi P.S.",
            "country_name": "Uganda",
            "connectivity": false
        },
        {
            "lon": 31.32213,
            "lat": 2.82836,
            "school_name": "Akavu P.S.",
            "country_name": "Uganda",
            "connectivity": false
        },
        {
            "lon": 33.01597,
            "lat": 2.96341,
            "school_name": "Loyonyero P.S",
            "country_name": "Uganda",
            "connectivity": false
        },
        {
            "lon": 31.56135,
            "lat": -0.16621,
            "school_name": "Kisaka P.S.",
            "country_name": "Uganda",
            "connectivity": false
        },
        {
            "lon": -65.223217,
            "lat": -21.269439,
            "school_name": "CHA\u00d1AR HUAYCO",
            "country_name": "Bolivia (Plurinational State of)",
            "connectivity": false
        },
        {
            "lon": 29.18744,
            "lat": -25.87762,
            "school_name": "Elukhantisweni High School",
            "country_name": "South Africa",
            "connectivity": false
        },
        {
            "lon": 31.89903,
            "lat": -25.66195,
            "school_name": "Mehlobovu Secondary School",
            "country_name": "South Africa",
            "connectivity": false
        },
        {
            "lon": 30.44555,
            "lat": -25.09501,
            "school_name": "River View Primary School",
            "country_name": "South Africa",
            "connectivity": false
        },
        {
            "lon": 27.04386,
            "lat": -26.72268,
            "school_name": "Pudulogo Primary Public School",
            "country_name": "South Africa",
            "connectivity": false
        },
        {
            "lon": 23.5314,
            "lat": -26.23254,
            "school_name": "Tlotlang-Thuto Secondary School",
            "country_name": "South Africa",
            "connectivity": false
        },
        {
            "lon": 31.90169,
            "lat": -25.94814,
            "school_name": "Thambokhulu Primary School",
            "country_name": "South Africa",
            "connectivity": false
        },
        {
            "lon": 25.62474,
            "lat": -25.83969,
            "school_name": "The Connie Minchin Primary School",
            "country_name": "South Africa",
            "connectivity": false
        },
        {
            "lon": 17.91069,
            "lat": -33.00853,
            "school_name": "Diazville High School",
            "country_name": "South Africa",
            "connectivity": false
        },
        {
            "lon": 27.58853,
            "lat": -25.56023,
            "school_name": "Lerothodi High School",
            "country_name": "South Africa",
            "connectivity": false
        },
        {
            "lon": 28.18915,
            "lat": -25.07349,
            "school_name": "Mogotlhwane Primary School",
            "country_name": "South Africa",
            "connectivity": false
        },
        {
            "lon": 23.93713,
            "lat": -29.00781,
            "school_name": "Ikageng Intermedi?\u0192?\u00d7re Skool",
            "country_name": "South Africa",
            "connectivity": false
        },
        {
            "lon": 30.00598,
            "lat": -24.74557,
            "school_name": "Kgalatlou Secondary School",
            "country_name": "South Africa",
            "connectivity": false
        },
        {
            "lon": 18.48467,
            "lat": -33.98902,
            "school_name": "ACTC Computer Training",
            "country_name": "South Africa",
            "connectivity": false
        },
        {
            "lon": 18.71915,
            "lat": -33.78169,
            "school_name": "Trevor Manuel Primary School",
            "country_name": "South Africa",
            "connectivity": false
        },
        {
            "lon": 29.43616,
            "lat": -23.88468,
            "school_name": "Capricorn Fire Trading Academy",
            "country_name": "South Africa",
            "connectivity": false
        },
        {
            "lon": 30.43122,
            "lat": -23.01044,
            "school_name": "Manzere Primary School",
            "country_name": "South Africa",
            "connectivity": false
        },
        {
            "lon": 29.34348,
            "lat": -23.80878,
            "school_name": "Mochocho Primary",
            "country_name": "South Africa",
            "connectivity": false
        },
        {
            "lon": 29.12274,
            "lat": -23.16322,
            "school_name": "Machaba Primary",
            "country_name": "South Africa",
            "connectivity": false
        },
        {
            "lon": 18.76375,
            "lat": -34.06554,
            "school_name": "Macassar Primary School",
            "country_name": "South Africa",
            "connectivity": false
        },
        {
            "lon": 18.98969,
            "lat": -33.02668,
            "school_name": "Dolfyntjies Kleuterskool",
            "country_name": "South Africa",
            "connectivity": false
        },
        {
            "lon": 30.09835,
            "lat": -30.25366,
            "school_name": "Amazabeko High School",
            "country_name": "South Africa",
            "connectivity": false
        },
        {
            "lon": 30.87059,
            "lat": -29.92302,
            "school_name": "Montford Primary School",
            "country_name": "South Africa",
            "connectivity": false
        },
        {
            "lon": 29.35736,
            "lat": -28.52363,
            "school_name": "Maswazi Primary School",
            "country_name": "South Africa",
            "connectivity": false
        },
        {
            "lon": 30.62655,
            "lat": -29.81739,
            "school_name": "Ekwenameni Junior Primary School",
            "country_name": "South Africa",
            "connectivity": false
        },
        {
            "lon": 28.80056,
            "lat": -22.78644,
            "school_name": "Morongwa Primary",
            "country_name": "South Africa",
            "connectivity": false
        },
        {
            "lon": 30.7442,
            "lat": -22.90615,
            "school_name": "School",
            "country_name": "South Africa",
            "connectivity": false
        },
        {
            "lon": 30.81504,
            "lat": -30.09801,
            "school_name": "Robert Hlongwa Secondary School",
            "country_name": "South Africa",
            "connectivity": false
        },
        {
            "lon": 28.98866,
            "lat": -24.12067,
            "school_name": "Kgaba Secondary School",
            "country_name": "South Africa",
            "connectivity": false
        },
        {
            "lon": 30.59504,
            "lat": -22.73512,
            "school_name": "Magiledzhi Primary",
            "country_name": "South Africa",
            "connectivity": false
        },
        {
            "lon": 30.78564,
            "lat": -27.76857,
            "school_name": "Kokkewiet Pre Primere Leersentrum",
            "country_name": "South Africa",
            "connectivity": false
        },
        {
            "lon": 30.22044,
            "lat": -29.4777,
            "school_name": "Elim Pre Primary School",
            "country_name": "South Africa",
            "connectivity": false
        },
        {
            "lon": 30.38446,
            "lat": -29.59899,
            "school_name": "Mgugundhovu Driving School",
            "country_name": "South Africa",
            "connectivity": false
        },
        {
            "lon": 30.33089,
            "lat": -23.19398,
            "school_name": "Mudinane Secondary School",
            "country_name": "South Africa",
            "connectivity": false
        },
        {
            "lon": 32.20462,
            "lat": -27.39178,
            "school_name": "Ntenga Primary School",
            "country_name": "South Africa",
            "connectivity": false
        },
        {
            "lon": 32.71072,
            "lat": -26.9758,
            "school_name": "Thandizwe Primary School",
            "country_name": "South Africa",
            "connectivity": false
        },
        {
            "lon": 31.00618,
            "lat": -29.67699,
            "school_name": "Trenance Manor Secondary School",
            "country_name": "South Africa",
            "connectivity": false
        },
        {
            "lon": 28.01713,
            "lat": -25.57602,
            "school_name": "Tebogwana Secondary School",
            "country_name": "South Africa",
            "connectivity": false
        },
        {
            "lon": 27.80854,
            "lat": -26.24136,
            "school_name": "Klipvalley Primary School",
            "country_name": "South Africa",
            "connectivity": false
        },
        {
            "lon": 28.24102,
            "lat": -26.08699,
            "school_name": "Aston Manor Primary School",
            "country_name": "South Africa",
            "connectivity": false
        },
        {
            "lon": 28.37547,
            "lat": -25.70533,
            "school_name": "Lompec Independent Primary and Secondaryschool",
            "country_name": "South Africa",
            "connectivity": false
        },
        {
            "lon": 32.88874,
            "lat": 0.2477,
            "school_name": "Kibazo",
            "country_name": "Uganda",
            "connectivity": false
        },
        {
            "lon": 26.28719,
            "lat": -32.08201,
            "school_name": "Cyrilhurst Primary Farm School",
            "country_name": "South Africa",
            "connectivity": false
        },
        {
            "lon": 28.93223,
            "lat": -32.0631,
            "school_name": "Mkatazo Junior Secondary School",
            "country_name": "South Africa",
            "connectivity": false
        },
        {
            "lon": -63.3694717,
            "lat": -34.6753582,
            "school_name": "ESCUELA SECUNDARIA N\u00ba3 BME. MITRE",
            "country_name": "Argentina",
            "connectivity": false
        },
        {
            "lon": -58.34071478,
            "lat": -34.68766494,
            "school_name": "INSTITUTO DE FORMACION SUPERIOR PADRE FRASSINETTI",
            "country_name": "Argentina",
            "connectivity": false
        },
        {
            "lon": -58.5728182,
            "lat": -34.66039007,
            "school_name": "ESCUELA PRIMARIA N\u00ba101 EXPEDICIONES AL DESIERTO",
            "country_name": "Argentina",
            "connectivity": false
        },
        {
            "lon": -58.58850509,
            "lat": -34.46935089,
            "school_name": "JARDIN DE INFANTES N\u00ba913",
            "country_name": "Argentina",
            "connectivity": false
        },
        {
            "lon": -58.57000619,
            "lat": -34.89467414,
            "school_name": "CENTRO DE ADULTOS N\u00ba703",
            "country_name": "Argentina",
            "connectivity": false
        },
        {
            "lon": -58.48865653,
            "lat": -34.81239602,
            "school_name": "ESCUELA PRIMARIA N\u00ba21 ENRIQUE MOSCONI",
            "country_name": "Argentina",
            "connectivity": false
        },
        {
            "lon": -57.57950567,
            "lat": -37.99720847,
            "school_name": "CENTRO DE ADULTOS N\u00ba712/01",
            "country_name": "Argentina",
            "connectivity": false
        },
        {
            "lon": -58.73484978,
            "lat": -38.5485681,
            "school_name": "ESCUELA TECNICA N\u00ba1 ING. M. A. ELPUERTO",
            "country_name": "Argentina",
            "connectivity": false
        },
        {
            "lon": -63.1404381,
            "lat": -38.8949542,
            "school_name": "ESCUELA SECUNDARIA N\u00ba4 \\GRAL J.DE SAN MARTIN\\",
            "country_name": "Argentina",
            "connectivity": false
        },
        {
            "lon": -58.54567077,
            "lat": -34.56455255,
            "school_name": "ESCUELA PRIMARIA N\u00ba16 GENERAL MANUEL BELGRANO",
            "country_name": "Argentina",
            "connectivity": false
        },
        {
            "lon": -61.1662899,
            "lat": -31.056184,
            "school_name": "JARDIN DE INFANTES NRO 243 ADELAIDA M.S.DE MARTINEZ",
            "country_name": "Argentina",
            "connectivity": false
        },
        {
            "lon": -58.4704809,
            "lat": -34.71662165,
            "school_name": "ESC. SECUNDARIA BASICA N\u00ba58",
            "country_name": "Argentina",
            "connectivity": false
        },
        {
            "lon": -61.12536717,
            "lat": -25.88978836,
            "school_name": "E.E.P. N\u00ba 937",
            "country_name": "Argentina",
            "connectivity": false
        },
        {
            "lon": -60.71414563,
            "lat": -27.5666319,
            "school_name": "INSTITUTO DE NIVEL TERCIARIO",
            "country_name": "Argentina",
            "connectivity": false
        },
        {
            "lon": -58.97115959,
            "lat": -27.44566202,
            "school_name": "ESC. DE COMERCIO NOCTURNA N\u00ba 4-FRAY MAMERTO ESQUIU",
            "country_name": "Argentina",
            "connectivity": false
        },
        {
            "lon": -58.40221711,
            "lat": -34.624423,
            "school_name": "INSTITUTO SAN CRISTOBAL",
            "country_name": "Argentina",
            "connectivity": false
        },
        {
            "lon": -64.24419729,
            "lat": -31.38152801,
            "school_name": "COLEGIO MARK TWAIN (EX-SANTA INES)",
            "country_name": "Argentina",
            "connectivity": false
        },
        {
            "lon": -59.52969369,
            "lat": -30.01513351,
            "school_name": "INSTITUTO DE FORMACION DOCENTE DR.J.A.FERREIRA",
            "country_name": "Argentina",
            "connectivity": false
        },
        {
            "lon": -57.58794298,
            "lat": -27.99821184,
            "school_name": "CENTRO DE EDUCACION FISICA N\u00ba 8",
            "country_name": "Argentina",
            "connectivity": false
        },
        {
            "lon": -59.50362218,
            "lat": -31.38952528,
            "school_name": "INFANTA MENDOCINA 102",
            "country_name": "Argentina",
            "connectivity": false
        },
        {
            "lon": -60.09767223,
            "lat": -25.05096912,
            "school_name": "EPES N\u00ba 4 GRAL M M DE GUEMES",
            "country_name": "Argentina",
            "connectivity": false
        },
        {
            "lon": -64.97463341,
            "lat": -24.5571987,
            "school_name": "ESCUELA N 168 ADELINA RUIZ DE CHAGRA",
            "country_name": "Argentina",
            "connectivity": false
        },
        {
            "lon": -65.99366,
            "lat": -31.01041,
            "school_name": "C.A.P. N\u00b007 A(CENTRO DE APOYO PEDAGOGICO N\u00ba7 A)",
            "country_name": "Argentina",
            "connectivity": false
        },
        {
            "lon": -74.8272,
            "lat": -12.2031,
            "school_name": "1081 JESUS DE NAZARET",
            "country_name": "Peru",
            "connectivity": false
        },
        {
            "lon": -68.83945643,
            "lat": -32.88115992,
            "school_name": "PABLO BESSON (C.E.N.S.)",
            "country_name": "Argentina",
            "connectivity": false
        },
        {
            "lon": -68.78630346,
            "lat": -33.00432645,
            "school_name": "LA SUPERIORA",
            "country_name": "Argentina",
            "connectivity": false
        },
        {
            "lon": -67.47362847,
            "lat": -33.29824924,
            "school_name": "FRANCO ADLER",
            "country_name": "Argentina",
            "connectivity": false
        },
        {
            "lon": -62.9929385,
            "lat": -40.8046795,
            "school_name": "COLEGIO TIERRAS DEL SUR",
            "country_name": "Argentina",
            "connectivity": false
        },
        {
            "lon": -62.35574916,
            "lat": -24.12309592,
            "school_name": "ESCUELA N\u00aa 4300 EX N\u00b0 467",
            "country_name": "Argentina",
            "connectivity": false
        },
        {
            "lon": -62.82393422,
            "lat": -28.62833421,
            "school_name": "AGRUPAMIENTO N\u00ba 86159 ESC N\u00ba 605",
            "country_name": "Argentina",
            "connectivity": false
        },
        {
            "lon": -65.2833,
            "lat": -26.75,
            "school_name": "C.E.B.A. N\u00b0 1-33",
            "country_name": "Argentina",
            "connectivity": false
        },
        {
            "lon": 6.294387,
            "lat": 5.297756,
            "school_name": "Name unknown",
            "country_name": "Nigeria",
            "connectivity": false
        },
        {
            "lon": 5.748955,
            "lat": 5.563672,
            "school_name": "Name unknown",
            "country_name": "Nigeria",
            "connectivity": false
        },
        {
            "lon": 7.877086,
            "lat": 5.493478,
            "school_name": "Name unknown",
            "country_name": "Nigeria",
            "connectivity": false
        },
        {
            "lon": 7.381791667,
            "lat": 5.194901667,
            "school_name": "Name unknown",
            "country_name": "Nigeria",
            "connectivity": false
        },
        {
            "lon": 7.504763,
            "lat": 5.562242,
            "school_name": "Name unknown",
            "country_name": "Nigeria",
            "connectivity": false
        },
        {
            "lon": 14.20939638,
            "lat": 11.3552596,
            "school_name": "Name unknown",
            "country_name": "Nigeria",
            "connectivity": false
        },
        {
            "lon": 8.114733333,
            "lat": 6.315358333,
            "school_name": "Name unknown",
            "country_name": "Nigeria",
            "connectivity": false
        },
        {
            "lon": 8.24605,
            "lat": 6.418635,
            "school_name": "Name unknown",
            "country_name": "Nigeria",
            "connectivity": false
        },
        {
            "lon": 6.385626,
            "lat": 7.106373,
            "school_name": "Name unknown",
            "country_name": "Nigeria",
            "connectivity": false
        },
        {
            "lon": 5.621102,
            "lat": 6.344566,
            "school_name": "Name unknown",
            "country_name": "Nigeria",
            "connectivity": false
        },
        {
            "lon": 5.614023,
            "lat": 6.346311,
            "school_name": "Name unknown",
            "country_name": "Nigeria",
            "connectivity": false
        },
        {
            "lon": 5.192503333,
            "lat": 7.591183333,
            "school_name": "Name unknown",
            "country_name": "Nigeria",
            "connectivity": false
        },
        {
            "lon": 5.522907,
            "lat": 7.589042,
            "school_name": "Name unknown",
            "country_name": "Nigeria",
            "connectivity": false
        },
        {
            "lon": 5.508206667,
            "lat": 7.857118333,
            "school_name": "Name unknown",
            "country_name": "Nigeria",
            "connectivity": false
        },
        {
            "lon": 7.502527,
            "lat": 6.460319,
            "school_name": "Name unknown",
            "country_name": "Nigeria",
            "connectivity": false
        },
        {
            "lon": 7.471276,
            "lat": 6.893742,
            "school_name": "Name unknown",
            "country_name": "Nigeria",
            "connectivity": false
        },
        {
            "lon": 7.30165,
            "lat": 6.06216,
            "school_name": "Name unknown",
            "country_name": "Nigeria",
            "connectivity": false
        },
        {
            "lon": 7.3887073,
            "lat": 6.2946649,
            "school_name": "Name unknown",
            "country_name": "Nigeria",
            "connectivity": false
        },
        {
            "lon": 11.02595,
            "lat": 9.91146,
            "school_name": "Name unknown",
            "country_name": "Nigeria",
            "connectivity": false
        },
        {
            "lon": 10.95572,
            "lat": 10.26824,
            "school_name": "Name unknown",
            "country_name": "Nigeria",
            "connectivity": false
        },
        {
            "lon": 11.30826,
            "lat": 9.575832,
            "school_name": "Name unknown",
            "country_name": "Nigeria",
            "connectivity": false
        },
        {
            "lon": 7.059142,
            "lat": 5.903293,
            "school_name": "Name unknown",
            "country_name": "Nigeria",
            "connectivity": false
        },
        {
            "lon": 7.084688,
            "lat": 5.35914,
            "school_name": "Name unknown",
            "country_name": "Nigeria",
            "connectivity": false
        },
        {
            "lon": 6.889438333,
            "lat": 5.64899,
            "school_name": "Name unknown",
            "country_name": "Nigeria",
            "connectivity": false
        },
        {
            "lon": -76.8167,
            "lat": -6.0622,
            "school_name": "186",
            "country_name": "Peru",
            "connectivity": false
        },
        {
            "lon": -80.4537,
            "lat": -3.7352,
            "school_name": "016 VIRGEN DEL PERPETUO SOCORRO",
            "country_name": "Peru",
            "connectivity": false
        },
        {
            "lon": -76.7485,
            "lat": -6.6149,
            "school_name": "0168 BILINGUE",
            "country_name": "Peru",
            "connectivity": false
        },
        {
            "lon": -74.0027,
            "lat": -12.3746,
            "school_name": "2",
            "country_name": "Peru",
            "connectivity": false
        },
        {
            "lon": -76.1122,
            "lat": -8.9312,
            "school_name": "39",
            "country_name": "Peru",
            "connectivity": false
        },
        {
            "lon": -76.2885,
            "lat": -6.4229,
            "school_name": "544",
            "country_name": "Peru",
            "connectivity": false
        },
        {
            "lon": -75.1126,
            "lat": -13.7309,
            "school_name": "1056",
            "country_name": "Peru",
            "connectivity": false
        },
        {
            "lon": -79.4216,
            "lat": -6.20547,
            "school_name": "11604",
            "country_name": "Peru",
            "connectivity": false
        },
        {
            "lon": -71.5541,
            "lat": -16.3898,
            "school_name": "12 DE OCTUBRE",
            "country_name": "Peru",
            "connectivity": false
        },
        {
            "lon": -71.3741,
            "lat": -13.7297,
            "school_name": "1211",
            "country_name": "Peru",
            "connectivity": false
        },
        {
            "lon": -76.838,
            "lat": -12.0195,
            "school_name": "1237 JORGE D. GILES LLANOS",
            "country_name": "Peru",
            "connectivity": false
        },
        {
            "lon": -78.7773,
            "lat": -6.80279,
            "school_name": "124",
            "country_name": "Peru",
            "connectivity": false
        },
        {
            "lon": -76.8166,
            "lat": -12.0212,
            "school_name": "1270 JUAN EL BAUTISTA",
            "country_name": "Peru",
            "connectivity": false
        },
        {
            "lon": -72.2234,
            "lat": -13.0589,
            "school_name": "1354",
            "country_name": "Peru",
            "connectivity": false
        },
        {
            "lon": -79.4628,
            "lat": -5.32874,
            "school_name": "14963",
            "country_name": "Peru",
            "connectivity": false
        },
        {
            "lon": -79.9714,
            "lat": -5.01125,
            "school_name": "15203",
            "country_name": "Peru",
            "connectivity": false
        },
        {
            "lon": -78.825,
            "lat": -5.49825,
            "school_name": "16860",
            "country_name": "Peru",
            "connectivity": false
        },
        {
            "lon": -78.5937,
            "lat": -7.77177,
            "school_name": "1713",
            "country_name": "Peru",
            "connectivity": false
        },
        {
            "lon": -78.8233,
            "lat": -5.51472,
            "school_name": "17530",
            "country_name": "Peru",
            "connectivity": false
        },
        {
            "lon": -79.005,
            "lat": -5.82468,
            "school_name": "17580",
            "country_name": "Peru",
            "connectivity": false
        },
        {
            "lon": -76.9326,
            "lat": -12.0016,
            "school_name": "177",
            "country_name": "Peru",
            "connectivity": false
        },
        {
            "lon": -79.3295,
            "lat": -5.49734,
            "school_name": "20070",
            "country_name": "Peru",
            "connectivity": false
        },
        {
            "lon": -76.3868,
            "lat": -12.9738,
            "school_name": "20241",
            "country_name": "Peru",
            "connectivity": false
        },
        {
            "lon": -76.9354,
            "lat": -11.2869,
            "school_name": "20461 SIMON BOLIVAR",
            "country_name": "Peru",
            "connectivity": false
        },
        {
            "lon": -75.7515,
            "lat": -5.71365,
            "school_name": "232",
            "country_name": "Peru",
            "connectivity": false
        },
        {
            "lon": -73.9067,
            "lat": -15.0439,
            "school_name": "24018",
            "country_name": "Peru",
            "connectivity": false
        },
        {
            "lon": -68.9899,
            "lat": -16.2211,
            "school_name": "282",
            "country_name": "Peru",
            "connectivity": false
        },
        {
            "lon": -74.7449,
            "lat": -13.0008,
            "school_name": "306 RUMICHACA",
            "country_name": "Peru",
            "connectivity": false
        },
        {
            "lon": -75.6207,
            "lat": -11.4867,
            "school_name": "30816",
            "country_name": "Peru",
            "connectivity": false
        },
        {
            "lon": -76.6356,
            "lat": -9.7379,
            "school_name": "32535 ENRIQUE LOPEZ ALBUJAR",
            "country_name": "Peru",
            "connectivity": false
        },
        {
            "lon": -77.2079,
            "lat": -11.4852,
            "school_name": "326 SAN JUAN BAUTISTA",
            "country_name": "Peru",
            "connectivity": false
        },
        {
            "lon": -75.0193,
            "lat": -9.4926,
            "school_name": "32934",
            "country_name": "Peru",
            "connectivity": false
        },
        {
            "lon": -75.4932,
            "lat": -10.1097,
            "school_name": "34304",
            "country_name": "Peru",
            "connectivity": false
        },
        {
            "lon": -69.8603,
            "lat": -15.174,
            "school_name": "347",
            "country_name": "Peru",
            "connectivity": false
        },
        {
            "lon": -75.1472,
            "lat": -12.1708,
            "school_name": "423",
            "country_name": "Peru",
            "connectivity": false
        },
        {
            "lon": -72.8002,
            "lat": -13.5307,
            "school_name": "54047",
            "country_name": "Peru",
            "connectivity": false
        },
        {
            "lon": -71.1893,
            "lat": -14.9894,
            "school_name": "56241",
            "country_name": "Peru",
            "connectivity": false
        },
        {
            "lon": -71.1513,
            "lat": -4.00734,
            "school_name": "6010135",
            "country_name": "Peru",
            "connectivity": false
        },
        {
            "lon": -77.2861,
            "lat": -8.68601,
            "school_name": "613",
            "country_name": "Peru",
            "connectivity": false
        },
        {
            "lon": -76.0799,
            "lat": -8.82086,
            "school_name": "619",
            "country_name": "Peru",
            "connectivity": false
        },
        {
            "lon": -76.1153,
            "lat": -5.8948,
            "school_name": "62009 MARCELINA LOPEZ ROJAS",
            "country_name": "Peru",
            "connectivity": false
        },
        {
            "lon": -74.0133,
            "lat": -10.6519,
            "school_name": "64887-B",
            "country_name": "Peru",
            "connectivity": false
        },
        {
            "lon": -70.6801,
            "lat": -15.4975,
            "school_name": "70449",
            "country_name": "Peru",
            "connectivity": false
        },
        {
            "lon": -70.484,
            "lat": -14.5401,
            "school_name": "70814",
            "country_name": "Peru",
            "connectivity": false
        },
        {
            "lon": -70.6078,
            "lat": -14.3686,
            "school_name": "70837",
            "country_name": "Peru",
            "connectivity": false
        },
        {
            "lon": -69.043,
            "lat": -16.562,
            "school_name": "769",
            "country_name": "Peru",
            "connectivity": false
        },
        {
            "lon": -77.7295,
            "lat": -7.134,
            "school_name": "80107/A1-P",
            "country_name": "Peru",
            "connectivity": false
        },
        {
            "lon": -78.2652,
            "lat": -7.08933,
            "school_name": "82169",
            "country_name": "Peru",
            "connectivity": false
        },