{
    "name": "Patchwork Kingdom #402 | Flunima",
    "description": "The twin kingdoms of Flunima, separated by a digital divide. A bustling kingdom of 136 schools on top that are all connected to the internet, and 116 schools, not connected, hidden in the upside down kingdom | Created for Giga (GigaConnect.org) \u2014 connecting every school in the world \u2014 in celebration of UNICEF's 75th birthday, by Nadieh Bremer",
    "external_url": "https://dummyURL.com/patchwork_kingdoms_402",
    "image": "https://dummy-storage-url.com/patchwork_kingdoms_402.png",
    "attributes": [
        {
            "trait_type": "Color palette",
            "value": "santa's workshop"
        },
        {
            "display_type": "number",
            "trait_type": "Schools",
            "value": 268,
            "max_value": 460
        },
        {
            "display_type": "number",
            "trait_type": "Ratio - Connected",
            "value": 0.51,
            "max_value": 1
        },
        {
            "display_type": "number",
            "trait_type": "Ratio - Unconnected",
            "value": 0.43,
            "max_value": 1
        },
        {
            "display_type": "number",
            "trait_type": "Ratio - Data unavailable",
            "value": 0.06,
            "max_value": 1
        },
        {
            "trait_type": "Countries",
            "value": "BR-CO-CR-GD-HN-KG-KZ-NA-PH-RW-SL-VC-ZW"
        },
        {
            "display_type": "number",
            "trait_type": "Symbols",
            "value": 42,
            "max_value": 51
        }
    ],
    "cluster_id": 402,
    "num_schools": 268,
    "num_schools_connected": 136,
    "num_schools_unconnected": 116,
    "num_schools_unknown": 16,
    "schools": [
        {
            "lon": -49.1263,
            "lat": -28.0366,
            "school_name": "EEB PROF ALDO CAMARA",
            "country_name": "Brazil",
            "connectivity": true
        },
        {
            "lon": -86.89501,
            "lat": 16.09747,
            "school_name": "REPUBLICA DE HONDURAS",
            "country_name": "Honduras",
            "connectivity": true
        },
        {
            "lon": -87.7399,
            "lat": 14.32487,
            "school_name": "ESC. FRANCISCO FILIBERTO ISAULA",
            "country_name": "Honduras",
            "connectivity": true
        },
        {
            "lon": -86.891,
            "lat": 13.33912,
            "school_name": "JOSE TRINIDAD REYES",
            "country_name": "Honduras",
            "connectivity": true
        },
        {
            "lon": -86.54212,
            "lat": 14.81043,
            "school_name": "INST. SILCA",
            "country_name": "Honduras",
            "connectivity": true
        },
        {
            "lon": -88.14152,
            "lat": 15.05357,
            "school_name": "RENACER INFANTIL",
            "country_name": "Honduras",
            "connectivity": true
        },
        {
            "lon": -87.45036,
            "lat": 13.438,
            "school_name": "CORDELIA CARRASCO DE FU",
            "country_name": "Honduras",
            "connectivity": true
        },
        {
            "lon": -86.56864,
            "lat": 14.03003,
            "school_name": "MANUEL DE ADALID Y GAMERO",
            "country_name": "Honduras",
            "connectivity": true
        },
        {
            "lon": -87.34083,
            "lat": 14.94882,
            "school_name": "PEDRO NUFIO",
            "country_name": "Honduras",
            "connectivity": true
        },
        {
            "lon": -51.154,
            "lat": -29.6632,
            "school_name": "EMEI RAIOS DO SOL NASCENTE",
            "country_name": "Brazil",
            "connectivity": true
        },
        {
            "lon": -47.7765,
            "lat": -5.1709,
            "school_name": "CENTRO DE ENSINO ISAURA AMORIM",
            "country_name": "Brazil",
            "connectivity": true
        },
        {
            "lon": -87.22115,
            "lat": 14.09524,
            "school_name": "ROSINDA MONDRAGON",
            "country_name": "Honduras",
            "connectivity": true
        },
        {
            "lon": -87.37906,
            "lat": 14.22161,
            "school_name": "CRISTO DEL PICACHO",
            "country_name": "Honduras",
            "connectivity": true
        },
        {
            "lon": -87.21465,
            "lat": 14.04109,
            "school_name": "LUZ DE AMOR",
            "country_name": "Honduras",
            "connectivity": true
        },
        {
            "lon": 32.73529,
            "lat": -18.2387,
            "school_name": "NYAMHUKA",
            "country_name": "Zimbabwe",
            "connectivity": true
        },
        {
            "lon": -40.0637,
            "lat": -19.3906,
            "school_name": "CEIM GENY RIBEIRO DE SOUZA",
            "country_name": "Brazil",
            "connectivity": true
        },
        {
            "lon": 30.27194,
            "lat": -1.74058,
            "school_name": "GS MUHURA",
            "country_name": "Rwanda",
            "connectivity": true
        },
        {
            "lon": -76.12031213,
            "lat": 8.402385406,
            "school_name": "ESCUELA NUEVA DE MATAMORO",
            "country_name": "Colombia",
            "connectivity": true
        },
        {
            "lon": -83.09390527,
            "lat": 9.94659011,
            "school_name": "VALLE LA AURORA",
            "country_name": "Costa Rica",
            "connectivity": true
        },
        {
            "lon": -85.3402638,
            "lat": 10.89619441,
            "school_name": "I.D.A. EL GAVILAN",
            "country_name": "Costa Rica",
            "connectivity": true
        },
        {
            "lon": -84.499354,
            "lat": 10.739462,
            "school_name": "LICEO RURAL SAN RAFAEL",
            "country_name": "Costa Rica",
            "connectivity": true
        },
        {
            "lon": 31.55362,
            "lat": -20.40169,
            "school_name": "TSIGA",
            "country_name": "Zimbabwe",
            "connectivity": true
        },
        {
            "lon": -59.5838,
            "lat": -14.4723,
            "school_name": "CEI GLORIA MARIA LOPES CARVALHO",
            "country_name": "Brazil",
            "connectivity": true
        },
        {
            "lon": -73.11254078,
            "lat": 5.771270793,
            "school_name": "Name unknown",
            "country_name": "Colombia",
            "connectivity": false
        },
        {
            "lon": -54.1077,
            "lat": -31.3245,
            "school_name": "ESC EST ENS MED DR CARLOS ANTONIO KLUWE",
            "country_name": "Brazil",
            "connectivity": true
        },
        {
            "lon": 29.98219,
            "lat": -20.70062,
            "school_name": "CHOMUSENDA",
            "country_name": "Zimbabwe",
            "connectivity": true
        },
        {
            "lon": -61.642891,
            "lat": 12.191004,
            "school_name": "Mt. Rich Pre",
            "country_name": "Grenada",
            "connectivity": true
        },
        {
            "lon": -74.1275,
            "lat": 3.368889,
            "school_name": "Name unknown",
            "country_name": "Colombia",
            "connectivity": false
        },
        {
            "lon": -75.58775116,
            "lat": 6.220321366,
            "school_name": "Name unknown",
            "country_name": "Colombia",
            "connectivity": false
        },
        {
            "lon": 120.520231,
            "lat": 17.128618,
            "school_name": "Pias ES",
            "country_name": "Philippines",
            "connectivity": true
        },
        {
            "lon": 121.6524278,
            "lat": 16.79874722,
            "school_name": "San Pablo ES",
            "country_name": "Philippines",
            "connectivity": true
        },
        {
            "lon": 120.884804,
            "lat": 14.029348,
            "school_name": "San Gregorio ES",
            "country_name": "Philippines",
            "connectivity": true
        },
        {
            "lon": 121.847879,
            "lat": 13.324446,
            "school_name": "Gasan CS",
            "country_name": "Philippines",
            "connectivity": true
        },
        {
            "lon": 119.409542,
            "lat": 10.989728,
            "school_name": "Segpit PS",
            "country_name": "Philippines",
            "connectivity": true
        },
        {
            "lon": 117.529257,
            "lat": 8.897613,
            "school_name": "Sumurum PS",
            "country_name": "Philippines",
            "connectivity": true
        },
        {
            "lon": 124.989367,
            "lat": 11.635592,
            "school_name": "Calampong ES",
            "country_name": "Philippines",
            "connectivity": true
        },
        {
            "lon": 124.9627897,
            "lat": 10.91372755,
            "school_name": "Canbanez PS",
            "country_name": "Philippines",
            "connectivity": true
        },
        {
            "lon": 125.05188,
            "lat": 8.790083,
            "school_name": "Mindulean ES",
            "country_name": "Philippines",
            "connectivity": true
        },
        {
            "lon": 125.672242,
            "lat": 9.162942,
            "school_name": "Lusong ES",
            "country_name": "Philippines",
            "connectivity": true
        },
        {
            "lon": 120.792,
            "lat": 16.7892,
            "school_name": "Taneg PS",
            "country_name": "Philippines",
            "connectivity": true
        },
        {
            "lon": -87.95039,
            "lat": 15.67629,
            "school_name": "SAUL URBINA MONCADA",
            "country_name": "Honduras",
            "connectivity": true
        },
        {
            "lon": -68.339167,
            "lat": 2.28,
            "school_name": "MARCO FIDEL SUAREZ",
            "country_name": "Colombia",
            "connectivity": true
        },
        {
            "lon": -72.46327778,
            "lat": 8.15466666,
            "school_name": "ESC RUR LA ESPERANZA",
            "country_name": "Colombia",
            "connectivity": true
        },
        {
            "lon": -72.86804283,
            "lat": 8.140207126,
            "school_name": "SEDE CASCARILLALES",
            "country_name": "Colombia",
            "connectivity": true
        },
        {
            "lon": -73.11963981,
            "lat": 5.779623102,
            "school_name": "I.E. TOMAS VASQUEZ RODRIGUEZ - SEDE PRINCIPAL",
            "country_name": "Colombia",
            "connectivity": true
        },
        {
            "lon": -73.248333,
            "lat": 6.594167,
            "school_name": "ESCUELA RURAL CUCHILLAS",
            "country_name": "Colombia",
            "connectivity": true
        },
        {
            "lon": -73.65598382,
            "lat": 4.159018196,
            "school_name": "ESCUELA CHAPINERITO",
            "country_name": "Colombia",
            "connectivity": true
        },
        {
            "lon": -74.698611,
            "lat": 8.077778,
            "school_name": "I.E. TRINIDAD ARRIBA",
            "country_name": "Colombia",
            "connectivity": true
        },
        {
            "lon": -75.08156728,
            "lat": 9.964399562,
            "school_name": "NUEVO SAN JUAN",
            "country_name": "Colombia",
            "connectivity": true
        },
        {
            "lon": -75.26869975,
            "lat": 2.529045546,
            "school_name": "LAS PALMAS",
            "country_name": "Colombia",
            "connectivity": true
        },
        {
            "lon": -75.29230186,
            "lat": 5.163326561,
            "school_name": "ESCUELA EL ZANCUDO",
            "country_name": "Colombia",
            "connectivity": true
        },
        {
            "lon": -75.74019471,
            "lat": 4.522676888,
            "school_name": "EL MESON",
            "country_name": "Colombia",
            "connectivity": true
        },
        {
            "lon": -75.91646794,
            "lat": 4.824860833,
            "school_name": "SANTA CECILIA",
            "country_name": "Colombia",
            "connectivity": true
        },
        {
            "lon": -75.93129702,
            "lat": 6.794230609,
            "school_name": "E R EL LEON",
            "country_name": "Colombia",
            "connectivity": true
        },
        {
            "lon": -76.09604599,
            "lat": 1.901467516,
            "school_name": "YANACONA",
            "country_name": "Colombia",
            "connectivity": true
        },
        {
            "lon": -76.08620973,
            "lat": 8.78856706,
            "school_name": "ESC RURAL MIXTA SAN LUIS",
            "country_name": "Colombia",
            "connectivity": true
        },
        {
            "lon": -76.19194444,
            "lat": 4.076111111,
            "school_name": "SEDE NO. 62 LA MARIA",
            "country_name": "Colombia",
            "connectivity": true
        },
        {
            "lon": -76.14302411,
            "lat": 1.181721625,
            "school_name": "LA YE",
            "country_name": "Colombia",
            "connectivity": true
        },
        {
            "lon": -76.5971865,
            "lat": 2.669509725,
            "school_name": "ONCE DE NOVIEMBRE",
            "country_name": "Colombia",
            "connectivity": true
        },
        {
            "lon": -76.6119965,
            "lat": 3.648355858,
            "school_name": "JORGE ROBLEDO",
            "country_name": "Colombia",
            "connectivity": true
        },
        {
            "lon": -76.6,
            "lat": 7.28,
            "school_name": "SEDE LOS PISINGOS",
            "country_name": "Colombia",
            "connectivity": true
        },
        {
            "lon": -77.04403481,
            "lat": 1.498460082,
            "school_name": "CENTRO EDUCATIVO LOS ARBOLES",
            "country_name": "Colombia",
            "connectivity": true
        },
        {
            "lon": -76.95377544,
            "lat": 1.692019967,
            "school_name": "CENTRO EDUCATIVO EL DIVISO",
            "country_name": "Colombia",
            "connectivity": true
        },
        {
            "lon": -77.05898421,
            "lat": 8.210426175,
            "school_name": "SEDE IND\u00cdGENA EMBERA KATIO - CITARA",
            "country_name": "Colombia",
            "connectivity": true
        },
        {
            "lon": -77.38978684,
            "lat": 2.757338191,
            "school_name": "ESCUELA RURAL MIXTA EL ORO",
            "country_name": "Colombia",
            "connectivity": true
        },
        {
            "lon": -77.63285681,
            "lat": 1.083880352,
            "school_name": "CENTRO EDUCATIVO  CHANARRO",
            "country_name": "Colombia",
            "connectivity": true
        },
        {
            "lon": -77.45444444,
            "lat": 1.605277778,
            "school_name": "CENTRO EDUCATIVO LOS ALISOS",
            "country_name": "Colombia",
            "connectivity": true
        },
        {
            "lon": -61.3736,
            "lat": -11.9756,
            "school_name": "EMEIEF AMILTON RIBEIRO",
            "country_name": "Brazil",
            "connectivity": true
        },
        {
            "lon": -61.9754,
            "lat": -10.6997,
            "school_name": "EMEIEF PAULO FREIRE",
            "country_name": "Brazil",
            "connectivity": true
        },
        {
            "lon": -68.6798,
            "lat": -9.082,
            "school_name": "IFAC - CAMPUS SENA MADUREIRA",
            "country_name": "Brazil",
            "connectivity": true
        },
        {
            "lon": -69.9088,
            "lat": -4.4059,
            "school_name": "ESC INDIGENA PEDRO ALVES",
            "country_name": "Brazil",
            "connectivity": false
        },
        {
            "lon": -67.9433,
            "lat": -3.1029,
            "school_name": "ESC MUN PROFESSOR ZENITH RAMOS",
            "country_name": "Brazil",
            "connectivity": true
        },
        {
            "lon": -47.8151,
            "lat": -0.7473,
            "school_name": "E M E F TEOFILA TEIXEIRA",
            "country_name": "Brazil",
            "connectivity": false
        },
        {
            "lon": -47.2048,
            "lat": -1.3712,
            "school_name": "E M E F BOCA DO CAITITU",
            "country_name": "Brazil",
            "connectivity": false
        },
        {
            "lon": -49.0711,
            "lat": -5.8738,
            "school_name": "E M E F SANTO ANTONIO",
            "country_name": "Brazil",
            "connectivity": false
        },
        {
            "lon": -48.9876,
            "lat": -1.6255,
            "school_name": "E M E I F JOAO MARIA",
            "country_name": "Brazil",
            "connectivity": true
        },
        {
            "lon": -48.4474,
            "lat": -1.3497,
            "school_name": "UEI SAO GASPAR",
            "country_name": "Brazil",
            "connectivity": false
        },
        {
            "lon": -51.0728,
            "lat": 0.0258,
            "school_name": "ESC EST SEBASTIANA LENIR DE ALMEIDA",
            "country_name": "Brazil",
            "connectivity": true
        },
        {
            "lon": -43.3502,
            "lat": -4.8847,
            "school_name": "UEM SAO JOSE",
            "country_name": "Brazil",
            "connectivity": true
        },
        {
            "lon": -45.0095,
            "lat": -3.4233,
            "school_name": "EM COELHO NETO",
            "country_name": "Brazil",
            "connectivity": false
        },
        {
            "lon": -46.0758,
            "lat": -2.107,
            "school_name": "UE ANTONIO MIRANDA",
            "country_name": "Brazil",
            "connectivity": true
        },
        {
            "lon": -45.3747,
            "lat": -4.1451,
            "school_name": "EM DE CURRALINHO",
            "country_name": "Brazil",
            "connectivity": false
        },
        {
            "lon": -45.5565,
            "lat": -4.6825,
            "school_name": "EM SENHOR DO BONFIM",
            "country_name": "Brazil",
            "connectivity": false
        },
        {
            "lon": -47.1579,
            "lat": -5.8029,
            "school_name": "EM HENRIQUE DIAS",
            "country_name": "Brazil",
            "connectivity": false
        },
        {
            "lon": -44.8078,
            "lat": -4.6435,
            "school_name": "UE NOVA VIDA",
            "country_name": "Brazil",
            "connectivity": false
        },
        {
            "lon": -46.3133,
            "lat": -1.7987,
            "school_name": "EM DE AGUA BRANCA",
            "country_name": "Brazil",
            "connectivity": false
        },
        {
            "lon": -46.4578,
            "lat": -4.3175,
            "school_name": "EM ROSEANE LIMA DOS SANTOS",
            "country_name": "Brazil",
            "connectivity": false
        },
        {
            "lon": -43.6649,
            "lat": -5.1447,
            "school_name": "UEM ARLINDO ROCHA",
            "country_name": "Brazil",
            "connectivity": false
        },
        {
            "lon": -46.9151,
            "lat": -4.076,
            "school_name": "EM HORIZONTE AZUL",
            "country_name": "Brazil",
            "connectivity": false
        },
        {
            "lon": -47.3551,
            "lat": -4.573,
            "school_name": "EM NOVA ERA",
            "country_name": "Brazil",
            "connectivity": false
        },
        {
            "lon": -45.2413,
            "lat": -4.0312,
            "school_name": "UNIDADE DE ENSINO INFANTIL MORANGUINHO",
            "country_name": "Brazil",
            "connectivity": false
        },
        {
            "lon": -45.164,
            "lat": -2.4316,
            "school_name": "EM VER LOURENCO FARIAS",
            "country_name": "Brazil",
            "connectivity": false
        },
        {
            "lon": -42.1089,
            "lat": -3.3733,
            "school_name": "U E JOSE NARCISO DE CARVALHO",
            "country_name": "Brazil",
            "connectivity": false
        },
        {
            "lon": -42.0461,
            "lat": -4.9775,
            "school_name": "ESCOLA MUNICIPAL ANITA GAIOSO",
            "country_name": "Brazil",
            "connectivity": false
        },
        {
            "lon": -40.825,
            "lat": -4.1763,
            "school_name": "LIMOEIRO EEIF",
            "country_name": "Brazil",
            "connectivity": true
        },
        {
            "lon": -40.0069,
            "lat": -5.4398,
            "school_name": "JOAO MANOEL FILHO EEF",
            "country_name": "Brazil",
            "connectivity": false
        },
        {
            "lon": -50.7759,
            "lat": -29.6568,
            "school_name": "ESC EST ENS MED DIRCEU MARILIO MARTINS",
            "country_name": "Brazil",
            "connectivity": true
        },
        {
            "lon": -38.9611,
            "lat": -7.5204,
            "school_name": "CEI - MORRO DOURADO",
            "country_name": "Brazil",
            "connectivity": false
        },
        {
            "lon": -39.0506,
            "lat": -7.739,
            "school_name": "ANTONIA MARIA DA CONCEICAO EM",
            "country_name": "Brazil",
            "connectivity": true
        },
        {
            "lon": -39.1933,
            "lat": -4.2301,
            "school_name": "FRANCISCA FERREIRA CUNHA CRECHE",
            "country_name": "Brazil",
            "connectivity": false
        },
        {
            "lon": -40.067,
            "lat": -4.7944,
            "school_name": "ESCOLA INDIGENA DE MONSENHOR TABOSA",
            "country_name": "Brazil",
            "connectivity": true
        },
        {
            "lon": -35.5051,
            "lat": -6.1473,
            "school_name": "ESCOLA MUNICIPAL DOUTOR CREZO BEZERRA",
            "country_name": "Brazil",
            "connectivity": true
        },
        {
            "lon": -36.4514,
            "lat": -7.3101,
            "school_name": "ESC MUN JOAO MEDEIROS RAMOS",
            "country_name": "Brazil",
            "connectivity": false
        },
        {
            "lon": -35.8464,
            "lat": -7.0357,
            "school_name": "EMEF MARIA EMILIA DE C SILVA",
            "country_name": "Brazil",
            "connectivity": false
        },
        {
            "lon": -36.439,
            "lat": -8.0798,
            "school_name": "GRUPO ESCOLAR JOSE MIGUEL DOS ANJOS",
            "country_name": "Brazil",
            "connectivity": false
        },
        {
            "lon": -36.3621,
            "lat": -8.8371,
            "school_name": "ESCOLA MUNICIPAL JOSE INACIO DA SILVA",
            "country_name": "Brazil",
            "connectivity": false
        },
        {
            "lon": -35.3185,
            "lat": -7.711,
            "school_name": "ESCOLA MUL IRENE GOMES DE ARAUJO PEREIRA",
            "country_name": "Brazil",
            "connectivity": false
        },
        {
            "lon": -35.5616,
            "lat": -8.8295,
            "school_name": "COLEGIO MUNICIPAL TERESINHA P DE QUEIROZ",
            "country_name": "Brazil",
            "connectivity": true
        },
        {
            "lon": -35.2615,
            "lat": -8.1342,
            "school_name": "ESCOLA MUNICIPAL PREFEITO GABRIEL MESQUITA FREITAS",
            "country_name": "Brazil",
            "connectivity": true
        },
        {
            "lon": -36.38,
            "lat": -8.602,
            "school_name": "CENTRO DE EDUCACAO INFANTIL TERESA CORDEIRO DA SILVA",
            "country_name": "Brazil",
            "connectivity": true
        },
        {
            "lon": -36.3414,
            "lat": -9.2071,
            "school_name": "ESCOLA MUNICIPAL NICOLAU FERREIRA",
            "country_name": "Brazil",
            "connectivity": true
        },
        {
            "lon": -37.9115,
            "lat": -11.0108,
            "school_name": "ESCOLA MUNICIPAL NOSSA SENHORA DO AMPARO",
            "country_name": "Brazil",
            "connectivity": false
        },
        {
            "lon": -36.971,
            "lat": -10.623,
            "school_name": "ESCOLA MUNICIPAL LUCIA ROCHA",
            "country_name": "Brazil",
            "connectivity": true
        },
        {
            "lon": -37.1678,
            "lat": -10.8038,
            "school_name": "ESCOLA ESTADUAL JOAO RIBEIRO",
            "country_name": "Brazil",
            "connectivity": true
        },
        {
            "lon": -37.1269,
            "lat": -10.8523,
            "school_name": "ESC MUL PROF",
            "country_name": "Brazil",
            "connectivity": false
        },
        {
            "lon": -40.2519,
            "lat": -9.6898,
            "school_name": "ESCOLA MUNICIPAL PROFESSORA ANTONILA DA FRANCA CARDOSO",
            "country_name": "Brazil",
            "connectivity": true
        },
        {
            "lon": -39.6917,
            "lat": -11.9878,
            "school_name": "ESCOLA MUNICIPAL TEREZA FERNANDES OLIVEIRA",
            "country_name": "Brazil",
            "connectivity": false
        },
        {
            "lon": -49.2025,
            "lat": -25.4796,
            "school_name": "MARUMBI E M EI EF",
            "country_name": "Brazil",
            "connectivity": true
        },
        {
            "lon": -39.6989,
            "lat": -13.5119,
            "school_name": "ESCOLA MANOEL JOSE DE SOUZA",
            "country_name": "Brazil",
            "connectivity": true
        },
        {
            "lon": -39.1536,
            "lat": -13.7495,
            "school_name": "CMEI SIBERIA LEITE",
            "country_name": "Brazil",
            "connectivity": false
        },
        {
            "lon": -42.9435,
            "lat": -14.5706,
            "school_name": "CRECHE COMUNITARIA PRIMEIROS PASSOS",
            "country_name": "Brazil",
            "connectivity": true
        },
        {
            "lon": -38.6257,
            "lat": -12.7816,
            "school_name": "ESCOLA MUNICIPAL ILHA DOS FRADES",
            "country_name": "Brazil",
            "connectivity": true
        },
        {
            "lon": -39.8487,
            "lat": -16.721,
            "school_name": "CRECHE MUNICIPAL MENINO JESUS",
            "country_name": "Brazil",
            "connectivity": false
        },
        {
            "lon": -43.8474,
            "lat": -19.7569,
            "school_name": "ESCOLA MUNICIPAL PROFESSORA CECOTA DINIZ",
            "country_name": "Brazil",
            "connectivity": true
        },
        {
            "lon": -44.2651,
            "lat": -14.4411,
            "school_name": "EM ELVIRA PEREIRA LUNA",
            "country_name": "Brazil",
            "connectivity": false
        },
        {
            "lon": -43.779,
            "lat": -20.2543,
            "school_name": "PRE-ESCOLA MUNICIPAL CASINHA DO ABC",
            "country_name": "Brazil",
            "connectivity": false
        },
        {
            "lon": -44.7635,
            "lat": -20.4413,
            "school_name": "PROJETO MUSICAL DANDO CORDAS",
            "country_name": "Brazil",
            "connectivity": true
        },
        {
            "lon": -40.37,
            "lat": -20.3083,
            "school_name": "EMEF JOAO PEDRO DA SILVA",
            "country_name": "Brazil",
            "connectivity": true
        },
        {
            "lon": -41.3679,
            "lat": -21.0638,
            "school_name": "CEIM CASULO SANTA TEREZINHA DO MENINO JESUS",
            "country_name": "Brazil",
            "connectivity": true
        },
        {
            "lon": -46.3001,
            "lat": -2.2667,
            "school_name": "CENTRO DE ENSINO MARINALVA MORAIS FRAZAO - ANEXO I-CHEGA TUDO",
            "country_name": "Brazil",
            "connectivity": true
        },
        {
            "lon": -42.8725,
            "lat": -22.6735,
            "school_name": "E MZ CELSO DE OLIVEIRA ARAUJO",
            "country_name": "Brazil",
            "connectivity": true
        },
        {
            "lon": -42.3539,
            "lat": -22.8703,
            "school_name": "CASA CRECHE 03",
            "country_name": "Brazil",
            "connectivity": false
        },
        {
            "lon": -43.3194,
            "lat": -22.8065,
            "school_name": "CE DEPUTADO PEDRO FERNANDES",
            "country_name": "Brazil",
            "connectivity": true
        },
        {
            "lon": -46.3937,
            "lat": -23.9677,
            "school_name": "CRECHE PROFESSORA REGINA CELIA DOS SANTOS",
            "country_name": "Brazil",
            "connectivity": false
        },
        {
            "lon": -47.4474,
            "lat": -23.5069,
            "school_name": "ACHILLES DE ALMEIDA DR EM",
            "country_name": "Brazil",
            "connectivity": true
        },
        {
            "lon": -47.4271,
            "lat": -22.0157,
            "school_name": "SECRETARIA MUNICIPAL DE EDUCACAO",
            "country_name": "Brazil",
            "connectivity": true
        },
        {
            "lon": -46.7855,
            "lat": -23.5924,
            "school_name": "EMEI ALUISIO DE ALMEIDA",
            "country_name": "Brazil",
            "connectivity": true
        },
        {
            "lon": -50.9235,
            "lat": -20.219,
            "school_name": "INTEGRACAO DE ENSINO EM",
            "country_name": "Brazil",
            "connectivity": true
        },
        {
            "lon": -46.7344,
            "lat": -23.5292,
            "school_name": "ALBERT EINSTEIN INSTITUTO DE EDUCACAO",
            "country_name": "Brazil",
            "connectivity": false
        },
        {
            "lon": -48.5924,
            "lat": -24.585,
            "school_name": "PORTAL DO SABER EMEI",
            "country_name": "Brazil",
            "connectivity": false
        },
        {
            "lon": -47.5594,
            "lat": -21.4836,
            "school_name": "FAUSTO PIRES DE OLIVEIRA HISTORIADOR EMEF",
            "country_name": "Brazil",
            "connectivity": true
        },
        {
            "lon": -46.7047,
            "lat": -23.7105,
            "school_name": "CEU EMEI MILTON SANTOS PROF",
            "country_name": "Brazil",
            "connectivity": true
        },
        {
            "lon": -47.2058,
            "lat": -23.1083,
            "school_name": "WLADIMIR OLIVIER PROFESSOR EMEB",
            "country_name": "Brazil",
            "connectivity": true
        },
        {
            "lon": -46.8894,
            "lat": -23.4214,
            "school_name": "JOAO DE BARRO COLEGIO MUNICIPAL",
            "country_name": "Brazil",
            "connectivity": false
        },
        {
            "lon": -46.4178,
            "lat": -23.88,
            "school_name": "JAYME JOAO OLCESE UNIDADE MUNICIPAL DE ENSINO",
            "country_name": "Brazil",
            "connectivity": true
        },
        {
            "lon": -47.035,
            "lat": -22.9418,
            "school_name": "CENTRO ATEND SOCIO-EDUC ADOLESCENTE - AMAZONAS - UIP-5",
            "country_name": "Brazil",
            "connectivity": false
        },
        {
            "lon": -46.9084,
            "lat": -23.6012,
            "school_name": "CEL JTO A EE PEDRO CASEMIRO LEITE PROFESSOR",
            "country_name": "Brazil",
            "connectivity": true
        },
        {
            "lon": -54.7612,
            "lat": -17.3859,
            "school_name": "EMEB JORGE EDUARDO RAPOSO DE MEDEIROS",
            "country_name": "Brazil",
            "connectivity": true
        },
        {
            "lon": -49.7677,
            "lat": -23.1941,
            "school_name": "VENINA BATISTA RIBEIRO DA SILVA C M E I PROFA",
            "country_name": "Brazil",
            "connectivity": true
        },
        {
            "lon": -52.133,
            "lat": -25.3807,
            "school_name": "GABRIEL KLUSKA E R M PE EI EF",
            "country_name": "Brazil",
            "connectivity": true
        },
        {
            "lon": -48.6754,
            "lat": -26.8792,
            "school_name": "EB MUN PROF",
            "country_name": "Brazil",
            "connectivity": true
        },
        {
            "lon": -50.3529,
            "lat": -27.8242,
            "school_name": "CEIM EUDALTO LOPES DE SA",
            "country_name": "Brazil",
            "connectivity": true
        },
        {
            "lon": -49.5409,
            "lat": -27.1696,
            "school_name": "CENTRO DE EDUCACAO INFANTIL ESTRELA GUIA",
            "country_name": "Brazil",
            "connectivity": false
        },
        {
            "lon": -51.1302,
            "lat": -29.853,
            "school_name": "EMEF AFONSO GUERREIRO LIMA",
            "country_name": "Brazil",
            "connectivity": true
        },
        {
            "lon": -49.3016,
            "lat": -25.6477,
            "school_name": "DECIO DOSSI C E DR EF M PROFIS",
            "country_name": "Brazil",
            "connectivity": true
        },
        {
            "lon": -49.5824,
            "lat": -14.5773,
            "school_name": "ESC MUL RAFAEL DA LUZ PEIXOTO",
            "country_name": "Brazil",
            "connectivity": false
        },
        {
            "lon": -43.8749,
            "lat": -16.7302,
            "school_name": "EE PROFESSOR PLINIO RIBEIRO",
            "country_name": "Brazil",
            "connectivity": true
        },
        {
            "lon": -47.8498,
            "lat": -23.3343,
            "school_name": "SEMIRAMIS TURELLI AZEVEDO PROFA",
            "country_name": "Brazil",
            "connectivity": true
        },
        {
            "lon": -49.5162,
            "lat": -16.6347,
            "school_name": "CENTRO MUNICIPAL DE EDUCACAO INFANTIL ALCINA MARIA DE CARVALHO",
            "country_name": "Brazil",
            "connectivity": true
        },
        {
            "lon": -46.5885,
            "lat": -23.5756,
            "school_name": "JOSE HEITOR CARUSI PROFESSOR",
            "country_name": "Brazil",
            "connectivity": true
        },
        {
            "lon": -39.2807,
            "lat": -14.5923,
            "school_name": "EE - COLEGIO ESTADUAL CARNEIRO RIBEIRO",
            "country_name": "Brazil",
            "connectivity": true
        },
        {
            "lon": -48.5842,
            "lat": -25.8845,
            "school_name": "OLGA SILVEIRA E M PROFA EI EF",
            "country_name": "Brazil",
            "connectivity": true
        },
        {
            "lon": -46.9366,
            "lat": -23.5552,
            "school_name": "CEMEB PROFESSORA CHRISTEL RUTH IUNG ROOSCH",
            "country_name": "Brazil",
            "connectivity": true
        },
        {
            "lon": -37.9342,
            "lat": -9.2605,
            "school_name": "ESCOLA MUNICIPAL DE EDUCACAO BASICA AMERICA FERNANDES TORRES",
            "country_name": "Brazil",
            "connectivity": true
        },
        {
            "lon": -53.4841,
            "lat": -23.0887,
            "school_name": "HUMBERTO DE CAMPOS C E EF M N PROFIS",
            "country_name": "Brazil",
            "connectivity": true
        },
        {
            "lon": -49.3898,
            "lat": -26.0862,
            "school_name": "SANTA ISABEL E M C EI EF",
            "country_name": "Brazil",
            "connectivity": true
        },
        {
            "lon": -47.5182,
            "lat": -23.011,
            "school_name": "ALDO SILVEIRA PROFESSOR ESCOLA INTEGRAL DE CAPIVARI",
            "country_name": "Brazil",
            "connectivity": true
        },
        {
            "lon": -44.6056,
            "lat": -19.8632,
            "school_name": "EE TORQUATO DE ALMEIDA",
            "country_name": "Brazil",
            "connectivity": true
        },
        {
            "lon": -48.2125,
            "lat": -18.6761,
            "school_name": "CMEI LAZARO CAMARGO",
            "country_name": "Brazil",
            "connectivity": true
        },
        {
            "lon": -50.157,
            "lat": -25.0762,
            "school_name": "POLIVALENTE C E EF M PROFIS",
            "country_name": "Brazil",
            "connectivity": true
        },
        {
            "lon": -40.1999,
            "lat": -19.5991,
            "school_name": "CMEB JOSE MAMBRINI",
            "country_name": "Brazil",
            "connectivity": true
        },
        {
            "lon": -51.3498,
            "lat": -29.5735,
            "school_name": "ESC MUN WALDOMIRO ALBERTO VAN GROL",
            "country_name": "Brazil",
            "connectivity": true
        },
        {
            "lon": -48.4696,
            "lat": -1.3325,
            "school_name": "EEEFM DR JOSE MARCIO AYRES",
            "country_name": "Brazil",
            "connectivity": true
        },
        {
            "lon": -39.475,
            "lat": -14.8079,
            "school_name": "ESCOLA MUNICIPAL JESUS BOM PASTOR",
            "country_name": "Brazil",
            "connectivity": true
        },
        {
            "lon": -42.88,
            "lat": -19.3319,
            "school_name": "EE LEOPOLDINA BARROS DRUMOND",
            "country_name": "Brazil",
            "connectivity": true
        },
        {
            "lon": -45.8152,
            "lat": -18.8005,
            "school_name": "EM JOSE VICENTE DE OLIVEIRA",
            "country_name": "Brazil",
            "connectivity": true
        },
        {
            "lon": -40.4614,
            "lat": -9.1971,
            "school_name": "ESCOLA NUCLEO DE MORADORES-7",
            "country_name": "Brazil",
            "connectivity": true
        }
    ],
    "num_countries": 13,
    "countries": [
        "Brazil",
        "Colombia",
        "Costa Rica",
        "Grenada",
        "Honduras",
        "Kazakhstan",
        "Kyrgyzstan",
        "Namibia",
        "Philippines",
        "Rwanda",
        "Saint Vincent and the Grenadines",
        "Sierra Leone",
        "Zimbabwe"
    ],
    "schools_no_data": [
        {
            "lon": 27.8830673,
            "lat": -21.297264,
            "school_name": "Matsiloje \u2a02",
            "country_name": "Botswana",
            "connectivity": false
        },
        {
            "lon": 21.884597,
            "lat": -18.3172984,
            "school_name": "Xakao\u00fc",
            "country_name": "Botswana",
            "connectivity": false
        },
        {
            "lon": -9.422649,
            "lat": 7.771016,
            "school_name": "Christian Academy",
            "country_name": "Liberia",
            "connectivity": false
        },
        {
            "lon": 7.488526,
            "lat": 6.315884,
            "school_name": "Name unknown",
            "country_name": "Nigeria",
            "connectivity": false
        },
        {
            "lon": 7.553201667,
            "lat": 6.784581667,
            "school_name": "Name unknown",
            "country_name": "Nigeria",
            "connectivity": false
        },
        {
            "lon": -0.1754315,
            "lat": 5.5799773,
            "school_name": "Name unknown",
            "country_name": "Ghana",
            "connectivity": false
        },
        {
            "lon": 33.1959075833333,
            "lat": 14.60682605,
            "school_name": "Name unknown",
            "country_name": "Sudan",
            "connectivity": false
        },
        {
            "lon": 32.6010191833333,
            "lat": 14.2307542166667,
            "school_name": "Name unknown",
            "country_name": "Sudan",
            "connectivity": false
        },
        {
            "lon": 32.28599093,
            "lat": 13.77932027,
            "school_name": "Name unknown",
            "country_name": "Sudan",
            "connectivity": false
        },
        {
            "lon": 32.57924713,
            "lat": 13.86021697,
            "school_name": "Name unknown",
            "country_name": "Sudan",
            "connectivity": false
        },
        {
            "lon": 0.3018297,
            "lat": 9.8519094,
            "school_name": "Name unknown",
            "country_name": "Ghana",
            "connectivity": false
        },
        {
            "lon": -0.2597612,
            "lat": 5.6151276,
            "school_name": "Name unknown",
            "country_name": "Ghana",
            "connectivity": false
        },
        {
            "lon": -0.1988754,
            "lat": 5.587266,
            "school_name": "Name unknown",
            "country_name": "Ghana",
            "connectivity": false
        },
        {
            "lon": -2.1629454,
            "lat": 7.5351305,
            "school_name": "Name unknown",
            "country_name": "Ghana",
            "connectivity": false
        },
        {
            "lon": -0.9284837,
            "lat": 6.456446,
            "school_name": "Name unknown",
            "country_name": "Ghana",
            "connectivity": false
        },
        {
            "lon": -1.682201,
            "lat": 6.1978616,
            "school_name": "Name unknown",
            "country_name": "Ghana",
            "connectivity": false
        },
        {
            "lon": -1.8089113,
            "lat": 6.6631876,
            "school_name": "Name unknown",
            "country_name": "Ghana",
            "connectivity": false
        },
        {
            "lon": 39.34055,
            "lat": -6.86963,
            "school_name": "GOLDLAND",
            "country_name": "United Republic of Tanzania",
            "connectivity": false
        },
        {
            "lon": 38.33788,
            "lat": -6.98308,
            "school_name": "SEREGETE B",
            "country_name": "United Republic of Tanzania",
            "connectivity": false
        },
        {
            "lon": 39.28556,
            "lat": -11.10514,
            "school_name": "MANYULI",
            "country_name": "United Republic of Tanzania",
            "connectivity": false
        },
        {
            "lon": 35.31511,
            "lat": -4.17518,
            "school_name": "ENDASIRONG",
            "country_name": "United Republic of Tanzania",
            "connectivity": false
        },
        {
            "lon": 34.88718,
            "lat": -11.35382,
            "school_name": "UNDU",
            "country_name": "United Republic of Tanzania",
            "connectivity": false
        },
        {
            "lon": 38.92432,
            "lat": -8.48335,
            "school_name": "KIPATIMU",
            "country_name": "United Republic of Tanzania",
            "connectivity": false
        },
        {
            "lon": 33.34573,
            "lat": -2.72338,
            "school_name": "NGOGO",
            "country_name": "United Republic of Tanzania",
            "connectivity": false
        },
        {
            "lon": 29.67983,
            "lat": -4.91951,
            "school_name": "KITONGONI",
            "country_name": "United Republic of Tanzania",
            "connectivity": false
        },
        {
            "lon": 36.8684274,
            "lat": -1.260005,
            "school_name": "Ananda Manga primary school",
            "country_name": "Kenya",
            "connectivity": false
        },
        {
            "lon": 19.55986977,
            "lat": 43.54969897,
            "school_name": "\u041d\u0438\u043a\u043e\u043b\u0430 \u0422\u0435\u0441\u043b\u0430",
            "country_name": "Serbia",
            "connectivity": false
        },
        {
            "lon": 36.8879695,
            "lat": -1.2533934,
            "school_name": "missions of hope primary",
            "country_name": "Kenya",
            "connectivity": false
        },
        {
            "lon": 1.194765,
            "lat": 7.75921,
            "school_name": "EPL L'AN 2000 ANIE G/A",
            "country_name": "Togo",
            "connectivity": false
        },
        {
            "lon": 1.1111959,
            "lat": 8.796553,
            "school_name": "EPP DATCHA",
            "country_name": "Togo",
            "connectivity": false
        },
        {
            "lon": 1.434871667,
            "lat": 9.026591667,
            "school_name": "EPP KOUBONI",
            "country_name": "Togo",
            "connectivity": false
        },
        {
            "lon": 0.365737,
            "lat": 10.831667,
            "school_name": "EPP TAMATOUGOU G/A",
            "country_name": "Togo",
            "connectivity": false
        },
        {
            "lon": 6.59251,
            "lat": 6.273397,
            "school_name": "Name unknown",
            "country_name": "Nigeria",
            "connectivity": false
        },
        {
            "lon": 1.222661667,
            "lat": 6.134045,
            "school_name": "CPL NEWTON",
            "country_name": "Togo",
            "connectivity": false
        },
        {
            "lon": 37.01107,
            "lat": -3.23541,
            "school_name": "MAKIWARU",
            "country_name": "United Republic of Tanzania",
            "connectivity": false
        },
        {
            "lon": 31.83297,
            "lat": -5.27894,
            "school_name": "IGOMBE",
            "country_name": "United Republic of Tanzania",
            "connectivity": false
        },
        {
            "lon": 33.51754,
            "lat": -3.23982,
            "school_name": "NYASHIMBA",
            "country_name": "United Republic of Tanzania",
            "connectivity": false
        },
        {
            "lon": 35.08740262,
            "lat": -15.82450482,
            "school_name": "Bangwe Catholic",
            "country_name": "Malawi",
            "connectivity": false
        },
        {
            "lon": 34.99580518,
            "lat": -14.8743622,
            "school_name": "Misu",
            "country_name": "Malawi",
            "connectivity": false
        },
        {
            "lon": 35.17637589,
            "lat": -15.01275806,
            "school_name": "Liwonde Highway PVT",
            "country_name": "Malawi",
            "connectivity": false
        },
        {
            "lon": 34.65272843,
            "lat": -14.31493631,
            "school_name": "Kapiri CDSS",
            "country_name": "Malawi",
            "connectivity": false
        },
        {
            "lon": -58.73974001,
            "lat": -34.54472,
            "school_name": "MALVINAS ARGENTINAS",
            "country_name": "Argentina",
            "connectivity": false
        },
        {
            "lon": 33.37366812,
            "lat": -12.26067325,
            "school_name": "Mtuzuzu CDSS",
            "country_name": "Malawi",
            "connectivity": false
        },
        {
            "lon": 33.72136373,
            "lat": -14.12903768,
            "school_name": "Chioza Primary School",
            "country_name": "Malawi",
            "connectivity": false
        },
        {
            "lon": 33.70141825,
            "lat": -14.36446967,
            "school_name": "ThawalePrimary SChool",
            "country_name": "Malawi",
            "connectivity": false
        },
        {
            "lon": 27.15717593,
            "lat": 1.014044707,
            "school_name": "INST BABANANZAKA",
            "country_name": "Democratic Republic of the Congo",
            "connectivity": false
        },
        {
            "lon": 22.02947341,
            "lat": 0.76962282,
            "school_name": "INST BOSENGE",
            "country_name": "Democratic Republic of the Congo",
            "connectivity": false
        },
        {
            "lon": 19.22368312,
            "lat": 0.354904692,
            "school_name": "INST JEANNE MARIE ABANDA",
            "country_name": "Democratic Republic of the Congo",
            "connectivity": false
        },
        {
            "lon": 24.6898179,
            "lat": -6.003768252,
            "school_name": "INST NDELEYI",
            "country_name": "Democratic Republic of the Congo",
            "connectivity": false
        },
        {
            "lon": 7.013348333,
            "lat": 5.755783333,
            "school_name": "Name unknown",
            "country_name": "Nigeria",
            "connectivity": false
        },
        {
            "lon": 20.85019701,
            "lat": 1.785866993,
            "school_name": "INST LENDON",
            "country_name": "Democratic Republic of the Congo",
            "connectivity": false
        },
        {
            "lon": 20.08806778,
            "lat": 2.470670166,
            "school_name": "INST REVEREND NGBA",
            "country_name": "Democratic Republic of the Congo",
            "connectivity": false
        },
        {
            "lon": 28.14836944,
            "lat": -4.092594444,
            "school_name": "EP KIHUNGWE",
            "country_name": "Democratic Republic of the Congo",
            "connectivity": false
        },
        {
            "lon": 28.86488769,
            "lat": -2.540538929,
            "school_name": "EP TUJENGE",
            "country_name": "Democratic Republic of the Congo",
            "connectivity": false
        },
        {
            "lon": -66.686906,
            "lat": -18.084275,
            "school_name": "MEJILLONES DE VILLA VICTORIA",
            "country_name": "Bolivia (Plurinational State of)",
            "connectivity": false
        },
        {
            "lon": -99.179611,
            "lat": 18.611919,
            "school_name": "ESCUELA COMERCIAL ANAHUAC",
            "country_name": "Mexico",
            "connectivity": false
        },
        {
            "lon": -97.682036,
            "lat": 20.102341,
            "school_name": "JOSE MARIA LUIS MORA",
            "country_name": "Mexico",
            "connectivity": false
        },
        {
            "lon": -8.91755,
            "lat": 16.4047,
            "school_name": "\u0627\u0634\u0644\u0645",
            "country_name": "Mauritania",
            "connectivity": false
        },
        {
            "lon": -10.4938,
            "lat": 16.65738,
            "school_name": "\u062a\u0646\u0643\u0627\u0629",
            "country_name": "Mauritania",
            "connectivity": false
        },
        {
            "lon": -15.97142,
            "lat": 17.97741,
            "school_name": "JAAVAR ESSADEGH",
            "country_name": "Mauritania",
            "connectivity": false
        },
        {
            "lon": 31.49262,
            "lat": -0.03813,
            "school_name": "KAWANDA PRIMARY SCHOOL",
            "country_name": "Uganda",
            "connectivity": false
        },
        {
            "lon": 32.86,
            "lat": 0.52661,
            "school_name": "NABUKUKU INFANT SCHOOL",
            "country_name": "Uganda",
            "connectivity": false
        },
        {
            "lon": 32.36627,
            "lat": 2.11047,
            "school_name": "Adyegi P.7 School",
            "country_name": "Uganda",
            "connectivity": false
        },
        {
            "lon": 31.23482,
            "lat": 2.37044,
            "school_name": "Ossi P.S.",
            "country_name": "Uganda",
            "connectivity": false
        },
        {
            "lon": 31.55766,
            "lat": -0.35262,
            "school_name": "St. Joseph's Kinoni P.S.",
            "country_name": "Uganda",
            "connectivity": false
        },
        {
            "lon": 31.75724,
            "lat": 0.56346,
            "school_name": "Kyamasansa P.S.",
            "country_name": "Uganda",
            "connectivity": false
        },
        {
            "lon": -59.01529307,
            "lat": -27.45064845,
            "school_name": "E.E.P. N\u00ba 737-LUCIO NORBERTO MANSILLA",
            "country_name": "Argentina",
            "connectivity": false
        },
        {
            "lon": 30.23458,
            "lat": -24.9929,
            "school_name": "Shaga Primary School",
            "country_name": "South Africa",
            "connectivity": false
        },
        {
            "lon": 28.69446,
            "lat": -26.12987,
            "school_name": "Khangela Primary School",
            "country_name": "South Africa",
            "connectivity": false
        },
        {
            "lon": 26.81175,
            "lat": -26.78277,
            "school_name": "Pelonomi Intermediate School",
            "country_name": "South Africa",
            "connectivity": false
        },
        {
            "lon": 27.2389,
            "lat": -25.6852,
            "school_name": "STAR Academy",
            "country_name": "South Africa",
            "connectivity": false
        },
        {
            "lon": 25.60514,
            "lat": -25.83124,
            "school_name": "CN Lekalake Middle School",
            "country_name": "South Africa",
            "connectivity": false
        },
        {
            "lon": 25.98256,
            "lat": -25.37482,
            "school_name": "Keobusitse Primary School",
            "country_name": "South Africa",
            "connectivity": false
        },
        {
            "lon": 24.79792,
            "lat": -27.59379,
            "school_name": "Bogosing High School",
            "country_name": "South Africa",
            "connectivity": false
        },
        {
            "lon": 24.80228,
            "lat": -27.54183,
            "school_name": "Ratampai Middle School",
            "country_name": "South Africa",
            "connectivity": false
        },
        {
            "lon": 24.73896,
            "lat": -26.97817,
            "school_name": "Retlaadira Public Primary School",
            "country_name": "South Africa",
            "connectivity": false
        },
        {
            "lon": 31.17392,
            "lat": -24.94916,
            "school_name": "Mathibela High School",
            "country_name": "South Africa",
            "connectivity": false
        },
        {
            "lon": 19.44706,
            "lat": -30.95693,
            "school_name": "Ho?\u0192?\u00abrskool Loeriesfontein",
            "country_name": "South Africa",
            "connectivity": false
        },
        {
            "lon": 18.15471,
            "lat": -32.77111,
            "school_name": "Nosipho Consultancy",
            "country_name": "South Africa",
            "connectivity": false
        },
        {
            "lon": 16.7754,
            "lat": -28.41927,
            "school_name": "Dryfsand Prim?\u0192?\u00d7re Skool",
            "country_name": "South Africa",
            "connectivity": false
        },
        {
            "lon": 29.51857,
            "lat": -25.03272,
            "school_name": "Kopa Secondary School",
            "country_name": "South Africa",
            "connectivity": false
        },
        {
            "lon": 30.11418,
            "lat": -24.46163,
            "school_name": "Mashishi Primary",
            "country_name": "South Africa",
            "connectivity": false
        },
        {
            "lon": 18.51821,
            "lat": -33.93316,
            "school_name": "La Gratitude Pre Primary School",
            "country_name": "South Africa",
            "connectivity": false
        },
        {
            "lon": 19.13213,
            "lat": -34.39019,
            "school_name": "Hawston Primary School",
            "country_name": "South Africa",
            "connectivity": false
        },
        {
            "lon": 19.21406,
            "lat": -34.41994,
            "school_name": "Mount Pleasant Primary School",
            "country_name": "South Africa",
            "connectivity": false
        },
        {
            "lon": 30.07026,
            "lat": -30.77202,
            "school_name": "Ebomvini CP School",
            "country_name": "South Africa",
            "connectivity": false
        },
        {
            "lon": 30.79802,
            "lat": -23.25721,
            "school_name": "Benson Shiviti Primary School",
            "country_name": "South Africa",
            "connectivity": false
        },
        {
            "lon": 27.25581,
            "lat": -29.02373,
            "school_name": "Sandspruit Primary Farm School",
            "country_name": "South Africa",
            "connectivity": false
        },
        {
            "lon": 30.50806,
            "lat": -22.82239,
            "school_name": "Muhuyu Primary",
            "country_name": "South Africa",
            "connectivity": false
        },
        {
            "lon": 30.33458,
            "lat": -23.05828,
            "school_name": "Nndwammbi Primary School",
            "country_name": "South Africa",
            "connectivity": false
        },
        {
            "lon": 32.09369,
            "lat": -27.11179,
            "school_name": "Nqobizazi High School",
            "country_name": "South Africa",
            "connectivity": false
        },
        {
            "lon": 32.62481,
            "lat": -27.5215,
            "school_name": "Nhlambanyathi Junior Secondary School",
            "country_name": "South Africa",
            "connectivity": false
        },
        {
            "lon": 30.98987,
            "lat": -29.71594,
            "school_name": "Ferndale Secondary School",
            "country_name": "South Africa",
            "connectivity": false
        },
        {
            "lon": 31.02067,
            "lat": -29.86168,
            "school_name": "Offshore Sailing Academy",
            "country_name": "South Africa",
            "connectivity": false
        },
        {
            "lon": 30.92822,
            "lat": -28.51911,
            "school_name": "Gawulashiye Primary School",
            "country_name": "South Africa",
            "connectivity": false
        },
        {
            "lon": 30.92953,
            "lat": -29.92681,
            "school_name": "Havenside Pre Primary School",
            "country_name": "South Africa",
            "connectivity": false
        },
        {
            "lon": 28.00769,
            "lat": -26.09199,
            "school_name": "Suzzy Day Care",
            "country_name": "South Africa",
            "connectivity": false
        },
        {
            "lon": 27.8808,
            "lat": -26.21167,
            "school_name": "Kelokitso Comprehensive School",
            "country_name": "South Africa",
            "connectivity": false
        },
        {
            "lon": 28.07796,
            "lat": -26.15165,
            "school_name": "Orchards Primary School",
            "country_name": "South Africa",
            "connectivity": false
        },
        {
            "lon": 28.29394,
            "lat": -26.08451,
            "school_name": "Laerskool Bredell",
            "country_name": "South Africa",
            "connectivity": false
        },
        {
            "lon": 27.64188,
            "lat": -26.32435,
            "school_name": "Tiny Tods Pre-Primary",
            "country_name": "South Africa",
            "connectivity": false
        },
        {
            "lon": 28.06021,
            "lat": -26.057,
            "school_name": "Shuaimeng Liu Kung Fu School",
            "country_name": "South Africa",
            "connectivity": false
        },
        {
            "lon": 28.32931,
            "lat": -26.25382,
            "school_name": "Dalpark Primary School",
            "country_name": "South Africa",
            "connectivity": false
        },
        {
            "lon": 26.73709,
            "lat": -29.26026,
            "school_name": "Popano Secondary School",
            "country_name": "South Africa",
            "connectivity": false
        },
        {
            "lon": 27.1905,
            "lat": -30.39233,
            "school_name": "Zululand Primary School",
            "country_name": "South Africa",
            "connectivity": false
        },
        {
            "lon": 28.3331,
            "lat": -32.03313,
            "school_name": "Zamuxolo Junior Secondary School",
            "country_name": "South Africa",
            "connectivity": false
        },
        {
            "lon": 28.74372,
            "lat": -30.31355,
            "school_name": "Manguzela Combined School",
            "country_name": "South Africa",
            "connectivity": false
        },
        {
            "lon": 27.89184,
            "lat": -32.99443,
            "school_name": "Frere Hospital Primary School",
            "country_name": "South Africa",
            "connectivity": false
        },
        {
            "lon": 28.64423,
            "lat": -32.23967,
            "school_name": "Phathilizwe Junior Secondary School",
            "country_name": "South Africa",
            "connectivity": false
        },
        {
            "lon": -61.6652638,
            "lat": -38.0570528,
            "school_name": "ESCUELA PRIMARIA N\u00ba45 PATAGONIA ARGENTINA",
            "country_name": "Argentina",
            "connectivity": false
        },
        {
            "lon": -59.0877024,
            "lat": -36.4559199,
            "school_name": "ESCUELA PRIMARIA N\u00ba34 25 DE MAYO",
            "country_name": "Argentina",
            "connectivity": false
        },
        {
            "lon": -58.48665395,
            "lat": -34.75640469,
            "school_name": "INSTITUTO ALMAFUERTE",
            "country_name": "Argentina",
            "connectivity": false
        },
        {
            "lon": -60.47271712,
            "lat": -34.64335108,
            "school_name": "INSTITUTO DE EDUCACION CATOLICA",
            "country_name": "Argentina",
            "connectivity": false
        },
        {
            "lon": -58.63622231,
            "lat": -34.5852135,
            "school_name": "ESCUELA ESPECIAL HURLINGHAM",
            "country_name": "Argentina",
            "connectivity": false
        },
        {
            "lon": -57.94947834,
            "lat": -34.92158705,
            "school_name": "JARDIN MATERNAL PASITO A PASO",
            "country_name": "Argentina",
            "connectivity": false
        },
        {
            "lon": -60.46363843,
            "lat": -34.64324384,
            "school_name": "ESCUELA SECUNDARIA N\u00ba 8",
            "country_name": "Argentina",
            "connectivity": false
        },
        {
            "lon": -58.76784802,
            "lat": -34.5294424,
            "school_name": "ESC. SECUNDARIA BASICA N\u00ba30",
            "country_name": "Argentina",
            "connectivity": false
        },
        {
            "lon": -59.275589,
            "lat": -35.0033722,
            "school_name": "CENTRO INVESTIGACION EDUCATIVA",
            "country_name": "Argentina",
            "connectivity": false
        },
        {
            "lon": -65.796583,
            "lat": -28.488232,
            "school_name": "ESCUELA N\u00b0 199 SAN JORGE",
            "country_name": "Argentina",
            "connectivity": false
        },
        {
            "lon": -59.09755483,
            "lat": -28.98798266,
            "school_name": "INST DE LENGUAS MODERNAS SAINT PAUL I.PROF-28",
            "country_name": "Argentina",
            "connectivity": false
        },
        {
            "lon": -59.65098,
            "lat": -25.69287,
            "school_name": "EPEP N\u00b0341 PROVINCIA DE CORDOBA",
            "country_name": "Argentina",
            "connectivity": false
        },
        {
            "lon": -59.11135821,
            "lat": -25.74892264,
            "school_name": "EPEP N\u00ba 98 NUESTRA SE\u00d1ORA DE ITATI",
            "country_name": "Argentina",
            "connectivity": false
        },
        {
            "lon": -58.21600406,
            "lat": -25.37100929,
            "school_name": "CBSR EPEP N\u00b0 39",
            "country_name": "Argentina",
            "connectivity": false
        },
        {
            "lon": -67.75526893,
            "lat": -29.50611963,
            "school_name": "ESC.N\u00b0324 GRANADERO VARGAS",
            "country_name": "Argentina",
            "connectivity": false
        },
        {
            "lon": -54.99785875,
            "lat": -26.80427098,
            "school_name": "ESC. N\u00b0 228",
            "country_name": "Argentina",
            "connectivity": false
        },
        {
            "lon": -53.68674119,
            "lat": -26.17348005,
            "school_name": "ESC. N\u00b0 507",
            "country_name": "Argentina",
            "connectivity": false
        },
        {
            "lon": -68.15,
            "lat": -38.75,
            "school_name": "C.P.E.M. 33",
            "country_name": "Argentina",
            "connectivity": false
        },
        {
            "lon": -70.59528221,
            "lat": -39.55671736,
            "school_name": "ESCUELA PRIMARIA 88",
            "country_name": "Argentina",
            "connectivity": false
        },
        {
            "lon": -63.68735649,
            "lat": -22.05869381,
            "school_name": "B.S.P.A.N\u00aa 7081 EX N\u00b015 -ESCUELA DE COMERCIO N\u00b05-",
            "country_name": "Argentina",
            "connectivity": false
        },
        {
            "lon": -64.96227358,
            "lat": -24.70769684,
            "school_name": "ESCUELA N\u00aa 4520 EX N\u00b0733",
            "country_name": "Argentina",
            "connectivity": false
        },
        {
            "lon": -61.843181,
            "lat": -28.7858771,
            "school_name": "ESCUELA NRO 1027 DON ALDO ENZO GONZALEZ",
            "country_name": "Argentina",
            "connectivity": false
        },
        {
            "lon": -63.45556484,
            "lat": -29.56870009,
            "school_name": "INSTITUTO SOL DE JULIO(COL. MIECIO O LAGAZZI",
            "country_name": "Argentina",
            "connectivity": false
        },
        {
            "lon": -65.28934529,
            "lat": -26.81428442,
            "school_name": "COLEGIO DIVINA MISERICORDIA",
            "country_name": "Argentina",
            "connectivity": false
        },
        {
            "lon": 6.152644,
            "lat": 5.373967,
            "school_name": "Name unknown",
            "country_name": "Nigeria",
            "connectivity": false
        },
        {
            "lon": 5.770669191,
            "lat": 5.529673531,
            "school_name": "Name unknown",
            "country_name": "Nigeria",
            "connectivity": false
        },
        {
            "lon": 8.210118,
            "lat": 6.743138,
            "school_name": "Name unknown",
            "country_name": "Nigeria",
            "connectivity": false
        },
        {
            "lon": 13.78648408,
            "lat": 11.05197867,
            "school_name": "Name unknown",
            "country_name": "Nigeria",
            "connectivity": false
        },
        {
            "lon": 13.67443835,
            "lat": 12.9392111,
            "school_name": "Name unknown",
            "country_name": "Nigeria",
            "connectivity": false
        },
        {
            "lon": 6.289759,
            "lat": 6.678513,
            "school_name": "Name unknown",
            "country_name": "Nigeria",
            "connectivity": false
        },
        {
            "lon": 6.331429,
            "lat": 7.278262,
            "school_name": "Name unknown",
            "country_name": "Nigeria",
            "connectivity": false
        },
        {
            "lon": 5.954649,
            "lat": 6.377778,
            "school_name": "Name unknown",
            "country_name": "Nigeria",
            "connectivity": false
        },
        {
            "lon": 13.59361571,
            "lat": 12.17127756,
            "school_name": "Name unknown",
            "country_name": "Nigeria",
            "connectivity": false
        },
        {
            "lon": 4.921503333,
            "lat": 7.841723333,
            "school_name": "Name unknown",
            "country_name": "Nigeria",
            "connectivity": false
        },
        {
            "lon": 5.261642,
            "lat": 7.55532,
            "school_name": "Name unknown",
            "country_name": "Nigeria",
            "connectivity": false
        },
        {
            "lon": 5.16754,
            "lat": 7.986143333,
            "school_name": "Name unknown",
            "country_name": "Nigeria",
            "connectivity": false
        },
        {
            "lon": 5.139754,
            "lat": 8.045178,
            "school_name": "Name unknown",
            "country_name": "Nigeria",
            "connectivity": false
        },
        {
            "lon": 3.04637,
            "lat": 6.46267,
            "school_name": "Name unknown",
            "country_name": "Nigeria",
            "connectivity": false
        },
        {
            "lon": 3.06462,
            "lat": 6.48985,
            "school_name": "Name unknown",
            "country_name": "Nigeria",
            "connectivity": false
        },
        {
            "lon": 7.29085,
            "lat": 9.023582,
            "school_name": "Name unknown",
            "country_name": "Nigeria",
            "connectivity": false
        },
        {
            "lon": 11.18923167,
            "lat": 10.27929167,
            "school_name": "Name unknown",
            "country_name": "Nigeria",
            "connectivity": false
        },
        {
            "lon": 7.127188,
            "lat": 5.515855,
            "school_name": "Name unknown",
            "country_name": "Nigeria",
            "connectivity": false
        },
        {
            "lon": -77.0067,
            "lat": -6.1225,
            "school_name": "113",
            "country_name": "Peru",
            "connectivity": false
        },
        {
            "lon": -76.8084,
            "lat": -7.03332,
            "school_name": "0030 MARIA PARADO DE BELLIDO",
            "country_name": "Peru",
            "connectivity": false
        },
        {
            "lon": -77.0976,
            "lat": -5.84363,
            "school_name": "650",
            "country_name": "Peru",
            "connectivity": false
        },
        {
            "lon": -78.1685,
            "lat": -9.13348,
            "school_name": "514",
            "country_name": "Peru",
            "connectivity": false
        },
        {
            "lon": -77.5044,
            "lat": -5.8109,
            "school_name": "01028 CESAR VALLEJO",
            "country_name": "Peru",
            "connectivity": false
        },
        {
            "lon": -76.0031,
            "lat": -9.30646,
            "school_name": "18",
            "country_name": "Peru",
            "connectivity": false
        },
        {
            "lon": -80.7623,
            "lat": -5.4076,
            "school_name": "22",
            "country_name": "Peru",
            "connectivity": false
        },
        {
            "lon": -77.782,
            "lat": -6.9058,
            "school_name": "41",
            "country_name": "Peru",
            "connectivity": false
        },
        {
            "lon": -76.5091,
            "lat": -6.626,
            "school_name": "692",
            "country_name": "Peru",
            "connectivity": false
        },
        {
            "lon": -76.6419,
            "lat": -8.09949,
            "school_name": "723",
            "country_name": "Peru",
            "connectivity": false
        },
        {
            "lon": -79.8859,
            "lat": -6.66202,
            "school_name": "10904 SE\u00d1OR DE HUAMANTANGA",
            "country_name": "Peru",
            "connectivity": false
        },
        {
            "lon": -79.3222,
            "lat": -6.07957,
            "school_name": "11160",
            "country_name": "Peru",
            "connectivity": false
        },
        {
            "lon": -79.6114,
            "lat": -4.6252,
            "school_name": "14233",
            "country_name": "Peru",
            "connectivity": false
        },
        {
            "lon": -80.5236,
            "lat": -4.37901,
            "school_name": "14909",
            "country_name": "Peru",
            "connectivity": false
        },
        {
            "lon": -70.106,
            "lat": -14.3897,
            "school_name": "150",
            "country_name": "Peru",
            "connectivity": false
        },
        {
            "lon": -80.3535,
            "lat": -4.25638,
            "school_name": "15432",
            "country_name": "Peru",
            "connectivity": false
        },
        {
            "lon": -78.8978,
            "lat": -5.30493,
            "school_name": "16488",
            "country_name": "Peru",
            "connectivity": false
        },
        {
            "lon": -78.5496,
            "lat": -5.5382,
            "school_name": "16777",
            "country_name": "Peru",
            "connectivity": false
        },
        {
            "lon": -77.8225,
            "lat": -5.84342,
            "school_name": "18081",
            "country_name": "Peru",
            "connectivity": false
        },
        {
            "lon": -77.7747,
            "lat": -10.6954,
            "school_name": "20501 SANTA ROSA",
            "country_name": "Peru",
            "connectivity": false
        },
        {
            "lon": -77.7747,
            "lat": -10.6954,
            "school_name": "20501 SANTA ROSA",
            "country_name": "Peru",
            "connectivity": false
        },
        {
            "lon": -79.0112,
            "lat": -8.10163,
            "school_name": "206 SABER Y FANTASIA CON MARIA",
            "country_name": "Peru",
            "connectivity": false
        },
        {
            "lon": -75.9573,
            "lat": -12.583,
            "school_name": "20749 SAN FRANCISCO DE ASIS",
            "country_name": "Peru",
            "connectivity": false
        },
        {
            "lon": -77.6361,
            "lat": -11.019,
            "school_name": "21003",
            "country_name": "Peru",
            "connectivity": false
        },
        {
            "lon": -74.6592,
            "lat": -10.9547,
            "school_name": "2133",
            "country_name": "Peru",
            "connectivity": false
        },
        {
            "lon": -78.3537,
            "lat": -7.15854,
            "school_name": "234",
            "country_name": "Peru",
            "connectivity": false
        },
        {
            "lon": -75.0386,
            "lat": -8.9367,
            "school_name": "243",
            "country_name": "Peru",
            "connectivity": false
        },
        {
            "lon": -75.3275,
            "lat": -12.3062,
            "school_name": "30159",
            "country_name": "Peru",
            "connectivity": false
        },
        {
            "lon": -74.4615,
            "lat": -12.7263,
            "school_name": "319 LOS GAVILANES",
            "country_name": "Peru",
            "connectivity": false
        },
        {
            "lon": -77.966,
            "lat": -8.1828,
            "school_name": "ARCO IRIS",
            "country_name": "Peru",
            "connectivity": false
        },
        {
            "lon": -76.0274,
            "lat": -9.9103,
            "school_name": "32634",
            "country_name": "Peru",
            "connectivity": false
        },
        {
            "lon": -76.3021,
            "lat": -9.23089,
            "school_name": "32738",
            "country_name": "Peru",
            "connectivity": false
        },
        {
            "lon": -79.0248,
            "lat": -5.34618,
            "school_name": "CARITAS FELICES",
            "country_name": "Peru",
            "connectivity": false
        },
        {
            "lon": -74.8997,
            "lat": -12.6333,
            "school_name": "36077",
            "country_name": "Peru",
            "connectivity": false
        },
        {
            "lon": -74.833,
            "lat": -12.7849,
            "school_name": "36520",
            "country_name": "Peru",
            "connectivity": false
        },
        {
            "lon": -77.1232,
            "lat": -11.8259,
            "school_name": "3720 NUESTRA SE\u00d1ORA DE LA MISERICORDIA",
            "country_name": "Peru",
            "connectivity": false
        },
        {
            "lon": -73.1707,
            "lat": -15.9827,
            "school_name": "40194",
            "country_name": "Peru",
            "connectivity": false
        },
        {
            "lon": -77.4609,
            "lat": -9.74337,
            "school_name": "412",
            "country_name": "Peru",
            "connectivity": false
        },
        {
            "lon": -70.5479,
            "lat": -17.4792,
            "school_name": "42028 MARISCAL GUILLERMO MILLER",
            "country_name": "Peru",
            "connectivity": false
        },
        {
            "lon": -70.4659,
            "lat": -18.1483,
            "school_name": "42213 HUGO SALAZAR DEL ALCAZAR",
            "country_name": "Peru",
            "connectivity": false
        },
        {
            "lon": -74.2366,
            "lat": -12.9549,
            "school_name": "429-14",
            "country_name": "Peru",
            "connectivity": false
        },
        {
            "lon": -74.2997,
            "lat": -13.2103,
            "school_name": "432-184",
            "country_name": "Peru",
            "connectivity": false
        },
        {
            "lon": -72.3766,
            "lat": -13.4432,
            "school_name": "50139",
            "country_name": "Peru",
            "connectivity": false
        },
        {
            "lon": -71.3291,
            "lat": -13.7447,
            "school_name": "50541",
            "country_name": "Peru",
            "connectivity": false
        },
        {
            "lon": -74.9829,
            "lat": -8.35457,
            "school_name": "518",
            "country_name": "Peru",
            "connectivity": false
        },
        {
            "lon": -73.4812,
            "lat": -13.9861,
            "school_name": "54494",
            "country_name": "Peru",
            "connectivity": false
        },
        {
            "lon": -75.8773,
            "lat": -9.60754,
            "school_name": "556",
            "country_name": "Peru",
            "connectivity": false
        },
        {
            "lon": -71.4338,
            "lat": -14.2183,
            "school_name": "56106",
            "country_name": "Peru",
            "connectivity": false
        },
        {
            "lon": -80.4332,
            "lat": -3.6281,
            "school_name": "CEBA - SAN JUAN DE LA VIRGEN",
            "country_name": "Peru",
            "connectivity": false
        },
        {
            "lon": -74.5552,
            "lat": -5.79864,
            "school_name": "60636",
            "country_name": "Peru",
            "connectivity": false
        },
        {
            "lon": -76.9375,
            "lat": -5.35073,
            "school_name": "62522",
            "country_name": "Peru",
            "connectivity": false
        },
        {
            "lon": -76.6505,
            "lat": -3.17517,
            "school_name": "62534",
            "country_name": "Peru",
            "connectivity": false
        },
        {
            "lon": -74.9954,
            "lat": -7.51183,
            "school_name": "64209",
            "country_name": "Peru",
            "connectivity": false
        },
        {
            "lon": -69.7094,
            "lat": -16.6203,
            "school_name": "70610",
            "country_name": "Peru",
            "connectivity": false
        },
        {
            "lon": -70.4562,
            "lat": -13.7339,
            "school_name": "72210",
            "country_name": "Peru",
            "connectivity": false
        },
        {
            "lon": -74.247,
            "lat": -11.2588,
            "school_name": "730",
            "country_name": "Peru",
            "connectivity": false
        },
        {
            "lon": -78.5298,
            "lat": -6.67729,
            "school_name": "732",
            "country_name": "Peru",
            "connectivity": false
        },
        {
            "lon": -73.6346,
            "lat": -12.7127,
            "school_name": "783",
            "country_name": "Peru",
            "connectivity": false
        },
        {
            "lon": -78.6255,
            "lat": -7.90274,
            "school_name": "80016 DIVINO MAESTRO",
            "country_name": "Peru",
            "connectivity": false
        },
        {
            "lon": -78.3963,
            "lat": -7.76594,
            "school_name": "80375",
            "country_name": "Peru",
            "connectivity": false
        },
        {
            "lon": -78.5761,
            "lat": -8.13129,
            "school_name": "81607",
            "country_name": "Peru",
            "connectivity": false
        },
        {
            "lon": -78.0599,
            "lat": -7.57143,
            "school_name": "82322",
            "country_name": "Peru",
            "connectivity": false
        },
        {
            "lon": -75.0854,
            "lat": -9.56225,
            "school_name": "839",
            "country_name": "Peru",
            "connectivity": false
        },
        {
            "lon": -76.999,
            "lat": -8.9652,
            "school_name": "84286",
            "country_name": "Peru",
            "connectivity": false
        },
        {
            "lon": -77.8445,
            "lat": -9.63244,
            "school_name": "86915",
            "country_name": "Peru",
            "connectivity": false
        },
        {
            "lon": -78.153,
            "lat": -8.87081,
            "school_name": "88241",
            "country_name": "Peru",
            "connectivity": false
        },
        {
            "lon": -74.8768,
            "lat": -4.70496,
            "school_name": "966",
            "country_name": "Peru",
            "connectivity": false
        },
        {
            "lon": -71.4917,
            "lat": -15.5641,
            "school_name": "ASDETURCONV COLCA",
            "country_name": "Peru",
            "connectivity": false
        },
        {
            "lon": -76.9191,
            "lat": -12.2384,
            "school_name": "CASA ABIERTA DE NAZARETH",
            "country_name": "Peru",
            "connectivity": false
        },
        {
            "lon": -76.9338,
            "lat": -11.9731,
            "school_name": "CASITA DEL SABER",
            "country_name": "Peru",
            "connectivity": false
        },
        {
            "lon": -77.0342,
            "lat": -12.0854,
            "school_name": "CEBA - METROPOLITANO",
            "country_name": "Peru",
            "connectivity": false
        },
        {
            "lon": -75.2879,
            "lat": -12.0634,
            "school_name": "CESAR VALLEJO",
            "country_name": "Peru",
            "connectivity": false
        },
        {
            "lon": -69.0952,
            "lat": -16.567,
            "school_name": "CHUSICANI",
            "country_name": "Peru",
            "connectivity": false
        },
        {
            "lon": -75.2016,
            "lat": -12.0511,
            "school_name": "EDITUM",
            "country_name": "Peru",
            "connectivity": false
        },
        {
            "lon": -80.4452,
            "lat": -3.55672,
            "school_name": "EL EDEN",
            "country_name": "Peru",
            "connectivity": false
        },
        {
            "lon": -77.0654,
            "lat": -11.9764,
            "school_name": "EL MESIAS EX-WONDERFUL SCHOOL",
            "country_name": "Peru",
            "connectivity": false
        },
        {
            "lon": -78.8049,
            "lat": -7.37063,
            "school_name": "EL QUIQUE",
            "country_name": "Peru",
            "connectivity": false
        },
        {
            "lon": -77.0692,
            "lat": -11.8523,
            "school_name": "ELSA GEMEINER VIII",
            "country_name": "Peru",
            "connectivity": false
        },
        {
            "lon": -77.0548,
            "lat": -11.9362,
            "school_name": "FRANCISCO PEREZ DE CUELLAR",
            "country_name": "Peru",
            "connectivity": false
        },
        {
            "lon": -76.1472,
            "lat": -13.3896,
            "school_name": "GEORGE WASHINGTON CARVER",
            "country_name": "Peru",
            "connectivity": false
        },
        {
            "lon": -78.5797,
            "lat": -9.06308,
            "school_name": "GERARDO NOLASCO",
            "country_name": "Peru",
            "connectivity": false
        },
        {
            "lon": -77.0591,
            "lat": -11.9851,
            "school_name": "INFANTA MARIA",
            "country_name": "Peru",
            "connectivity": false
        },
        {
            "lon": -80.823,
            "lat": -5.55585,
            "school_name": "JESUS EL BUEN SEMBRADOR",
            "country_name": "Peru",
            "connectivity": false
        },
        {
            "lon": -76.889,
            "lat": -12.0203,
            "school_name": "JESUS GUIA",
            "country_name": "Peru",
            "connectivity": false
        },
        {
            "lon": -79.9198,
            "lat": -6.8777,
            "school_name": "JOSE OLAYA BALANDRA",
            "country_name": "Peru",
            "connectivity": false
        },
        {
            "lon": -78.8219,
            "lat": -6.00577,
            "school_name": "LA BALZA",
            "country_name": "Peru",
            "connectivity": false
        },
        {
            "lon": -76.2482,
            "lat": -9.9243,
            "school_name": "LOS GORRIONCITOS",
            "country_name": "Peru",
            "connectivity": false
        },
        {
            "lon": -75.7335,
            "lat": -14.0309,
            "school_name": "SEBASTIAN BARRANCA",
            "country_name": "Peru",
            "connectivity": false
        },
        {
            "lon": -78.7724,
            "lat": -8.00841,
            "school_name": "MANITOS LABORIOSAS",
            "country_name": "Peru",
            "connectivity": false
        },
        {
            "lon": -73.8225,
            "lat": -13.0626,
            "school_name": "NUEVA JERUSALEN",
            "country_name": "Peru",
            "connectivity": false
        },
        {
            "lon": -73.6603,
            "lat": -12.763,
            "school_name": "PAMPAHUASI",
            "country_name": "Peru",
            "connectivity": false
        },
        {
            "lon": -76.9972,
            "lat": -12.0805,
            "school_name": "SACO OLIVEROS",
            "country_name": "Peru",
            "connectivity": false
        },
        {
            "lon": -77.0263,
            "lat": -12.103,
            "school_name": "SAN JOSE DE CLUNY",
            "country_name": "Peru",
            "connectivity": false
        },
        {
            "lon": -77.1666,
            "lat": -11.7766,
            "school_name": "SANTIAGO ANTUNEZ DE MAYOLO",
            "country_name": "Peru",
            "connectivity": false
        },
        {
            "lon": -70.0266,
            "lat": -15.5565,
            "school_name": "SUCHIS",
            "country_name": "Peru",
            "connectivity": false
        },
        {
            "lon": -77.0444,
            "lat": -12.0583,
            "school_name": "TECOM",
            "country_name": "Peru",
            "connectivity": false
        },
        {
            "lon": 9.4461975,
            "lat": 11.8172674,
            "school_name": "Name unknown",
            "country_name": "Nigeria",
            "connectivity": false
        },
        {
            "lon": 9.7047815,
            "lat": 12.1019535,
            "school_name": "Name unknown",
            "country_name": "Nigeria",
            "connectivity": false
        },
        {
            "lon": 7.46412757,
            "lat": 10.45367524,
            "school_name": "Name unknown",
            "country_name": "Nigeria",
            "connectivity": false
        },
        {
            "lon": 7.44284903,
            "lat": 10.45894341,
            "school_name": "Name unknown",
            "country_name": "Nigeria",
            "connectivity": false
        },
        {
            "lon": 8.090717196,
            "lat": 9.569858909,
            "school_name": "Name unknown",
            "country_name": "Nigeria",
            "connectivity": false
        },
        {
            "lon": 7.845763878,
            "lat": 10.34206351,
            "school_name": "Name unknown",
            "country_name": "Nigeria",
            "connectivity": false
        },
        {
            "lon": 7.71414134,
            "lat": 10.33299502,
            "school_name": "Name unknown",
            "country_name": "Nigeria",
            "connectivity": false
        },
        {
            "lon": 7.976768,
            "lat": 12.34232,
            "school_name": "Name unknown",
            "country_name": "Nigeria",
            "connectivity": false
        },
        {
            "lon": 8.734019,
            "lat": 11.92613,
            "school_name": "Name unknown",
            "country_name": "Nigeria",
            "connectivity": false
        },
        {
            "lon": 8.687149,
            "lat": 10.81583,
            "school_name": "Name unknown",
            "country_name": "Nigeria",
            "connectivity": false
        },
        {
            "lon": 11.972778,
            "lat": 8.549744,
            "school_name": "Name unknown",
            "country_name": "Nigeria",
            "connectivity": false
        },
        {
            "lon": 7.824339,
            "lat": 11.54338,
            "school_name": "Name unknown",
            "country_name": "Nigeria",
            "connectivity": false
        },
        {
            "lon": 8.495603,
            "lat": 11.74995,
            "school_name": "Name unknown",
            "country_name": "Nigeria",
            "connectivity": false
        },
        {
            "lon": 8.420182,
            "lat": 11.83986,
            "school_name": "Name unknown",
            "country_name": "Nigeria",
            "connectivity": false
        },
        {
            "lon": 8.45951,
            "lat": 11.90237,
            "school_name": "Name unknown",
            "country_name": "Nigeria",
            "connectivity": false
        },
        {
            "lon": 8.59916,
            "lat": 11.92581,
            "school_name": "Name unknown",
            "country_name": "Nigeria",
            "connectivity": false
        },
        {
            "lon": 11.782015,
            "lat": 9.080464,
            "school_name": "Name unknown",
            "country_name": "Nigeria",
            "connectivity": false
        },
        {
            "lon": 13.39553,
            "lat": 10.62512,
            "school_name": "Name unknown",
            "country_name": "Nigeria",
            "connectivity": false
        },
        {
            "lon": 12.017804,
            "lat": 9.893328,
            "school_name": "Name unknown",
            "country_name": "Nigeria",
            "connectivity": false
        },
        {
            "lon": 7.046941,
            "lat": 7.576137,
            "school_name": "Name unknown",
            "country_name": "Nigeria",
            "connectivity": false
        },
        {
            "lon": 4.27661,
            "lat": 8.84536,
            "school_name": "Name unknown",
            "country_name": "Nigeria",
            "connectivity": false
        },
        {
            "lon": 3.256793137,
            "lat": 6.461203421,
            "school_name": "Name unknown",
            "country_name": "Nigeria",
            "connectivity": false
        },
        {
            "lon": 2.98764,
            "lat": 6.43383,
            "school_name": "Name unknown",
            "country_name": "Nigeria",
            "connectivity": false
        },
        {
            "lon": 7.078308,
            "lat": 4.741935,
            "school_name": "Name unknown",
            "country_name": "Nigeria",
            "connectivity": false
        },
        {
            "lon": 3.34035,
            "lat": 6.63311,
            "school_name": "Name unknown",
            "country_name": "Nigeria",
            "connectivity": false
        },
        {
            "lon": 3.48106,
            "lat": 6.67698,
            "school_name": "Name unknown",
            "country_name": "Nigeria",
            "connectivity": false
        },
        {
            "lon": 3.51685,
            "lat": 6.66381,
            "school_name": "Name unknown",
            "country_name": "Nigeria",
            "connectivity": false
        },
        {
            "lon": 3.57038,
            "lat": 6.64614,
            "school_name": "Name unknown",
            "country_name": "Nigeria",
            "connectivity": false
        },
        {
            "lon": 3.18182,
            "lat": 6.48168,
            "school_name": "Name unknown",
            "country_name": "Nigeria",
            "connectivity": false
        },
        {
            "lon": 3.325944644,
            "lat": 6.55223205,
            "school_name": "Name unknown",
            "country_name": "Nigeria",
            "connectivity": false
        },
        {
            "lon": 7.154499,
            "lat": 4.859802,
            "school_name": "Name unknown",
            "country_name": "Nigeria",
            "connectivity": false
        },
        {
            "lon": 6.003148556,
            "lat": 8.872559667,
            "school_name": "Name unknown",
            "country_name": "Nigeria",
            "connectivity": false
        },
        {
            "lon": 7.176864416,
            "lat": 9.172613025,
            "school_name": "Name unknown",
            "country_name": "Nigeria",
            "connectivity": false
        },
        {
            "lon": 3.19635842,
            "lat": 7.14870503,
            "school_name": "Name unknown",
            "country_name": "Nigeria",
            "connectivity": false
        },
        {
            "lon": 3.98048191,
            "lat": 6.95921659,
            "school_name": "Name unknown",
            "country_name": "Nigeria",
            "connectivity": false
        },
        {
            "lon": 3.91458279,
            "lat": 6.84070243,
            "school_name": "Name unknown",
            "country_name": "Nigeria",
            "connectivity": false
        },
        {
            "lon": 5.113396,
            "lat": 7.112354,
            "school_name": "Name unknown",
            "country_name": "Nigeria",
            "connectivity": false
        },
        {
            "lon": 5.16324,
            "lat": 7.365463,
            "school_name": "Name unknown",
            "country_name": "Nigeria",
            "connectivity": false
        },
        {
            "lon": 4.89853,
            "lat": 7.01637,
            "school_name": "Name unknown",
            "country_name": "Nigeria",
            "connectivity": false
        },
        {
            "lon": 4.201869,
            "lat": 7.368108,
            "school_name": "Name unknown",
            "country_name": "Nigeria",
            "connectivity": false
        },
        {
            "lon": 4.528513,
            "lat": 7.758375,
            "school_name": "Name unknown",
            "country_name": "Nigeria",
            "connectivity": false
        },
        {
            "lon": 7.79384,
            "lat": 5.17557,
            "school_name": "Name unknown",
            "country_name": "Nigeria",
            "connectivity": false
        },
        {
            "lon": 7.650688333,
            "lat": 5.36974,
            "school_name": "Name unknown",
            "country_name": "Nigeria",
            "connectivity": false
        },
        {
            "lon": 3.81577,
            "lat": 7.722143,
            "school_name": "Name unknown",
            "country_name": "Nigeria",
            "connectivity": false
        },
        {
            "lon": 3.415969,
            "lat": 7.537073,
            "school_name": "Name unknown",
            "country_name": "Nigeria",
            "connectivity": false
        },
        {
            "lon": 3.174293,
            "lat": 7.673516,
            "school_name": "Name unknown",
            "country_name": "Nigeria",
            "connectivity": false
        },
        {
            "lon": 8.926995,
            "lat": 9.418167,
            "school_name": "Name unknown",
            "country_name": "Nigeria",
            "connectivity": false
        },
        {
            "lon": 8.80126,
            "lat": 9.34391,
            "school_name": "Name unknown",
            "country_name": "Nigeria",
            "connectivity": false
        },
        {
            "lon": 8.883202,
            "lat": 9.924434,
            "school_name": "Name unknown",
            "country_name": "Nigeria",
            "connectivity": false
        },
        {
            "lon": 8.85111,
            "lat": 9.72203,
            "school_name": "Name unknown",
            "country_name": "Nigeria",
            "connectivity": false
        },
        {
            "lon": 9.677796,
            "lat": 9.071289,
            "school_name": "Name unknown",
            "country_name": "Nigeria",
            "connectivity": false
        },
        {
            "lon": 9.269617,
            "lat": 9.226968,
            "school_name": "Name unknown",
            "country_name": "Nigeria",
            "connectivity": false
        },
        {
            "lon": 8.636291,
            "lat": 9.5999,
            "school_name": "Name unknown",
            "country_name": "Nigeria",
            "connectivity": false
        },
        {
            "lon": 10.7312589,
            "lat": 7.0200986,
            "school_name": "Name unknown",
            "country_name": "Nigeria",
            "connectivity": false
        },
        {
            "lon": 11.3476951,
            "lat": 9.0905234,
            "school_name": "Name unknown",
            "country_name": "Nigeria",
            "connectivity": false
        },
        {
            "lon": 9.785239427,
            "lat": 7.999706268,
            "school_name": "Name unknown",
            "country_name": "Nigeria",
            "connectivity": false
        },