{
    "name": "Patchwork Kingdom #453 | Alumoani",
    "description": "The twin kingdoms of Alumoani, separated by a digital divide. A bustling kingdom of 99 schools on top that are all connected to the internet, and 58 schools, not connected, hidden in the upside down kingdom | Created for Giga (GigaConnect.org) \u2014 connecting every school in the world \u2014 in celebration of UNICEF's 75th birthday, by Nadieh Bremer",
    "external_url": "https://dummyURL.com/patchwork_kingdoms_453",
    "image": "https://dummy-storage-url.com/patchwork_kingdoms_453.png",
    "attributes": [
        {
            "trait_type": "Color palette",
            "value": "emerald city"
        },
        {
            "display_type": "number",
            "trait_type": "Schools",
            "value": 167,
            "max_value": 460
        },
        {
            "display_type": "number",
            "trait_type": "Ratio - Connected",
            "value": 0.59,
            "max_value": 1
        },
        {
            "display_type": "number",
            "trait_type": "Ratio - Unconnected",
            "value": 0.35,
            "max_value": 1
        },
        {
            "display_type": "number",
            "trait_type": "Ratio - Data unavailable",
            "value": 0.06,
            "max_value": 1
        },
        {
            "trait_type": "Countries",
            "value": "BR-CO-CR-HN-KG-KZ-NA-PH-PS-RW-SL-ZW"
        },
        {
            "display_type": "number",
            "trait_type": "Symbols",
            "value": 43,
            "max_value": 51
        }
    ],
    "cluster_id": 453,
    "num_schools": 167,
    "num_schools_connected": 99,
    "num_schools_unconnected": 58,
    "num_schools_unknown": 10,
    "schools": [
        {
            "lon": -53.5768,
            "lat": -26.8451,
            "school_name": "EEB PROF FRANCISCO BRASINHA DIAS",
            "country_name": "Brazil",
            "connectivity": true
        },
        {
            "lon": -88.50049,
            "lat": 14.69494,
            "school_name": "INDEPENDENCIA 2000",
            "country_name": "Honduras",
            "connectivity": true
        },
        {
            "lon": -86.10197,
            "lat": 14.64058,
            "school_name": "FROYLAN TURCIOS",
            "country_name": "Honduras",
            "connectivity": true
        },
        {
            "lon": -53.6245,
            "lat": -28.626,
            "school_name": "EMEI MARIA PORTO CANTO",
            "country_name": "Brazil",
            "connectivity": true
        },
        {
            "lon": -87.86065,
            "lat": 14.58624,
            "school_name": "MUNDO INFANTIL",
            "country_name": "Honduras",
            "connectivity": true
        },
        {
            "lon": -47.8987,
            "lat": -15.8085,
            "school_name": "JI 305 SUL",
            "country_name": "Brazil",
            "connectivity": true
        },
        {
            "lon": -88.78965,
            "lat": 14.58869,
            "school_name": "TIBURCIO CARIAS ANDINO",
            "country_name": "Honduras",
            "connectivity": true
        },
        {
            "lon": -87.89024,
            "lat": 14.98632,
            "school_name": "ARNULFO CANTARERO LOPEZ",
            "country_name": "Honduras",
            "connectivity": true
        },
        {
            "lon": -87.93658,
            "lat": 15.41994,
            "school_name": "REPUBLICA DE SUECIA",
            "country_name": "Honduras",
            "connectivity": true
        },
        {
            "lon": -87.40751,
            "lat": 14.27714,
            "school_name": "INMACULADA CONCEPCION",
            "country_name": "Honduras",
            "connectivity": true
        },
        {
            "lon": -86.99496,
            "lat": 14.15117,
            "school_name": "FRANCISCO MORAZAN",
            "country_name": "Honduras",
            "connectivity": true
        },
        {
            "lon": 28.9289,
            "lat": -2.4269,
            "school_name": "COLLEGE DE NKANKA",
            "country_name": "Rwanda",
            "connectivity": true
        },
        {
            "lon": -83.297674,
            "lat": 9.27446858,
            "school_name": "EL CARMEN",
            "country_name": "Costa Rica",
            "connectivity": true
        },
        {
            "lon": -84.45105855,
            "lat": 10.03443187,
            "school_name": "PABLO ALVARADO VARGAS",
            "country_name": "Costa Rica",
            "connectivity": true
        },
        {
            "lon": -84.43155312,
            "lat": 10.34695484,
            "school_name": "EL CARMEN",
            "country_name": "Costa Rica",
            "connectivity": true
        },
        {
            "lon": -84.43176375,
            "lat": 10.33805805,
            "school_name": "JUAN BAUTISTA SOLIS RODRIGUEZ",
            "country_name": "Costa Rica",
            "connectivity": true
        },
        {
            "lon": -83.76360684,
            "lat": 9.8927597,
            "school_name": "MANUEL JIMENEZ DE LA GUARDIA",
            "country_name": "Costa Rica",
            "connectivity": true
        },
        {
            "lon": -84.94623551,
            "lat": 10.2615678,
            "school_name": "SAN JUAN GRANDE",
            "country_name": "Costa Rica",
            "connectivity": true
        },
        {
            "lon": 35.140247,
            "lat": 31.908866,
            "school_name": "eenareek basic mixn first",
            "country_name": "Palestine",
            "connectivity": true
        },
        {
            "lon": 35.08097,
            "lat": 31.506025,
            "school_name": "Rowad alma'refeh",
            "country_name": "Palestine",
            "connectivity": true
        },
        {
            "lon": 31.24278,
            "lat": -18.55061,
            "school_name": "MATSIGA CLAWSHAM",
            "country_name": "Zimbabwe",
            "connectivity": true
        },
        {
            "lon": 31.79776,
            "lat": -20.23148,
            "school_name": "CHIPENDEKE",
            "country_name": "Zimbabwe",
            "connectivity": true
        },
        {
            "lon": 28.97924,
            "lat": -19.13973,
            "school_name": "GWITSHI",
            "country_name": "Zimbabwe",
            "connectivity": true
        },
        {
            "lon": -48.8903,
            "lat": -27.0749,
            "school_name": "EEB SANTA TEREZINHA",
            "country_name": "Brazil",
            "connectivity": true
        },
        {
            "lon": -76.682778,
            "lat": 0.644167,
            "school_name": "ESC RUR MIX EL TRIUNFO",
            "country_name": "Colombia",
            "connectivity": true
        },
        {
            "lon": 121.656162,
            "lat": 16.447575,
            "school_name": "San Ramon ES",
            "country_name": "Philippines",
            "connectivity": true
        },
        {
            "lon": 119.9133407,
            "lat": 15.41578183,
            "school_name": "Alwa ES",
            "country_name": "Philippines",
            "connectivity": true
        },
        {
            "lon": 124.4214026,
            "lat": 11.09677329,
            "school_name": "Caduhaan ES",
            "country_name": "Philippines",
            "connectivity": true
        },
        {
            "lon": 125.9688883,
            "lat": 8.478619408,
            "school_name": "San Isidro ES",
            "country_name": "Philippines",
            "connectivity": true
        },
        {
            "lon": 125.529228,
            "lat": 9.545779,
            "school_name": "San Jose ES",
            "country_name": "Philippines",
            "connectivity": true
        },
        {
            "lon": -88.01471,
            "lat": 14.34395,
            "school_name": "SONRISAS INFANTILES",
            "country_name": "Honduras",
            "connectivity": true
        },
        {
            "lon": -72.32452852,
            "lat": 11.48430637,
            "school_name": "SEDE WOSTOLEN",
            "country_name": "Colombia",
            "connectivity": true
        },
        {
            "lon": -72.886667,
            "lat": 5.708889,
            "school_name": "INSTITUCI\u00d3N EDUCATIVA NUESTRA SE\u00d1ORA DE MORCA",
            "country_name": "Colombia",
            "connectivity": true
        },
        {
            "lon": -73.428598,
            "lat": 4.061741,
            "school_name": "ESCUELA NUEVA SANTA HELENA",
            "country_name": "Colombia",
            "connectivity": true
        },
        {
            "lon": -73.65689169,
            "lat": 6.064052409,
            "school_name": "CENTRO EDUCATIVO  EL PAPAYO",
            "country_name": "Colombia",
            "connectivity": true
        },
        {
            "lon": -75.27709975,
            "lat": 2.929314228,
            "school_name": "LUIS CALIXTO LEIVA",
            "country_name": "Colombia",
            "connectivity": true
        },
        {
            "lon": -76.1698,
            "lat": 4.719475,
            "school_name": "PABLO GERARDO PEREZ",
            "country_name": "Colombia",
            "connectivity": true
        },
        {
            "lon": -76.175316,
            "lat": 8.583311,
            "school_name": "ESC NVO CEIBAL",
            "country_name": "Colombia",
            "connectivity": true
        },
        {
            "lon": -76.342778,
            "lat": 1.880556,
            "school_name": "EL QUEBRADON",
            "country_name": "Colombia",
            "connectivity": true
        },
        {
            "lon": -76.41680006,
            "lat": 3.620327829,
            "school_name": "JOSE ASUNCION SILVA",
            "country_name": "Colombia",
            "connectivity": true
        },
        {
            "lon": -76.37014727,
            "lat": 4.176068309,
            "school_name": "ANTONIO JOSE DE SUCRE",
            "country_name": "Colombia",
            "connectivity": true
        },
        {
            "lon": -76.89,
            "lat": 1.91,
            "school_name": "TARABITA (sede principal)",
            "country_name": "Colombia",
            "connectivity": true
        },
        {
            "lon": -63.9091,
            "lat": -8.7275,
            "school_name": "EEEFM DR OSWALDO PIANNA",
            "country_name": "Brazil",
            "connectivity": true
        },
        {
            "lon": -50.4796,
            "lat": -1.6918,
            "school_name": "E M E F PROFESSOR ESTEVAO GOMES",
            "country_name": "Brazil",
            "connectivity": true
        },
        {
            "lon": -46.7482,
            "lat": -0.9668,
            "school_name": "E M E I F PROF YOLANDA PEREIRA DA SILVA",
            "country_name": "Brazil",
            "connectivity": true
        },
        {
            "lon": -49.2567,
            "lat": -6.3604,
            "school_name": "E M E F JORGE AMADO",
            "country_name": "Brazil",
            "connectivity": false
        },
        {
            "lon": -51.067,
            "lat": -6.7564,
            "school_name": "E M E F MADRE TERESA DE JESUS",
            "country_name": "Brazil",
            "connectivity": true
        },
        {
            "lon": -56.0417,
            "lat": -1.9781,
            "school_name": "E M E I F SAO SEBASTIAO",
            "country_name": "Brazil",
            "connectivity": false
        },
        {
            "lon": -50.7533,
            "lat": -1.0664,
            "school_name": "E M E F LINDA ROSA JACARE GRANDE",
            "country_name": "Brazil",
            "connectivity": false
        },
        {
            "lon": -48.326,
            "lat": -7.7486,
            "school_name": "ESCOLA MUNICIPAL VEREADOR ADRIANO MARTINS BRILHANTE",
            "country_name": "Brazil",
            "connectivity": false
        },
        {
            "lon": -44.7998,
            "lat": -3.3779,
            "school_name": "EM DE CURRAL DA IGREJA",
            "country_name": "Brazil",
            "connectivity": false
        },
        {
            "lon": -45.112,
            "lat": -3.1141,
            "school_name": "EM PASCOAL POSSIDONIO GOMES",
            "country_name": "Brazil",
            "connectivity": true
        },
        {
            "lon": -45.7416,
            "lat": -1.46,
            "school_name": "EM ABELINA LAGES PINHEIRO",
            "country_name": "Brazil",
            "connectivity": false
        },
        {
            "lon": -41.9002,
            "lat": -2.8864,
            "school_name": "UNIDADE ESCOLAR SAO MANOEL",
            "country_name": "Brazil",
            "connectivity": true
        },
        {
            "lon": -46.0082,
            "lat": -4.863,
            "school_name": "PRE ESCOLA PAROQUIAL SANTA GIANNA BERETTA",
            "country_name": "Brazil",
            "connectivity": false
        },
        {
            "lon": -43.9056,
            "lat": -3.8751,
            "school_name": "EMEF1 ZUCA DA SILVA",
            "country_name": "Brazil",
            "connectivity": false
        },
        {
            "lon": -42.2626,
            "lat": -3.4226,
            "school_name": "CENTRO DE ENSINO PREFEITO DIONILIO GONCALVES COSTA - ANEXO I - MELANCIAS",
            "country_name": "Brazil",
            "connectivity": false
        },
        {
            "lon": -41.6788,
            "lat": -5.0371,
            "school_name": "ESCOLA MUNICIPAL JOSE ALVES DE QUADRO",
            "country_name": "Brazil",
            "connectivity": false
        },
        {
            "lon": -42.287,
            "lat": -6.7952,
            "school_name": "UNIDADE ESCOLAR JUAREZ TAPETY",
            "country_name": "Brazil",
            "connectivity": true
        },
        {
            "lon": -42.7393,
            "lat": -5.0981,
            "school_name": "ESCOLA MUNICIPAL MACHADO DE ASSIS",
            "country_name": "Brazil",
            "connectivity": true
        },
        {
            "lon": -39.3229,
            "lat": -4.3557,
            "school_name": "MELVIN JONES ESC MUL",
            "country_name": "Brazil",
            "connectivity": true
        },
        {
            "lon": -39.7802,
            "lat": -5.8891,
            "school_name": "PEDRO AIRES DE CARVALHO EEF",
            "country_name": "Brazil",
            "connectivity": true
        },
        {
            "lon": -38.4954,
            "lat": -6.0529,
            "school_name": "JOSE MATIAS DE SOUSA EEIF",
            "country_name": "Brazil",
            "connectivity": true
        },
        {
            "lon": -39.3061,
            "lat": -7.2448,
            "school_name": "IFCE - CAMPUS JUAZEIRO DO NORTE",
            "country_name": "Brazil",
            "connectivity": true
        },
        {
            "lon": -35.695,
            "lat": -5.8788,
            "school_name": "EM MARGARIDA ADELIA DE LUNA",
            "country_name": "Brazil",
            "connectivity": false
        },
        {
            "lon": -35.2145,
            "lat": -6.2753,
            "school_name": "EM PROFESSORA TEREZA FAGUNDES DE LIMA",
            "country_name": "Brazil",
            "connectivity": true
        },
        {
            "lon": -35.2842,
            "lat": -5.9278,
            "school_name": "EM DESEMBARGADOR SILVINO BEZERRA NETO",
            "country_name": "Brazil",
            "connectivity": true
        },
        {
            "lon": -48.8847,
            "lat": -10.1935,
            "school_name": "ESCOLA MUNICIPAL JOSE RIBEIRO TORRES",
            "country_name": "Brazil",
            "connectivity": true
        },
        {
            "lon": -35.6378,
            "lat": -6.82,
            "school_name": "CRECHE CASULO MENINO JESUS DE PRAGA",
            "country_name": "Brazil",
            "connectivity": true
        },
        {
            "lon": -35.5015,
            "lat": -6.8931,
            "school_name": "GR ESC MUL GERALDO LEITE MORAIS",
            "country_name": "Brazil",
            "connectivity": false
        },
        {
            "lon": -40.4064,
            "lat": -8.3064,
            "school_name": "GRUPO ESCOLAR FAZENDA PIRANHA",
            "country_name": "Brazil",
            "connectivity": true
        },
        {
            "lon": -36.4867,
            "lat": -8.9738,
            "school_name": "GRUPO ESCOLAR BERNARDINO TORRES GALINDO",
            "country_name": "Brazil",
            "connectivity": false
        },
        {
            "lon": -36.4257,
            "lat": -9.0732,
            "school_name": "ESCOLA MUNICIPAL VICENTE NUNES DE FARIAS",
            "country_name": "Brazil",
            "connectivity": false
        },
        {
            "lon": -36.0299,
            "lat": -8.4076,
            "school_name": "ESCOLA MUNICIPAL JOSE ALVES DA SILVA",
            "country_name": "Brazil",
            "connectivity": false
        },
        {
            "lon": -51.9747,
            "lat": -6.6426,
            "school_name": "U M E I RAIMUNDO PINTO DE MESQUITA",
            "country_name": "Brazil",
            "connectivity": true
        },
        {
            "lon": -35.1853,
            "lat": -8.1099,
            "school_name": "ESCOLA MUL WILSON BERNADINO DE ARRUDA",
            "country_name": "Brazil",
            "connectivity": true
        },
        {
            "lon": -37.6854,
            "lat": -10.3703,
            "school_name": "ESCOLA MUNICIPAL RUI BARBOSA",
            "country_name": "Brazil",
            "connectivity": true
        },
        {
            "lon": -37.1919,
            "lat": -10.4551,
            "school_name": "CENTRO ESTADUAL DE EDUCACAO PROFISSIONAL BERILA ALVES DE ALMEIDA",
            "country_name": "Brazil",
            "connectivity": true
        },
        {
            "lon": -38.5244,
            "lat": -12.0441,
            "school_name": "ESC JOAO ALVES DA ROCHA",
            "country_name": "Brazil",
            "connectivity": true
        },
        {
            "lon": -39.2368,
            "lat": -14.5387,
            "school_name": "ESCOLA TIRADENTES",
            "country_name": "Brazil",
            "connectivity": false
        },
        {
            "lon": -44.0462,
            "lat": -19.9842,
            "school_name": "ESCOLA MUNICIPAL ANTONIO SALLES BARBOSA",
            "country_name": "Brazil",
            "connectivity": true
        },
        {
            "lon": -42.9998,
            "lat": -16.1992,
            "school_name": "EM SANTOS PANTA",
            "country_name": "Brazil",
            "connectivity": false
        },
        {
            "lon": -52.4186,
            "lat": -24.0566,
            "school_name": "MILTON L PEREIRA C M E I DR",
            "country_name": "Brazil",
            "connectivity": true
        },
        {
            "lon": -42.0258,
            "lat": -15.3151,
            "school_name": "EE DIVANE ROCHA DE SA",
            "country_name": "Brazil",
            "connectivity": true
        },
        {
            "lon": -40.4044,
            "lat": -18.6902,
            "school_name": "CMEITI IDALINA MARIA MACHADO FIEL",
            "country_name": "Brazil",
            "connectivity": true
        },
        {
            "lon": -41.54,
            "lat": -21.7112,
            "school_name": "EM FAZENDA CHALITA",
            "country_name": "Brazil",
            "connectivity": true
        },
        {
            "lon": -42.6766,
            "lat": -22.0593,
            "school_name": "CIEP 283 MARIA AMELIA PACHECO",
            "country_name": "Brazil",
            "connectivity": true
        },
        {
            "lon": -43.3589,
            "lat": -22.8498,
            "school_name": "CE VIRIATO CORREA",
            "country_name": "Brazil",
            "connectivity": true
        },
        {
            "lon": -43.4671,
            "lat": -22.7206,
            "school_name": "ESCOLA MUNICIPAL DE EDUCACAO INFANTIL JOSE VIEIRA DE JESUS",
            "country_name": "Brazil",
            "connectivity": true
        },
        {
            "lon": -40.477,
            "lat": -9.3595,
            "school_name": "ESCOLA MUNICIPAL PROFESSORA LAURITA COELHO LEDA FERREIRA",
            "country_name": "Brazil",
            "connectivity": true
        },
        {
            "lon": -47.0584,
            "lat": -23.7499,
            "school_name": "ESCOLA MUNICIPAL JOAO BATISTA DIAS",
            "country_name": "Brazil",
            "connectivity": false
        },
        {
            "lon": -46.6739,
            "lat": -23.471,
            "school_name": "EMEF SEBASTIAO NOGUEIRA DE LIMA DES",
            "country_name": "Brazil",
            "connectivity": true
        },
        {
            "lon": -39.461,
            "lat": -11.4222,
            "school_name": "ESCOLA MUNICIPAL AURELINA LOPES DE OLIVEIRA",
            "country_name": "Brazil",
            "connectivity": true
        },
        {
            "lon": -48.4999,
            "lat": -21.2593,
            "school_name": "MARIO VENERI MAESTRO CONSERVATORIO MUSICAL MUNICIPAL",
            "country_name": "Brazil",
            "connectivity": false
        },
        {
            "lon": -47.4255,
            "lat": -20.4898,
            "school_name": "MARIA BRIZABELA BRUXELLAS ZINADER PROFA EMEB",
            "country_name": "Brazil",
            "connectivity": true
        },
        {
            "lon": -46.6838,
            "lat": -23.3368,
            "school_name": "PENITENCIARIA III DE FRANCO DA ROCHA",
            "country_name": "Brazil",
            "connectivity": false
        },
        {
            "lon": -50.0978,
            "lat": -26.4492,
            "school_name": "ER FRANCISCO HAAS",
            "country_name": "Brazil",
            "connectivity": false
        },
        {
            "lon": -48.8314,
            "lat": -26.2376,
            "school_name": "EEB SENADOR RODRIGO LOBO",
            "country_name": "Brazil",
            "connectivity": true
        },
        {
            "lon": -52.1421,
            "lat": -28.1283,
            "school_name": "EMEI MARGARIDA FIORI TOGNON",
            "country_name": "Brazil",
            "connectivity": true
        },
        {
            "lon": -49.2817,
            "lat": -25.4772,
            "school_name": "ATTICO EUSEBIO DA ROCHA C E D EF M",
            "country_name": "Brazil",
            "connectivity": true
        },
        {
            "lon": -55.8023,
            "lat": -15.5927,
            "school_name": "CMEI EDGAR SANTANA DE AMORIM",
            "country_name": "Brazil",
            "connectivity": false
        },
        {
            "lon": -52.9162,
            "lat": -17.0099,
            "school_name": "ESCOLA MUNICIPAL RURAL CAINDAO",
            "country_name": "Brazil",
            "connectivity": true
        },
        {
            "lon": -54.7238,
            "lat": -2.4512,
            "school_name": "E M E I E F HELENA LISBOA DE MATOS",
            "country_name": "Brazil",
            "connectivity": true
        },
        {
            "lon": -48.3744,
            "lat": -1.3823,
            "school_name": "EMEF ANDRE AVELINO PIEDADE",
            "country_name": "Brazil",
            "connectivity": true
        },
        {
            "lon": -48.0712,
            "lat": -15.8771,
            "school_name": "CEF 405 DO RECANTO DAS EMAS",
            "country_name": "Brazil",
            "connectivity": true
        },
        {
            "lon": -48.3342,
            "lat": -18.9296,
            "school_name": "ESCOLA MUNICIPAL PROFESSORA CECY CARDOSO PORFIRIO",
            "country_name": "Brazil",
            "connectivity": true
        },
        {
            "lon": -35.6335,
            "lat": -6.7918,
            "school_name": "ESC MUL RAFAEL DA COSTA MARANHAO",
            "country_name": "Brazil",
            "connectivity": true
        },
        {
            "lon": -34.8598,
            "lat": -7.1214,
            "school_name": "EEEF PROFESSORA ANTONIA RANGEL DE FARIAS",
            "country_name": "Brazil",
            "connectivity": true
        }
    ],
    "num_countries": 12,
    "countries": [
        "Brazil",
        "Colombia",
        "Costa Rica",
        "Honduras",
        "Kazakhstan",
        "Kyrgyzstan",
        "Namibia",
        "Palestine",
        "Philippines",
        "Rwanda",
        "Sierra Leone",
        "Zimbabwe"
    ],
    "schools_no_data": [
        {
            "lon": 22.3972063,
            "lat": -26.0252972,
            "school_name": "Tsabong (RPC)",
            "country_name": "Botswana",
            "connectivity": false
        },
        {
            "lon": -9.441492,
            "lat": 8.01418,
            "school_name": "Kpassagizia Public",
            "country_name": "Liberia",
            "connectivity": false
        },
        {
            "lon": -10.334408,
            "lat": 6.280329,
            "school_name": "Laying Kids Foundation",
            "country_name": "Liberia",
            "connectivity": false
        },
        {
            "lon": -7.640894,
            "lat": 4.916753,
            "school_name": "Suwroken",
            "country_name": "Liberia",
            "connectivity": false
        },
        {
            "lon": 28.85269628,
            "lat": -2.53676994,
            "school_name": "EP KASHONGOLERE",
            "country_name": "Democratic Republic of the Congo",
            "connectivity": false
        },
        {
            "lon": -1.8586029,
            "lat": 10.9554534,
            "school_name": "Name unknown",
            "country_name": "Ghana",
            "connectivity": false
        },
        {
            "lon": 33.1945315,
            "lat": 19.54290282,
            "school_name": "Name unknown",
            "country_name": "Sudan",
            "connectivity": false
        },
        {
            "lon": 33.30601335,
            "lat": 16.65418325,
            "school_name": "Name unknown",
            "country_name": "Sudan",
            "connectivity": false
        },
        {
            "lon": 22.36979485,
            "lat": 43.10254959,
            "school_name": "\u0414\u0435\u0441\u043f\u043e\u0442 \u0421\u0442\u0435\u0444\u0430\u043d \u041b\u0430\u0437\u0430\u0440\u0435\u0432\u0438\u045b",
            "country_name": "Serbia",
            "connectivity": false
        },
        {
            "lon": -0.1746306,
            "lat": 5.6614682,
            "school_name": "Name unknown",
            "country_name": "Ghana",
            "connectivity": false
        },
        {
            "lon": -1.5494843,
            "lat": 5.605603,
            "school_name": "Name unknown",
            "country_name": "Ghana",
            "connectivity": false
        },
        {
            "lon": -0.7821883,
            "lat": 9.4779729,
            "school_name": "Name unknown",
            "country_name": "Ghana",
            "connectivity": false
        },
        {
            "lon": -0.1963632,
            "lat": 5.587219,
            "school_name": "Name unknown",
            "country_name": "Ghana",
            "connectivity": false
        },
        {
            "lon": -0.0110813,
            "lat": 6.1321115,
            "school_name": "Name unknown",
            "country_name": "Ghana",
            "connectivity": false
        },
        {
            "lon": -1.4660177,
            "lat": 6.7180435,
            "school_name": "Name unknown",
            "country_name": "Ghana",
            "connectivity": false
        },
        {
            "lon": -1.4440718,
            "lat": 6.6840377,
            "school_name": "Name unknown",
            "country_name": "Ghana",
            "connectivity": false
        },
        {
            "lon": 38.31654,
            "lat": -6.40161,
            "school_name": "KINZAGU",
            "country_name": "United Republic of Tanzania",
            "connectivity": false
        },
        {
            "lon": 35.72557,
            "lat": -8.24922,
            "school_name": "MITANZI",
            "country_name": "United Republic of Tanzania",
            "connectivity": false
        },
        {
            "lon": 32.81215,
            "lat": -5.01888,
            "school_name": "TABORA VIZIWI",
            "country_name": "United Republic of Tanzania",
            "connectivity": false
        },
        {
            "lon": 38.5875,
            "lat": -6.9805,
            "school_name": "MAFIZI",
            "country_name": "United Republic of Tanzania",
            "connectivity": false
        },
        {
            "lon": 33.1854,
            "lat": -4.2171,
            "school_name": "ISHIKI",
            "country_name": "United Republic of Tanzania",
            "connectivity": false
        },
        {
            "lon": 32.04302,
            "lat": -5.16297,
            "school_name": "MAGEREZA",
            "country_name": "United Republic of Tanzania",
            "connectivity": false
        },
        {
            "lon": 39.10353,
            "lat": -6.54538,
            "school_name": "BARTIVALLEY",
            "country_name": "United Republic of Tanzania",
            "connectivity": false
        },
        {
            "lon": 34.80033,
            "lat": -4.82873,
            "school_name": "SOMOKU",
            "country_name": "United Republic of Tanzania",
            "connectivity": false
        },
        {
            "lon": 39.08186,
            "lat": -6.62813,
            "school_name": "TUNAWAPENDA WATOTO",
            "country_name": "United Republic of Tanzania",
            "connectivity": false
        },
        {
            "lon": -1.8639287,
            "lat": 7.5957085,
            "school_name": "Name unknown",
            "country_name": "Ghana",
            "connectivity": false
        },
        {
            "lon": 0.0540975,
            "lat": 8.8613346,
            "school_name": "Name unknown",
            "country_name": "Ghana",
            "connectivity": false
        },
        {
            "lon": 36.868063,
            "lat": -1.258267,
            "school_name": "Urban View Educational Centre",
            "country_name": "Kenya",
            "connectivity": false
        },
        {
            "lon": 19.45901871,
            "lat": 45.46837772,
            "school_name": "15. \u043e\u043a\u0442\u043e\u0431\u0430\u0440",
            "country_name": "Serbia",
            "connectivity": false
        },
        {
            "lon": 39.63598,
            "lat": -10.75078,
            "school_name": "MATOGORO",
            "country_name": "United Republic of Tanzania",
            "connectivity": false
        },
        {
            "lon": 1.17548,
            "lat": 6.18758,
            "school_name": "EPL LE SAUVEUR",
            "country_name": "Togo",
            "connectivity": false
        },
        {
            "lon": 0.913177,
            "lat": 6.459696,
            "school_name": "EPP ASSAHOUN G/F",
            "country_name": "Togo",
            "connectivity": false
        },
        {
            "lon": 1.609842,
            "lat": 6.250473,
            "school_name": "EPP ZEBEVI G/A",
            "country_name": "Togo",
            "connectivity": false
        },
        {
            "lon": 1.556167,
            "lat": 6.47438,
            "school_name": "EPP MOME HOUNKPATI G/A",
            "country_name": "Togo",
            "connectivity": false
        },
        {
            "lon": 0.998491,
            "lat": 7.353074,
            "school_name": "EPP ENAGBEDZE",
            "country_name": "Togo",
            "connectivity": false
        },
        {
            "lon": 1.24808,
            "lat": 9.350046,
            "school_name": "EPP AGOUDADE G/B",
            "country_name": "Togo",
            "connectivity": false
        },
        {
            "lon": 0.775847,
            "lat": 9.603645,
            "school_name": "EPP KOUTCHITCHEOU",
            "country_name": "Togo",
            "connectivity": false
        },
        {
            "lon": 1.20845,
            "lat": 9.507536667,
            "school_name": "EPL CENTRE DES AVEUGLES KARA (CASPA K)",
            "country_name": "Togo",
            "connectivity": false
        },
        {
            "lon": 1.20535,
            "lat": 6.187195,
            "school_name": "CPL COURS LUMIERE",
            "country_name": "Togo",
            "connectivity": false
        },
        {
            "lon": 6.459411,
            "lat": 6.092911,
            "school_name": "Name unknown",
            "country_name": "Nigeria",
            "connectivity": false
        },
        {
            "lon": 31.69734,
            "lat": -8.89709,
            "school_name": "MPANGA",
            "country_name": "United Republic of Tanzania",
            "connectivity": false
        },
        {
            "lon": 0.16943,
            "lat": 11.066001,
            "school_name": "CEG SAM-NABA",
            "country_name": "Togo",
            "connectivity": false
        },
        {
            "lon": 35.03002865,
            "lat": -15.80933431,
            "school_name": "Njamba Sec",
            "country_name": "Malawi",
            "connectivity": false
        },
        {
            "lon": 34.50592806,
            "lat": -15.58387956,
            "school_name": "Mwanza",
            "country_name": "Malawi",
            "connectivity": false
        },
        {
            "lon": 35.111462,
            "lat": -16.57399426,
            "school_name": "Bangula",
            "country_name": "Malawi",
            "connectivity": false
        },
        {
            "lon": 33.52214534,
            "lat": -9.769444646,
            "school_name": "Kalenge CDSS",
            "country_name": "Malawi",
            "connectivity": false
        },
        {
            "lon": 24.48705682,
            "lat": 0.767154398,
            "school_name": "EP LUSAMBILA",
            "country_name": "Democratic Republic of the Congo",
            "connectivity": false
        },
        {
            "lon": 26.89646597,
            "lat": -8.34153149,
            "school_name": "EP KITOKEZI",
            "country_name": "Democratic Republic of the Congo",
            "connectivity": false
        },
        {
            "lon": 29.1925,
            "lat": -5.931111111,
            "school_name": "EP MAENDELEO 2",
            "country_name": "Democratic Republic of the Congo",
            "connectivity": false
        },
        {
            "lon": 21.66085157,
            "lat": -3.931093446,
            "school_name": "INST BAMPRO",
            "country_name": "Democratic Republic of the Congo",
            "connectivity": false
        },
        {
            "lon": 22.06494643,
            "lat": -5.988445811,
            "school_name": "EP KATOTA",
            "country_name": "Democratic Republic of the Congo",
            "connectivity": false
        },
        {
            "lon": 22.76666474,
            "lat": -6.242277996,
            "school_name": "EP ILUNGA",
            "country_name": "Democratic Republic of the Congo",
            "connectivity": false
        },
        {
            "lon": 28.61495484,
            "lat": -9.675705878,
            "school_name": "INSTITUT  MONSEIGNEUR  FULGENCE",
            "country_name": "Democratic Republic of the Congo",
            "connectivity": false
        },
        {
            "lon": 28.88172212,
            "lat": -4.042028044,
            "school_name": "INST KARAMBA",
            "country_name": "Democratic Republic of the Congo",
            "connectivity": false
        },
        {
            "lon": 22.34206105,
            "lat": 4.056872146,
            "school_name": "EP KPAKPA",
            "country_name": "Democratic Republic of the Congo",
            "connectivity": false
        },
        {
            "lon": 14.7186206,
            "lat": -5.608802775,
            "school_name": "INST NGOMA NLEMVO",
            "country_name": "Democratic Republic of the Congo",
            "connectivity": false
        },
        {
            "lon": 13.46570974,
            "lat": -5.82995453,
            "school_name": "INST  RELAX  2",
            "country_name": "Democratic Republic of the Congo",
            "connectivity": false
        },
        {
            "lon": -11.471483,
            "lat": 18.333383,
            "school_name": "BERELA",
            "country_name": "Mauritania",
            "connectivity": false
        },
        {
            "lon": 34.07379,
            "lat": 1.68815,
            "school_name": "KAMENU P/SCHOOL",
            "country_name": "Uganda",
            "connectivity": false
        },
        {
            "lon": 33.79552,
            "lat": 1.44023,
            "school_name": "Nyamongo P.S.",
            "country_name": "Uganda",
            "connectivity": false
        },
        {
            "lon": 31.7073,
            "lat": 1.17594,
            "school_name": "St. Kizito P.S. Kyankwanzi",
            "country_name": "Uganda",
            "connectivity": false
        },
        {
            "lon": 29.9863,
            "lat": -0.80726,
            "school_name": "Kyamutareiga P.S.",
            "country_name": "Uganda",
            "connectivity": false
        },
        {
            "lon": 33.95972,
            "lat": 1.3752,
            "school_name": "Ajuket P.S.",
            "country_name": "Uganda",
            "connectivity": false
        },
        {
            "lon": 30.469,
            "lat": -0.10144,
            "school_name": "Rugazi P.S.",
            "country_name": "Uganda",
            "connectivity": false
        },
        {
            "lon": 34.64533,
            "lat": 2.57284,
            "school_name": "Rupa P.S.",
            "country_name": "Uganda",
            "connectivity": false
        },
        {
            "lon": -58.95506208,
            "lat": -27.47624358,
            "school_name": "JARDIN DE INFANTES N\u00ba 46-BALDOMERO FERNANDEZ MORENO",
            "country_name": "Argentina",
            "connectivity": false
        },
        {
            "lon": 26.76777,
            "lat": -26.84713,
            "school_name": "Laerskool Driefonteine",
            "country_name": "South Africa",
            "connectivity": false
        },
        {
            "lon": 23.34974,
            "lat": -26.79526,
            "school_name": "Sesheng Primary School",
            "country_name": "South Africa",
            "connectivity": false
        },
        {
            "lon": 18.47618,
            "lat": -34.00854,
            "school_name": "Ottery Road Methodist Primary School",
            "country_name": "South Africa",
            "connectivity": false
        },
        {
            "lon": 18.49953,
            "lat": -33.57654,
            "school_name": "Kerria Primary School",
            "country_name": "South Africa",
            "connectivity": false
        },
        {
            "lon": 27.35938,
            "lat": -31.47392,
            "school_name": "Siyakhula Primary School - Mzamomhle",
            "country_name": "South Africa",
            "connectivity": false
        },
        {
            "lon": 29.9267,
            "lat": -24.8708,
            "school_name": "Shorwane Secondary",
            "country_name": "South Africa",
            "connectivity": false
        },
        {
            "lon": 18.5343,
            "lat": -33.87059,
            "school_name": "Master Maths",
            "country_name": "South Africa",
            "connectivity": false
        },
        {
            "lon": 19.4579,
            "lat": -33.64229,
            "school_name": "Life Style Christian Academy",
            "country_name": "South Africa",
            "connectivity": false
        },
        {
            "lon": 29.46171,
            "lat": -23.91022,
            "school_name": "Play Park",
            "country_name": "South Africa",
            "connectivity": false
        },
        {
            "lon": 29.10363,
            "lat": -23.78795,
            "school_name": "Jonas Lesetja Ledwaba Primary School",
            "country_name": "South Africa",
            "connectivity": false
        },
        {
            "lon": 30.4444,
            "lat": -28.19718,
            "school_name": "Noordenveld Commercial High School",
            "country_name": "South Africa",
            "connectivity": false
        },
        {
            "lon": 29.64683,
            "lat": -29.23807,
            "school_name": "Zamukwazi Primary School",
            "country_name": "South Africa",
            "connectivity": false
        },
        {
            "lon": 30.88917,
            "lat": -23.49468,
            "school_name": "Maphusha High",
            "country_name": "South Africa",
            "connectivity": false
        },
        {
            "lon": 30.78798,
            "lat": -30.0253,
            "school_name": "Enkanyisweni Primary School",
            "country_name": "South Africa",
            "connectivity": false
        },
        {
            "lon": 28.71011,
            "lat": -23.07198,
            "school_name": "Seikgoni Secondary",
            "country_name": "South Africa",
            "connectivity": false
        },
        {
            "lon": 30.48427,
            "lat": -23.02667,
            "school_name": "Tswinga Primary",
            "country_name": "South Africa",
            "connectivity": false
        },
        {
            "lon": 30.52432,
            "lat": -23.13749,
            "school_name": "Machele Primary",
            "country_name": "South Africa",
            "connectivity": false
        },
        {
            "lon": 30.28411,
            "lat": -23.93452,
            "school_name": "Nwahungana Secondary School",
            "country_name": "South Africa",
            "connectivity": false
        },
        {
            "lon": 30.32831,
            "lat": -23.19328,
            "school_name": "Shandukani Primary School",
            "country_name": "South Africa",
            "connectivity": false
        },
        {
            "lon": 31.89999,
            "lat": -28.62321,
            "school_name": "Cebekhulu Primary School",
            "country_name": "South Africa",
            "connectivity": false
        },
        {
            "lon": 31.96504,
            "lat": -27.96398,
            "school_name": "Emfanela Primary School",
            "country_name": "South Africa",
            "connectivity": false
        },
        {
            "lon": 32.77154,
            "lat": -26.96702,
            "school_name": "Mseshi Primary School",
            "country_name": "South Africa",
            "connectivity": false
        },
        {
            "lon": 30.91197,
            "lat": -29.88218,
            "school_name": "Parkside Kids Academy",
            "country_name": "South Africa",
            "connectivity": false
        },
        {
            "lon": 31.50971,
            "lat": -27.73702,
            "school_name": "Evane Commercial High School",
            "country_name": "South Africa",
            "connectivity": false
        },
        {
            "lon": 31.84449,
            "lat": -27.7021,
            "school_name": "Ugedla Junior Primary School",
            "country_name": "South Africa",
            "connectivity": false
        },
        {
            "lon": 30.90381,
            "lat": -28.32871,
            "school_name": "Ekuthuthukeni Secondary School",
            "country_name": "South Africa",
            "connectivity": false
        },
        {
            "lon": 28.12724,
            "lat": -26.19981,
            "school_name": "Wychwood Primary School",
            "country_name": "South Africa",
            "connectivity": false
        },
        {
            "lon": 28.61633,
            "lat": -25.75617,
            "school_name": "Diamond-x Ranch - Cow Boy School",
            "country_name": "South Africa",
            "connectivity": false
        },
        {
            "lon": 28.30929,
            "lat": -26.03857,
            "school_name": "Saffola Primary School",
            "country_name": "South Africa",
            "connectivity": false
        },
        {
            "lon": 27.99732,
            "lat": -26.19371,
            "school_name": "Sekanontoane Secondary School",
            "country_name": "South Africa",
            "connectivity": false
        },
        {
            "lon": 28.13266,
            "lat": -25.98007,
            "school_name": "Nantes Primary School",
            "country_name": "South Africa",
            "connectivity": false
        },
        {
            "lon": 28.05667,
            "lat": -26.19956,
            "school_name": "Oliver Lodge Primary School",
            "country_name": "South Africa",
            "connectivity": false
        },
        {
            "lon": 28.20673,
            "lat": -26.12007,
            "school_name": "Avex Air Training Ltd",
            "country_name": "South Africa",
            "connectivity": false
        },
        {
            "lon": 26.76826,
            "lat": -27.85839,
            "school_name": "Phehello Secondary School",
            "country_name": "South Africa",
            "connectivity": false
        },
        {
            "lon": 26.96573,
            "lat": -32.19199,
            "school_name": "Table Farm Primary School",
            "country_name": "South Africa",
            "connectivity": false
        },
        {
            "lon": 29.01837,
            "lat": -28.30521,
            "school_name": "Boipopo Primary School",
            "country_name": "South Africa",
            "connectivity": false
        },
        {
            "lon": 26.73224,
            "lat": -29.27601,
            "school_name": "Kgorathuto Secondary School",
            "country_name": "South Africa",
            "connectivity": false
        },
        {
            "lon": 24.79516,
            "lat": -33.73903,
            "school_name": "Masisebenze Primary School",
            "country_name": "South Africa",
            "connectivity": false
        },
        {
            "lon": 29.86548,
            "lat": -31.05247,
            "school_name": "Mbongweni Junior Secondary School",
            "country_name": "South Africa",
            "connectivity": false
        },
        {
            "lon": -57.56209687,
            "lat": -37.99803599,
            "school_name": "JARDIN DE INFANTES ACUARELA",
            "country_name": "Argentina",
            "connectivity": false
        },
        {
            "lon": -59.2845272,
            "lat": -27.20525271,
            "school_name": "JARDIN DE INFANTES N\u00ba 56-REMEDIOS DE E. DE SAN MARTIN",
            "country_name": "Argentina",
            "connectivity": false
        },
        {
            "lon": -59.01118959,
            "lat": -27.46014403,
            "school_name": "E.E.T. N\u00ba 16(EX-C.E.P.Y T.T.P.N\u00ba 44)(EX-EET 161\u00b0DE MAYO)",
            "country_name": "Argentina",
            "connectivity": false
        },
        {
            "lon": -58.38176491,
            "lat": -34.88931553,
            "school_name": "JARDIN DE INFANTES SEMILLITAS",
            "country_name": "Argentina",
            "connectivity": false
        },
        {
            "lon": -60.3183897,
            "lat": -33.5221545,
            "school_name": "JARDIN DE INFANTES N\u00ba909 SAN NICOLAS DE BARI",
            "country_name": "Argentina",
            "connectivity": false
        },
        {
            "lon": -59.1691957,
            "lat": -34.5294847,
            "school_name": "ESCUELA PRIMARIA N\u00ba8 YAPEYU",
            "country_name": "Argentina",
            "connectivity": false
        },
        {
            "lon": -58.38187616,
            "lat": -34.66644998,
            "school_name": "ESCUELA ESPECIAL N\u00ba502",
            "country_name": "Argentina",
            "connectivity": false
        },
        {
            "lon": -58.51069288,
            "lat": -34.69709312,
            "school_name": "ESCUELA ESPECIAL N\u00ba506 Gral. Don Jos\u00e9 de San Mart\u00edn",
            "country_name": "Argentina",
            "connectivity": false
        },
        {
            "lon": 6.982125,
            "lat": 5.858336,
            "school_name": "Name unknown",
            "country_name": "Nigeria",
            "connectivity": false
        },
        {
            "lon": -58.41747074,
            "lat": -34.70806327,
            "school_name": "INSTITUTO SAN FRANCISCO DE ASIS",
            "country_name": "Argentina",
            "connectivity": false
        },
        {
            "lon": -57.84075252,
            "lat": -38.27437083,
            "school_name": "COLEGIO SAN ANDRES DE MIRAMAR",
            "country_name": "Argentina",
            "connectivity": false
        },
        {
            "lon": -58.75049403,
            "lat": -34.46792369,
            "school_name": "COLEGIO SAN JUAN",
            "country_name": "Argentina",
            "connectivity": false
        },
        {
            "lon": -60.32182898,
            "lat": -36.8703217,
            "school_name": "ESCUELA PRIMARIA N\u00ba6 CORONEL OLAVARRIA",
            "country_name": "Argentina",
            "connectivity": false
        },
        {
            "lon": -58.24963067,
            "lat": -34.76954762,
            "school_name": "CENTRO DE ADULTOS N\u00ba717/06 ROSARIO VERA PE\u00d1ALOZA",
            "country_name": "Argentina",
            "connectivity": false
        },
        {
            "lon": -59.13921017,
            "lat": -37.30006133,
            "school_name": "ESCUELA PRIMARIA N\u00ba56 FRANCISCO JULDAIN",
            "country_name": "Argentina",
            "connectivity": false
        },
        {
            "lon": -61.08994416,
            "lat": -33.89141144,
            "school_name": "JARDIN DE INFANTES N\u00ba909 GENERAL DON JOSE DE SAN MARTIN",
            "country_name": "Argentina",
            "connectivity": false
        },
        {
            "lon": -58.67975612,
            "lat": -34.45482364,
            "school_name": "ESCUELA SECUNDARIA N\u00ba20",
            "country_name": "Argentina",
            "connectivity": false
        },
        {
            "lon": -58.67756309,
            "lat": -34.49716862,
            "school_name": "ESC. SECUNDARIA BASICA N\u00ba17",
            "country_name": "Argentina",
            "connectivity": false
        },
        {
            "lon": -58.91842894,
            "lat": -34.61198901,
            "school_name": "ESC. SECUNDARIA BASICA N\u00ba15",
            "country_name": "Argentina",
            "connectivity": false
        },
        {
            "lon": -61.35657226,
            "lat": -37.9825742,
            "school_name": "JARDIN DE INFANTES RURAL N\u00ba8 (funciona en PP 33)",
            "country_name": "Argentina",
            "connectivity": false
        },
        {
            "lon": -58.38891585,
            "lat": -34.98887003,
            "school_name": "JARDIN DE INFANTES N\u00ba913",
            "country_name": "Argentina",
            "connectivity": false
        },
        {
            "lon": -60.72016086,
            "lat": -27.29121954,
            "school_name": "PRIM.ADULTOS N\u00ba 24-JOAQUIN V.GONZALEZ",
            "country_name": "Argentina",
            "connectivity": false
        },
        {
            "lon": -61.28717942,
            "lat": -26.92520892,
            "school_name": "E.E.P. N\u00ba 276",
            "country_name": "Argentina",
            "connectivity": false
        },
        {
            "lon": -62.8304204,
            "lat": -25.8035063,
            "school_name": "E.E.P. N\u00ba 436",
            "country_name": "Argentina",
            "connectivity": false
        },
        {
            "lon": -71.47354933,
            "lat": -43.53426179,
            "school_name": "COLEGIO N\u00ba 779",
            "country_name": "Argentina",
            "connectivity": false
        },
        {
            "lon": -61.90388925,
            "lat": -30.70577704,
            "school_name": "J.DE INF. DALMACIO V.SARSFIELD-ANEXO CNIA.BEIRO ESTE",
            "country_name": "Argentina",
            "connectivity": false
        },
        {
            "lon": -64.48180043,
            "lat": -31.09286594,
            "school_name": "ESCUELA DR. MATEO J. MOLINA",
            "country_name": "Argentina",
            "connectivity": false
        },
        {
            "lon": -78.8173,
            "lat": -5.7075,
            "school_name": "13",
            "country_name": "Peru",
            "connectivity": false
        },
        {
            "lon": -57.09575039,
            "lat": -29.71010565,
            "school_name": "ESCUELA N\u00ba 667 VICENTE ELADIO VERON",
            "country_name": "Argentina",
            "connectivity": false
        },
        {
            "lon": -58.17349059,
            "lat": -31.47733002,
            "school_name": "ESCUELA SECUNDARIA 20",
            "country_name": "Argentina",
            "connectivity": false
        },
        {
            "lon": -65.30575312,
            "lat": -24.18661413,
            "school_name": "COLEGIO SECUNDARIO CANONIGO GORRITI",
            "country_name": "Argentina",
            "connectivity": false
        },
        {
            "lon": -66.34678297,
            "lat": -30.98068876,
            "school_name": "ESC.N\u00b0133",
            "country_name": "Argentina",
            "connectivity": false
        },
        {
            "lon": -66.52886949,
            "lat": -30.50696035,
            "school_name": "COLEGIO PROVINCIAL OBISPO ABEL BAZAN Y BUSTOS",
            "country_name": "Argentina",
            "connectivity": false
        },
        {
            "lon": -68.66973776,
            "lat": -32.59400807,
            "school_name": "ELIAS VILLANUEVA",
            "country_name": "Argentina",
            "connectivity": false
        },
        {
            "lon": -71.30213329,
            "lat": -41.1394726,
            "school_name": "CENTRO DE EDUCACION MEDIA NRO.99",
            "country_name": "Argentina",
            "connectivity": false
        },
        {
            "lon": -66.3320504,
            "lat": -33.29929192,
            "school_name": "ESCUELA EXPERIMENTAL DE EDUC. ESP. N\u00ba 4 UN LUGAR EN EL MUNDO",
            "country_name": "Argentina",
            "connectivity": false
        },
        {
            "lon": -71.44872381,
            "lat": -49.59846659,
            "school_name": "ESCUELA PRIMARIA PROVINCIAL RURAL N\u00ba 16 RVDO. PADRE FEDERICO TORRES",
            "country_name": "Argentina",
            "connectivity": false
        },
        {
            "lon": -78.3351,
            "lat": -6.66374,
            "school_name": "356",
            "country_name": "Peru",
            "connectivity": false
        },
        {
            "lon": 6.078293,
            "lat": 6.275929,
            "school_name": "Name unknown",
            "country_name": "Nigeria",
            "connectivity": false
        },
        {
            "lon": 5.733528,
            "lat": 5.482982,
            "school_name": "Name unknown",
            "country_name": "Nigeria",
            "connectivity": false
        },
        {
            "lon": 8.117645,
            "lat": 6.3770167,
            "school_name": "Name unknown",
            "country_name": "Nigeria",
            "connectivity": false
        },
        {
            "lon": 8.115263333,
            "lat": 6.330226667,
            "school_name": "Name unknown",
            "country_name": "Nigeria",
            "connectivity": false
        },
        {
            "lon": 8.005446667,
            "lat": 6.158058333,
            "school_name": "Name unknown",
            "country_name": "Nigeria",
            "connectivity": false
        },
        {
            "lon": 5.218561667,
            "lat": 7.588228333,
            "school_name": "Name unknown",
            "country_name": "Nigeria",
            "connectivity": false
        },
        {
            "lon": 5.472565,
            "lat": 7.924436,
            "school_name": "Name unknown",
            "country_name": "Nigeria",
            "connectivity": false
        },
        {
            "lon": 5.093415,
            "lat": 7.982026667,
            "school_name": "Name unknown",
            "country_name": "Nigeria",
            "connectivity": false
        },
        {
            "lon": 7.497126,
            "lat": 6.98305,
            "school_name": "Name unknown",
            "country_name": "Nigeria",
            "connectivity": false
        },
        {
            "lon": 7.426385,
            "lat": 6.925036667,
            "school_name": "Name unknown",
            "country_name": "Nigeria",
            "connectivity": false
        },
        {
            "lon": 2.94809,
            "lat": 6.50186,
            "school_name": "Name unknown",
            "country_name": "Nigeria",
            "connectivity": false
        },
        {
            "lon": 7.379739,
            "lat": 6.631004,
            "school_name": "Name unknown",
            "country_name": "Nigeria",
            "connectivity": false
        },
        {
            "lon": 7.324845,
            "lat": 9.151118,
            "school_name": "Name unknown",
            "country_name": "Nigeria",
            "connectivity": false
        },
        {
            "lon": 7.339377,
            "lat": 9.146535,
            "school_name": "Name unknown",
            "country_name": "Nigeria",
            "connectivity": false
        },
        {
            "lon": 7.437267,
            "lat": 9.24801,
            "school_name": "Name unknown",
            "country_name": "Nigeria",
            "connectivity": false
        },
        {
            "lon": 11.21098,
            "lat": 10.10437,
            "school_name": "Name unknown",
            "country_name": "Nigeria",
            "connectivity": false
        },
        {
            "lon": 11.17986,
            "lat": 10.293233,
            "school_name": "Name unknown",
            "country_name": "Nigeria",
            "connectivity": false
        },
        {
            "lon": 11.40145,
            "lat": 9.87436,
            "school_name": "Name unknown",
            "country_name": "Nigeria",
            "connectivity": false
        },
        {
            "lon": 7.030391,
            "lat": 5.630828,
            "school_name": "Name unknown",
            "country_name": "Nigeria",
            "connectivity": false
        },
        {
            "lon": 7.118319,
            "lat": 5.241928,
            "school_name": "Name unknown",
            "country_name": "Nigeria",
            "connectivity": false
        },
        {
            "lon": -76.3705,
            "lat": -6.49317,
            "school_name": "0002 REHABILITACION Y EDUCACION DEL CIEGO",
            "country_name": "Peru",
            "connectivity": false
        },
        {
            "lon": -76.8084,
            "lat": -7.03332,
            "school_name": "0030 MARIA PARADO DE BELLIDO",
            "country_name": "Peru",
            "connectivity": false
        },
        {
            "lon": -77.02,
            "lat": -5.83097,
            "school_name": "652",
            "country_name": "Peru",
            "connectivity": false
        },
        {
            "lon": -77.0239,
            "lat": -6.1109,
            "school_name": "830",
            "country_name": "Peru",
            "connectivity": false
        },
        {
            "lon": -76.4928,
            "lat": -6.7767,
            "school_name": "312",
            "country_name": "Peru",
            "connectivity": false
        },
        {
            "lon": -80.2376,
            "lat": -3.5302,
            "school_name": "63",
            "country_name": "Peru",
            "connectivity": false
        },
        {
            "lon": -78.6169,
            "lat": -6.27071,
            "school_name": "10361",
            "country_name": "Peru",
            "connectivity": false
        },
        {
            "lon": -73.1317,
            "lat": -12.6932,
            "school_name": "1333",
            "country_name": "Peru",
            "connectivity": false
        },
        {
            "lon": -76.9666,
            "lat": -12.1972,
            "school_name": "APOSTOL SANTIAGO",
            "country_name": "Peru",
            "connectivity": false
        },
        {
            "lon": -78.5329,
            "lat": -5.641,
            "school_name": "16193",
            "country_name": "Peru",
            "connectivity": false
        },
        {
            "lon": -78.3064,
            "lat": -5.1431,
            "school_name": "17838",
            "country_name": "Peru",
            "connectivity": false
        },
        {
            "lon": -78.0532,
            "lat": -6.5731,
            "school_name": "18312",
            "country_name": "Peru",
            "connectivity": false
        },
        {
            "lon": -79.4704,
            "lat": -5.24631,
            "school_name": "20069",
            "country_name": "Peru",
            "connectivity": false
        },
        {
            "lon": -77.3048,
            "lat": -11.4903,
            "school_name": "20799 DANIEL ALCIDES CARRION",
            "country_name": "Peru",
            "connectivity": false
        },
        {
            "lon": -76.4578,
            "lat": -5.85804,
            "school_name": "62761",
            "country_name": "Peru",
            "connectivity": false
        },
        {
            "lon": -75.6765,
            "lat": -14.3099,
            "school_name": "22377 SANTA ROSA",
            "country_name": "Peru",
            "connectivity": false
        },
        {
            "lon": -76.6954,
            "lat": -6.6154,
            "school_name": "253",
            "country_name": "Peru",
            "connectivity": false
        },
        {
            "lon": -72.2197,
            "lat": -13.2767,
            "school_name": "260",
            "country_name": "Peru",
            "connectivity": false
        },
        {
            "lon": -69.1495,
            "lat": -12.2793,
            "school_name": "278 PLANCHON",
            "country_name": "Peru",
            "connectivity": false
        },
        {
            "lon": -72.0333,
            "lat": -13.4319,
            "school_name": "3 DE MAYO",
            "country_name": "Peru",
            "connectivity": false
        },
        {
            "lon": -73.75,
            "lat": -10.7375,
            "school_name": "31807 VILLA JUNIN",
            "country_name": "Peru",
            "connectivity": false
        },
        {
            "lon": -76.3002,
            "lat": -10.3408,
            "school_name": "32884",
            "country_name": "Peru",
            "connectivity": false
        },
        {
            "lon": -71.5297,
            "lat": -16.3923,
            "school_name": "AREQUIPA",
            "country_name": "Peru",
            "connectivity": false
        },
        {
            "lon": -79.7724,
            "lat": -5.90101,
            "school_name": "349",
            "country_name": "Peru",
            "connectivity": false
        },
        {
            "lon": -79.1923,
            "lat": -7.74722,
            "school_name": "ARQUIMEDES",
            "country_name": "Peru",
            "connectivity": false
        },
        {
            "lon": -74.3738,
            "lat": -12.5188,
            "school_name": "429-39",
            "country_name": "Peru",
            "connectivity": false
        },
        {
            "lon": -69.1732,
            "lat": -16.4186,
            "school_name": "507",
            "country_name": "Peru",
            "connectivity": false
        },
        {
            "lon": -73.1765,
            "lat": -12.9243,
            "school_name": "50787",
            "country_name": "Peru",
            "connectivity": false
        },
        {
            "lon": -71.7922,
            "lat": -13.5603,
            "school_name": "50867",
            "country_name": "Peru",
            "connectivity": false
        },
        {
            "lon": -71.9812,
            "lat": -13.5256,
            "school_name": "51006 TUPAC AMARU",
            "country_name": "Peru",
            "connectivity": false
        },
        {
            "lon": -72.1441,
            "lat": -13.7111,
            "school_name": "51032",
            "country_name": "Peru",
            "connectivity": false
        },
        {
            "lon": -69.2606,
            "lat": -12.6339,
            "school_name": "52026 EL CASTA\u00d1AL",
            "country_name": "Peru",
            "connectivity": false
        },
        {
            "lon": -72.0496,
            "lat": -14.4159,
            "school_name": "56310",
            "country_name": "Peru",
            "connectivity": false
        },
        {
            "lon": -71.7199,
            "lat": -14.2882,
            "school_name": "56370",
            "country_name": "Peru",
            "connectivity": false
        },
        {
            "lon": -71.4543,
            "lat": -14.0274,
            "school_name": "573",
            "country_name": "Peru",
            "connectivity": false
        },
        {
            "lon": -77.0999,
            "lat": -11.9357,
            "school_name": "589 ESTRELLA DEL SABER",
            "country_name": "Peru",
            "connectivity": false
        },
        {
            "lon": -71.8763,
            "lat": -3.32421,
            "school_name": "6010258 BILINGUE INTERCULTURAL",
            "country_name": "Peru",
            "connectivity": false
        },
        {
            "lon": -73.7872,
            "lat": -4.64767,
            "school_name": "60581",
            "country_name": "Peru",
            "connectivity": false
        },
        {
            "lon": -76.9639,
            "lat": -12.0953,
            "school_name": "6087 PABLO MARIA GUZMAN",
            "country_name": "Peru",
            "connectivity": false
        },
        {
            "lon": -75.8089,
            "lat": -6.0918,
            "school_name": "62179 SAN ANTONIO DE PARINARI",
            "country_name": "Peru",
            "connectivity": false
        },
        {
            "lon": -75.1925,
            "lat": -7.76375,
            "school_name": "6224-B",
            "country_name": "Peru",
            "connectivity": false
        },
        {
            "lon": -76.4472,
            "lat": -4.4984,
            "school_name": "62556",
            "country_name": "Peru",
            "connectivity": false
        },
        {
            "lon": -71.7424,
            "lat": -13.369,
            "school_name": "639 VIRGEN DE LOS DESAMPARADOS",
            "country_name": "Peru",
            "connectivity": false
        },
        {
            "lon": -73.9469,
            "lat": -9.90483,
            "school_name": "64992-B",
            "country_name": "Peru",
            "connectivity": false
        },
        {
            "lon": -70.1282,
            "lat": -16.5023,
            "school_name": "70695",
            "country_name": "Peru",
            "connectivity": false
        },
        {
            "lon": -69.6555,
            "lat": -15.2681,
            "school_name": "72295",
            "country_name": "Peru",
            "connectivity": false
        },
        {
            "lon": -78.8963,
            "lat": -7.03999,
            "school_name": "82948",
            "country_name": "Peru",
            "connectivity": false
        },
        {
            "lon": -79.7882,
            "lat": -5.03026,
            "school_name": "832",
            "country_name": "Peru",
            "connectivity": false
        },
        {
            "lon": -76.9824,
            "lat": -8.8955,
            "school_name": "86879",
            "country_name": "Peru",
            "connectivity": false
        },
        {
            "lon": -72.9869,
            "lat": -5.53376,
            "school_name": "879",
            "country_name": "Peru",
            "connectivity": false
        },
        {
            "lon": -78.5746,
            "lat": -9.05295,
            "school_name": "88037 ANTENOR SANCHEZ",
            "country_name": "Peru",
            "connectivity": false
        },
        {
            "lon": -77.6747,
            "lat": -8.1652,
            "school_name": "88308",
            "country_name": "Peru",
            "connectivity": false
        },
        {
            "lon": -74.9188,
            "lat": -10.8694,
            "school_name": "938 LAS GOLONDRINAS",
            "country_name": "Peru",
            "connectivity": false
        },
        {
            "lon": -77.0822,
            "lat": -12.0538,
            "school_name": "ALMIRANTE MIGUEL GRAU",
            "country_name": "Peru",
            "connectivity": false
        },
        {
            "lon": -73.4532,
            "lat": -14.768,
            "school_name": "ANDRES AVELINO CACERES",
            "country_name": "Peru",
            "connectivity": false
        },
        {
            "lon": -76.8054,
            "lat": -12.3217,
            "school_name": "ARCANGELES DE DIOS",
            "country_name": "Peru",
            "connectivity": false
        },
        {
            "lon": -77.8748,
            "lat": -6.22902,
            "school_name": "BLAS VALERA PEREZ",
            "country_name": "Peru",
            "connectivity": false
        },
        {
            "lon": -76.7476,
            "lat": -9.15763,
            "school_name": "BRILLANTE",
            "country_name": "Peru",
            "connectivity": false
        },
        {
            "lon": -77.3324,
            "lat": -10.5984,
            "school_name": "CAHUA",
            "country_name": "Peru",
            "connectivity": false
        },
        {
            "lon": -77.0687,
            "lat": -12.036,
            "school_name": "CALU",
            "country_name": "Peru",
            "connectivity": false
        },
        {
            "lon": -76.8215,
            "lat": -11.2739,
            "school_name": "CAMINEMOS JUNTOS",
            "country_name": "Peru",
            "connectivity": false
        },
        {
            "lon": -77.0084,
            "lat": -11.8782,
            "school_name": "CARITAS DE ANGEL I",
            "country_name": "Peru",
            "connectivity": false
        },
        {
            "lon": -76.347,
            "lat": -6.54682,
            "school_name": "CASITA DE JUEGOS",
            "country_name": "Peru",
            "connectivity": false
        },
        {
            "lon": -71.4915,
            "lat": -16.4127,
            "school_name": "CEBA - 40174 PAOLA FRASSINETTI",
            "country_name": "Peru",
            "connectivity": false
        },
        {
            "lon": -71.5306,
            "lat": -16.3969,
            "school_name": "CEBA - MICAELA BASTIDAS",
            "country_name": "Peru",
            "connectivity": false
        },
        {
            "lon": -77.0451,
            "lat": -11.9228,
            "school_name": "CORAZON DE MARIA",
            "country_name": "Peru",
            "connectivity": false
        },
        {
            "lon": -74.5716,
            "lat": -8.37861,
            "school_name": "CRECIENDO CON AMOR I",
            "country_name": "Peru",
            "connectivity": false
        },
        {
            "lon": -77.0412,
            "lat": -11.9574,
            "school_name": "CRISTO RAMOS",
            "country_name": "Peru",
            "connectivity": false
        },
        {
            "lon": -71.9938,
            "lat": -13.5266,
            "school_name": "EL BOSQUE",
            "country_name": "Peru",
            "connectivity": false
        },
        {
            "lon": 1.099435,
            "lat": 9.746791,
            "school_name": "JEP YAKA CENTAL",
            "country_name": "Togo",
            "connectivity": false
        },
        {
            "lon": -76.9256,
            "lat": -12.2304,
            "school_name": "EL DIVINO MAESTRO",
            "country_name": "Peru",
            "connectivity": false
        },
        {
            "lon": -76.9964,
            "lat": -12.1672,
            "school_name": "EMANUEL 1",
            "country_name": "Peru",
            "connectivity": false
        },
        {
            "lon": -73.3625,
            "lat": -15.7731,
            "school_name": "FEDERICO KAISER",
            "country_name": "Peru",
            "connectivity": false
        },
        {
            "lon": -69.7081,
            "lat": -14.0728,
            "school_name": "HUMANCAYANI",
            "country_name": "Peru",
            "connectivity": false
        },
        {
            "lon": -77.0774,
            "lat": -11.8676,
            "school_name": "JUANA IRIS CUADROS RIVERA",
            "country_name": "Peru",
            "connectivity": false
        },
        {
            "lon": -81.0973,
            "lat": -5.08904,
            "school_name": "LOS BECADOS",
            "country_name": "Peru",
            "connectivity": false
        },
        {
            "lon": -77.1831,
            "lat": -9.35509,
            "school_name": "LOS HUANCHACOS",
            "country_name": "Peru",
            "connectivity": false
        },
        {
            "lon": -71.5515,
            "lat": -16.4401,
            "school_name": "MARIA DE COPACABANA",
            "country_name": "Peru",
            "connectivity": false
        },
        {
            "lon": -77.0866,
            "lat": -12.0315,
            "school_name": "MARIA MATTER PURISSIMA",
            "country_name": "Peru",
            "connectivity": false
        },
        {
            "lon": -78.5245,
            "lat": -7.15648,
            "school_name": "MATICES",
            "country_name": "Peru",
            "connectivity": false
        },
        {
            "lon": 10.2500076,
            "lat": 12.6227188,
            "school_name": "Name unknown",
            "country_name": "Nigeria",
            "connectivity": false
        },
        {
            "lon": -70.3434,
            "lat": -14.619,
            "school_name": "PACUHUTA",
            "country_name": "Peru",
            "connectivity": false
        },
        {
            "lon": -69.2177,
            "lat": -16.4066,
            "school_name": "PRIMER TASAPA",
            "country_name": "Peru",
            "connectivity": false
        },
        {
            "lon": -76.9604,
            "lat": -12.0539,
            "school_name": "SACO OLIVEROS",
            "country_name": "Peru",
            "connectivity": false
        },
        {
            "lon": -76.4125,
            "lat": -5.71341,
            "school_name": "SAN PABLO APOSTOL",
            "country_name": "Peru",
            "connectivity": false
        },
        {
            "lon": -76.3543,
            "lat": -10.475,
            "school_name": "SANTA ANA",
            "country_name": "Peru",
            "connectivity": false
        },
        {
            "lon": -76.9034,
            "lat": -12.0266,
            "school_name": "SANTA ELENA DE LOS NI\u00d1OS",
            "country_name": "Peru",
            "connectivity": false
        },
        {
            "lon": -73.1032,
            "lat": -12.5804,
            "school_name": "SANTA ROSA",
            "country_name": "Peru",
            "connectivity": false
        },
        {
            "lon": -76.9902,
            "lat": -12.2003,
            "school_name": "SANTA TERESA DE JESUS",
            "country_name": "Peru",
            "connectivity": false
        },
        {
            "lon": -73.7358,
            "lat": -11.0383,
            "school_name": "SANTIAGO ANTUNEZ DE MAYOLO",
            "country_name": "Peru",
            "connectivity": false
        },
        {
            "lon": -80.5923,
            "lat": -5.19981,
            "school_name": "SANTISIMA CRUZ DE MOTUPE",
            "country_name": "Peru",
            "connectivity": false
        },
        {
            "lon": -71.5234,
            "lat": -16.4475,
            "school_name": "SANTISIMA VIRGEN DE COPACABANA",
            "country_name": "Peru",
            "connectivity": false
        },
        {
            "lon": -77.1689,
            "lat": -11.7739,
            "school_name": "SOL NACIENTE DE MARIA",
            "country_name": "Peru",
            "connectivity": false
        },
        {
            "lon": -76.9603,
            "lat": -12.0573,
            "school_name": "SOR ANA DE LOS ANGELES",
            "country_name": "Peru",
            "connectivity": false
        },
        {
            "lon": -71.9963,
            "lat": -13.5743,
            "school_name": "SUMAQ RURUCHA",
            "country_name": "Peru",
            "connectivity": false
        },
        {
            "lon": -78.304,
            "lat": -4.88588,
            "school_name": "SUWA",
            "country_name": "Peru",
            "connectivity": false
        },
        {
            "lon": -72.5406,
            "lat": -13.9905,
            "school_name": "TAMBO",
            "country_name": "Peru",
            "connectivity": false
        },
        {
            "lon": -77.3172,
            "lat": -3.65466,
            "school_name": "TORIBIO SHUTKA KAZU",
            "country_name": "Peru",
            "connectivity": false
        },
        {
            "lon": -73.3434,
            "lat": -13.6848,
            "school_name": "TRICOLORES",
            "country_name": "Peru",
            "connectivity": false
        },
        {
            "lon": 8.9806757,
            "lat": 12.1998396,
            "school_name": "Name unknown",
            "country_name": "Nigeria",
            "connectivity": false
        },
        {
            "lon": 9.321085,
            "lat": 12.3523426,
            "school_name": "Name unknown",
            "country_name": "Nigeria",
            "connectivity": false
        },
        {
            "lon": 7.66182963,
            "lat": 10.53562628,
            "school_name": "Name unknown",
            "country_name": "Nigeria",
            "connectivity": false
        },
        {
            "lon": 7.3885446,
            "lat": 10.41909669,
            "school_name": "Name unknown",
            "country_name": "Nigeria",
            "connectivity": false
        },
        {
            "lon": 7.64412805,
            "lat": 10.76752483,
            "school_name": "Name unknown",
            "country_name": "Nigeria",
            "connectivity": false
        },
        {
            "lon": 8.15374705,
            "lat": 9.5412056,
            "school_name": "Name unknown",
            "country_name": "Nigeria",
            "connectivity": false
        },
        {
            "lon": 7.510051448,
            "lat": 10.06010145,
            "school_name": "Name unknown",
            "country_name": "Nigeria",
            "connectivity": false
        },
        {
            "lon": 8.34797331,
            "lat": 9.63692226,
            "school_name": "Name unknown",
            "country_name": "Nigeria",
            "connectivity": false
        },
        {
            "lon": 8.290925094,
            "lat": 10.52527369,
            "school_name": "Name unknown",
            "country_name": "Nigeria",
            "connectivity": false
        },
        {
            "lon": 8.23274953,
            "lat": 10.76415054,
            "school_name": "Name unknown",
            "country_name": "Nigeria",
            "connectivity": false
        },
        {
            "lon": 8.539055,
            "lat": 11.98151,
            "school_name": "Name unknown",
            "country_name": "Nigeria",
            "connectivity": false
        },
        {
            "lon": 12.704183,
            "lat": 9.187156,
            "school_name": "Name unknown",
            "country_name": "Nigeria",
            "connectivity": false
        },
        {
            "lon": 8.683511,
            "lat": 10.78855,
            "school_name": "Name unknown",
            "country_name": "Nigeria",
            "connectivity": false
        },
        {
            "lon": 8.65361,
            "lat": 11.91888,
            "school_name": "Name unknown",
            "country_name": "Nigeria",
            "connectivity": false
        },
        {
            "lon": 8.273706,
            "lat": 11.40956,
            "school_name": "Name unknown",
            "country_name": "Nigeria",
            "connectivity": false
        },
        {
            "lon": 8.535588,
            "lat": 11.98961,
            "school_name": "Name unknown",
            "country_name": "Nigeria",
            "connectivity": false
        },
        {
            "lon": 8.005543,
            "lat": 12.14018,
            "school_name": "Name unknown",
            "country_name": "Nigeria",
            "connectivity": false
        },
        {
            "lon": 7.92786,
            "lat": 11.74903,
            "school_name": "Name unknown",
            "country_name": "Nigeria",
            "connectivity": false
        },
        {
            "lon": 7.927226,
            "lat": 11.6499,
            "school_name": "Name unknown",
            "country_name": "Nigeria",
            "connectivity": false
        },
        {
            "lon": 8.526381,
            "lat": 11.95103,
            "school_name": "Name unknown",
            "country_name": "Nigeria",
            "connectivity": false
        },
        {
            "lon": 11.883692,
            "lat": 9.702701,
            "school_name": "Name unknown",
            "country_name": "Nigeria",
            "connectivity": false
        },
        {
            "lon": 7.713675,
            "lat": 7.539236,
            "school_name": "Name unknown",
            "country_name": "Nigeria",
            "connectivity": false
        },
        {
            "lon": 6.871956,
            "lat": 7.178873,
            "school_name": "Name unknown",
            "country_name": "Nigeria",
            "connectivity": false
        },
        {
            "lon": 5.73856,
            "lat": 7.832797,
            "school_name": "Name unknown",
            "country_name": "Nigeria",
            "connectivity": false
        },
        {
            "lon": 4.71942,
            "lat": 8.495509,
            "school_name": "Name unknown",
            "country_name": "Nigeria",
            "connectivity": false
        },
        {
            "lon": 3.26509,
            "lat": 6.5091,
            "school_name": "Name unknown",
            "country_name": "Nigeria",
            "connectivity": false
        },
        {
            "lon": 3.30705,
            "lat": 6.6713,
            "school_name": "Name unknown",
            "country_name": "Nigeria",
            "connectivity": false
        },
        {
            "lon": 3.34937,
            "lat": 6.63734,
            "school_name": "Name unknown",
            "country_name": "Nigeria",
            "connectivity": false
        },
        {
            "lon": 3.53381,
            "lat": 6.53944,
            "school_name": "Name unknown",
            "country_name": "Nigeria",
            "connectivity": false
        },
        {
            "lon": 3.298543465,
            "lat": 6.548270911,
            "school_name": "Name unknown",
            "country_name": "Nigeria",
            "connectivity": false
        },
        {
            "lon": 8.459983,
            "lat": 8.417847,
            "school_name": "Name unknown",
            "country_name": "Nigeria",
            "connectivity": false
        },
        {
            "lon": 6.534513333,
            "lat": 9.653501667,
            "school_name": "Name unknown",
            "country_name": "Nigeria",
            "connectivity": false
        },
        {
            "lon": 5.851335526,
            "lat": 9.108057618,
            "school_name": "Name unknown",
            "country_name": "Nigeria",
            "connectivity": false
        },
        {
            "lon": 3.23714568,
            "lat": 6.68330309,
            "school_name": "Name unknown",
            "country_name": "Nigeria",
            "connectivity": false
        },
        {
            "lon": 2.98051692,
            "lat": 7.0612619,
            "school_name": "Name unknown",
            "country_name": "Nigeria",
            "connectivity": false
        },
        {
            "lon": 5.918684,
            "lat": 7.393954,
            "school_name": "Name unknown",
            "country_name": "Nigeria",
            "connectivity": false
        },
        {
            "lon": 4.723493,
            "lat": 7.168509,
            "school_name": "Name unknown",
            "country_name": "Nigeria",
            "connectivity": false
        },
        {
            "lon": 4.638832,
            "lat": 7.994977,
            "school_name": "Name unknown",
            "country_name": "Nigeria",
            "connectivity": false
        },
        {
            "lon": 4.561118,
            "lat": 7.782356,
            "school_name": "Name unknown",
            "country_name": "Nigeria",
            "connectivity": false
        },
        {
            "lon": 4.571705,
            "lat": 7.765663,
            "school_name": "Name unknown",
            "country_name": "Nigeria",
            "connectivity": false
        },
        {
            "lon": 3.966852,
            "lat": 7.82553,
            "school_name": "Name unknown",
            "country_name": "Nigeria",
            "connectivity": false
        },
        {
            "lon": 3.418534,
            "lat": 7.540268,
            "school_name": "Name unknown",
            "country_name": "Nigeria",
            "connectivity": false
        },
        {
            "lon": 3.834345,
            "lat": 9.076243,
            "school_name": "Name unknown",
            "country_name": "Nigeria",
            "connectivity": false
        },
        {
            "lon": 3.296286,
            "lat": 7.782005,
            "school_name": "Name unknown",
            "country_name": "Nigeria",
            "connectivity": false
        },
        {
            "lon": 9.920553,
            "lat": 9.369748,
            "school_name": "Name unknown",
            "country_name": "Nigeria",
            "connectivity": false
        },
        {
            "lon": 9.62302,
            "lat": 8.610314,
            "school_name": "Name unknown",
            "country_name": "Nigeria",
            "connectivity": false
        },
        {
            "lon": 6.886058,
            "lat": 4.577465,
            "school_name": "Name unknown",
            "country_name": "Nigeria",
            "connectivity": false
        },
        {
            "lon": 11.32627101,
            "lat": 8.930912037,
            "school_name": "Name unknown",
            "country_name": "Nigeria",
            "connectivity": false
        },
        {
            "lon": 7.030321956,
            "lat": 11.34580314,
            "school_name": "Name unknown",
            "country_name": "Nigeria",
            "connectivity": false
        },
        {
            "lon": 10.76809287,
            "lat": 11.46986604,
            "school_name": "Name unknown",
            "country_name": "Nigeria",
            "connectivity": false
        },
        {
            "lon": 9.842588333,
            "lat": 9.810928334,
            "school_name": "Name unknown",
            "country_name": "Nigeria",
            "connectivity": false
        },
        {
            "lon": 9.842017293,
            "lat": 11.13181651,
            "school_name": "Name unknown",
            "country_name": "Nigeria",
            "connectivity": false
        },
        {
            "lon": 4.23071731,
            "lat": 13.15870728,
            "school_name": "Name unknown",
            "country_name": "Nigeria",
            "connectivity": false
        },
        {
            "lon": 3.86301,
            "lat": 12.08556,
            "school_name": "Name unknown",
            "country_name": "Nigeria",
            "connectivity": false
        },
        {
            "lon": 4.00002916,
            "lat": 11.97861199,
            "school_name": "Name unknown",
            "country_name": "Nigeria",
            "connectivity": false
        },
        {
            "lon": 6.325394,
            "lat": 4.933923,
            "school_name": "Name unknown",
            "country_name": "Nigeria",
            "connectivity": false
        },
        {
            "lon": 7.948421,
            "lat": 6.714352,
            "school_name": "Name unknown",
            "country_name": "Nigeria",
            "connectivity": false
        },
        {
            "lon": 6.656604409,
            "lat": 12.19323635,
            "school_name": "Name unknown",
            "country_name": "Nigeria",
            "connectivity": false
        },
        {
            "lon": 8.034926,
            "lat": 5.289075,
            "school_name": "Name unknown",
            "country_name": "Nigeria",
            "connectivity": false
        },
        {
            "lon": 8.6373888,
            "lat": 6.434877,
            "school_name": "Name unknown",
            "country_name": "Nigeria",
            "connectivity": false
        },
        {
            "lon": 29.47792,
            "lat": -30.05454,
            "school_name": "Tsawule Junior Secondary School",
            "country_name": "South Africa",
            "connectivity": false
        },
        {
            "lon": -13.23914,
            "lat": 16.21377,
            "school_name": "danki",
            "country_name": "Mauritania",
            "connectivity": false
        },
        {
            "lon": -59.04184279,
            "lat": -28.51537015,
            "school_name": "COLEGIO SECUNDARIO DR JOSE LUIS SERSIC",
            "country_name": "Argentina",
            "connectivity": false
        },
        {
            "lon": -58.22180811,
            "lat": -26.19312699,
            "school_name": "NEP Y FP N\u00ba 31 ATILIO P.LEZCANO - EPEP N\u00ba17-",
            "country_name": "Argentina",
            "connectivity": false
        },
        {
            "lon": -75.077,
            "lat": -12.3161,
            "school_name": "31067",
            "country_name": "Peru",
            "connectivity": false
        },
        {
            "lon": -78.5532,
            "lat": -7.48467,
            "school_name": "806",
            "country_name": "Peru",
            "connectivity": false
        },
        {
            "lon": 7.298903333,
            "lat": 6.454025,
            "school_name": "Name unknown",
            "country_name": "Nigeria",
            "connectivity": false
        },
        {
            "lon": 10.1837578,
            "lat": 12.6416798,
            "school_name": "Name unknown",
            "country_name": "Nigeria",
            "connectivity": false
        },
        {
            "lon": 7.47485762,
            "lat": 10.45406493,
            "school_name": "Name unknown",
            "country_name": "Nigeria",
            "connectivity": false
        },
        {
            "lon": 3.17102,
            "lat": 6.686831667,
            "school_name": "Name unknown",
            "country_name": "Nigeria",
            "connectivity": false
        },
        {
            "lon": 7.982987,
            "lat": 4.638979,
            "school_name": "Name unknown",
            "country_name": "Nigeria",
            "connectivity": false
        },
        {
            "lon": 4.239456,
            "lat": 8.114784,
            "school_name": "Name unknown",
            "country_name": "Nigeria",
            "connectivity": false
        },
        {
            "lon": 9.883103,
            "lat": 10.358679,
            "school_name": "Name unknown",
            "country_name": "Nigeria",
            "connectivity": false
        },
        {
            "lon": 9.748270968,
            "lat": 11.14358266,
            "school_name": "Name unknown",
            "country_name": "Nigeria",
            "connectivity": false
        },
        {
            "lon": 8.732084,
            "lat": 5.972739,
            "school_name": "Name unknown",
            "country_name": "Nigeria",
            "connectivity": false
        },
        {
            "lon": 66.97925,
            "lat": 39.12389,
            "school_name": "40 -  sonli umumta\u2018lim maktabi",
            "country_name": "Uzbekistan",
            "connectivity": false
        },
        {
            "lon": 71.76198,
            "lat": 41.39338,
            "school_name": "48 -  sonli umumta\u2018lim maktabi",
            "country_name": "Uzbekistan",
            "connectivity": false
        },
        {
            "lon": -101.34194,
            "lat": 20.7615,
            "school_name": "TELESECUNDARIA NUM. 49",
            "country_name": "Mexico",
            "connectivity": false
        },
        {
            "lon": -99.57976,
            "lat": 20.591758,
            "school_name": "TELESECUNDARIA 500",
            "country_name": "Mexico",
            "connectivity": false
        },
        {
            "lon": -99.026583,
            "lat": 21.273278,
            "school_name": "TELESECUNDARIA 582",
            "country_name": "Mexico",
            "connectivity": false
        },
        {
            "lon": -100.085623,
            "lat": 23.574109,
            "school_name": "SECUNDARIA COMUNITARIA",
            "country_name": "Mexico",
            "connectivity": false
        },
        {
            "lon": -100.240213,
            "lat": 20.60294,
            "school_name": "CARLOS FUENTES MACIAS",
            "country_name": "Mexico",
            "connectivity": false
        },
        {
            "lon": -107.702262,
            "lat": 24.767411,
            "school_name": "PROYECTO DE EDUCACION INTEGRAL A.C.",
            "country_name": "Mexico",
            "connectivity": false
        },
        {
            "lon": -95.07956,
            "lat": 17.91146,
            "school_name": "IGNACIO ZARAGOZA",
            "country_name": "Mexico",
            "connectivity": false
        },
        {
            "lon": 67.0783,
            "lat": 25.0021,
            "school_name": "GBHS - NO.1 5-F NEW KARACHI",
            "country_name": "Pakistan",
            "connectivity": false
        },
        {
            "lon": 67.9085,
            "lat": 27.1112,
            "school_name": "GBHS - BALI SHAH",
            "country_name": "Pakistan",
            "connectivity": false
        },
        {
            "lon": 67.9568,
            "lat": 27.9934,
            "school_name": "GBPS - GUL HASSAN JAMALI",
            "country_name": "Pakistan",
            "connectivity": false
        },
        {
            "lon": 68.153,
            "lat": 28.1307,
            "school_name": "GBPS - KHUSH MUHAMMAD PANHWAR",
            "country_name": "Pakistan",
            "connectivity": false
        },
        {
            "lon": 67.9907,
            "lat": 28.0463,
            "school_name": "GBPS - UMAR BABAR",
            "country_name": "Pakistan",
            "connectivity": false
        },
        {
            "lon": 68.5893,
            "lat": 28.3163,
            "school_name": "GBPS - BAHADUR PUR",
            "country_name": "Pakistan",
            "connectivity": false
        },
        {
            "lon": 67.9201,
            "lat": 27.3844,
            "school_name": "GGHSS - NASIRABAD.",
            "country_name": "Pakistan",
            "connectivity": false
        },
        {
            "lon": 68.1117,
            "lat": 27.7384,
            "school_name": "GBPS - HAMZO SHAR.",
            "country_name": "Pakistan",
            "connectivity": false
        },
        {
            "lon": 69.0373,
            "lat": 28.2264,
            "school_name": "GBPS - KHALIQUE DAD BAHALKANI",
            "country_name": "Pakistan",
            "connectivity": false
        },
        {
            "lon": 68.3472,
            "lat": 26.7369,
            "school_name": "GBPS - SABHAJH SHAR",
            "country_name": "Pakistan",
            "connectivity": false
        },
        {
            "lon": 68.3605,
            "lat": 26.9014,
            "school_name": "GBPS - SYED HAJI SHAMAS UDDIN SHAH",
            "country_name": "Pakistan",
            "connectivity": false
        },
        {
            "lon": 68.5952,
            "lat": 26.9781,
            "school_name": "GBHS - HAJI SOOMAR RAJAR",
            "country_name": "Pakistan",
            "connectivity": false
        },
        {
            "lon": 68.6356,
            "lat": 27.0908,
            "school_name": "GBPS - ALLAH WARAYO CHALGARI",
            "country_name": "Pakistan",
            "connectivity": false
        },
        {
            "lon": 68.6558,
            "lat": 27.1631,
            "school_name": "GBPS - WALI DINO KERYO",
            "country_name": "Pakistan",
            "connectivity": false
        },
        {
            "lon": 68.1989,
            "lat": 27.5468,
            "school_name": "GBHS - RAHMATPUR.",
            "country_name": "Pakistan",
            "connectivity": false
        },
        {
            "lon": 67.3251,
            "lat": 24.9428,
            "school_name": "GBPS - IKHTIAR JOKHIO",
            "country_name": "Pakistan",
            "connectivity": false
        },
        {
            "lon": 69.2041,
            "lat": 25.1454,
            "school_name": "GBPS - DONHAO SHARIF",
            "country_name": "Pakistan",
            "connectivity": false
        },
        {
            "lon": 69.0655,
            "lat": 25.3431,
            "school_name": "GBPS - MAHI KHASKHALI",
            "country_name": "Pakistan",
            "connectivity": false
        },
        {
            "lon": 69.0162,
            "lat": 25.3212,
            "school_name": "GBPS - MUHAMMAD HASSAN NOONDANI",
            "country_name": "Pakistan",
            "connectivity": false
        },
        {
            "lon": 69.1491,
            "lat": 25.6547,
            "school_name": "GBPS - GULL HUSSAIN MEHAR",
            "country_name": "Pakistan",
            "connectivity": false
        },
        {
            "lon": 68.5764,
            "lat": 25.7228,
            "school_name": "GBPS - MUHAMMAD KHAN MAJEEDANO",
            "country_name": "Pakistan",
            "connectivity": false
        },
        {
            "lon": 68.0278,
            "lat": 26.9131,
            "school_name": "GBPS - THAT SOLANGI",
            "country_name": "Pakistan",
            "connectivity": false
        },
        {
            "lon": 68.0808,
            "lat": 26.8778,
            "school_name": "GBPS - MUHAMMAD MOOSA BHAT",
            "country_name": "Pakistan",
            "connectivity": false
        },