{
    "name": "Patchwork Kingdom #454 | Papvilur",
    "description": "The twin kingdoms of Papvilur, separated by a digital divide. A bustling kingdom of 248 schools on top that are all connected to the internet, and 176 schools, not connected, hidden in the upside down kingdom | Created for Giga (GigaConnect.org) \u2014 connecting every school in the world \u2014 in celebration of UNICEF's 75th birthday, by Nadieh Bremer",
    "external_url": "https://dummyURL.com/patchwork_kingdoms_454",
    "image": "https://dummy-storage-url.com/patchwork_kingdoms_454.png",
    "attributes": [
        {
            "trait_type": "Color palette",
            "value": "santa's workshop"
        },
        {
            "display_type": "number",
            "trait_type": "Schools",
            "value": 450,
            "max_value": 460
        },
        {
            "display_type": "number",
            "trait_type": "Ratio - Connected",
            "value": 0.55,
            "max_value": 1
        },
        {
            "display_type": "number",
            "trait_type": "Ratio - Unconnected",
            "value": 0.39,
            "max_value": 1
        },
        {
            "display_type": "number",
            "trait_type": "Ratio - Data unavailable",
            "value": 0.06,
            "max_value": 1
        },
        {
            "trait_type": "Countries",
            "value": "AI-BJ-BR-CO-CR-HN-KG-KZ-NA-PH-PS-RW-SL-ZW"
        },
        {
            "display_type": "number",
            "trait_type": "Symbols",
            "value": 48,
            "max_value": 51
        }
    ],
    "cluster_id": 454,
    "num_schools": 450,
    "num_schools_connected": 248,
    "num_schools_unconnected": 176,
    "num_schools_unknown": 26,
    "schools": [
        {
            "lon": -49.828,
            "lat": -26.1369,
            "school_name": "CEIM GUNTHER WERNER",
            "country_name": "Brazil",
            "connectivity": true
        },
        {
            "lon": -88.33095,
            "lat": 14.05879,
            "school_name": "REPUBLICA DE COSTA RICA",
            "country_name": "Honduras",
            "connectivity": true
        },
        {
            "lon": -88.26086,
            "lat": 14.23748,
            "school_name": "CARITAS ALEGRES",
            "country_name": "Honduras",
            "connectivity": true
        },
        {
            "lon": -86.49916,
            "lat": 15.6867,
            "school_name": "OLGA PINEL DE JOSE",
            "country_name": "Honduras",
            "connectivity": true
        },
        {
            "lon": -87.80272,
            "lat": 14.29767,
            "school_name": "FRANCISCO MORAZAN",
            "country_name": "Honduras",
            "connectivity": true
        },
        {
            "lon": -88.04304,
            "lat": 14.02045,
            "school_name": "JOSE TRINIDAD CABA\u00c3\u2018AS",
            "country_name": "Honduras",
            "connectivity": true
        },
        {
            "lon": -88.11946,
            "lat": 14.10618,
            "school_name": "SANTOS VICTOR VENTURA VASQUEZ",
            "country_name": "Honduras",
            "connectivity": true
        },
        {
            "lon": -85.59883,
            "lat": 15.35261,
            "school_name": "OLGA MENDEZ",
            "country_name": "Honduras",
            "connectivity": true
        },
        {
            "lon": -85.79397,
            "lat": 15.09929,
            "school_name": "HENRY MENCIAS",
            "country_name": "Honduras",
            "connectivity": true
        },
        {
            "lon": -88.07707,
            "lat": 14.84449,
            "school_name": "GASPAR TINOCO",
            "country_name": "Honduras",
            "connectivity": true
        },
        {
            "lon": -86.81068,
            "lat": 15.33173,
            "school_name": "ADAN A QUEZADA",
            "country_name": "Honduras",
            "connectivity": true
        },
        {
            "lon": -87.5392,
            "lat": 15.45808,
            "school_name": "MARCO AURELIO SOTO",
            "country_name": "Honduras",
            "connectivity": true
        },
        {
            "lon": -51.442116,
            "lat": -23.192492,
            "school_name": "LAURO P TAVARES E E DR EF",
            "country_name": "Brazil",
            "connectivity": true
        },
        {
            "lon": -87.74157,
            "lat": 15.19654,
            "school_name": "MARCO AURELIO SOTO",
            "country_name": "Honduras",
            "connectivity": true
        },
        {
            "lon": -47.1127,
            "lat": -22.8502,
            "school_name": "JOSE NARCISO V EHRENBERG PADRE EMEF",
            "country_name": "Brazil",
            "connectivity": true
        },
        {
            "lon": -73.23805556,
            "lat": 6.500555556,
            "school_name": "Name unknown",
            "country_name": "Colombia",
            "connectivity": false
        },
        {
            "lon": -88.01513,
            "lat": 15.4268,
            "school_name": "JERONIMO SANDOVAL SORTO",
            "country_name": "Honduras",
            "connectivity": true
        },
        {
            "lon": -86.81299,
            "lat": 14.21766,
            "school_name": "RAMON ROSA",
            "country_name": "Honduras",
            "connectivity": true
        },
        {
            "lon": -86.74419,
            "lat": 14.35312,
            "school_name": "JEHOVA JIRETH",
            "country_name": "Honduras",
            "connectivity": true
        },
        {
            "lon": -86.06596,
            "lat": 14.15174,
            "school_name": "MARCO TULIO SOSA",
            "country_name": "Honduras",
            "connectivity": true
        },
        {
            "lon": -87.16404,
            "lat": 14.1349,
            "school_name": "DESARROLLO SOSTENIBLE",
            "country_name": "Honduras",
            "connectivity": true
        },
        {
            "lon": -86.91916,
            "lat": 14.94551,
            "school_name": "RICARDO MARTINEZ",
            "country_name": "Honduras",
            "connectivity": true
        },
        {
            "lon": -86.99444,
            "lat": 13.97104,
            "school_name": "ROBERTO HASBUN",
            "country_name": "Honduras",
            "connectivity": true
        },
        {
            "lon": -84.23544,
            "lat": 14.76518,
            "school_name": "JARDIN DE NI\u00c3\u2018OS SMELLING WOOD RONAS",
            "country_name": "Honduras",
            "connectivity": true
        },
        {
            "lon": 30.96414,
            "lat": -17.86155,
            "school_name": "LYTTON",
            "country_name": "Zimbabwe",
            "connectivity": true
        },
        {
            "lon": 32.01992,
            "lat": -19.00613,
            "school_name": "CHIDAMUNYU",
            "country_name": "Zimbabwe",
            "connectivity": true
        },
        {
            "lon": 29.5796666,
            "lat": -2.1566666,
            "school_name": "CYAMATARE",
            "country_name": "Rwanda",
            "connectivity": false
        },
        {
            "lon": -84.10042488,
            "lat": 9.94983087,
            "school_name": "ANTONIO JOSE DE SUCRE",
            "country_name": "Costa Rica",
            "connectivity": true
        },
        {
            "lon": -84.4552771,
            "lat": 10.07501655,
            "school_name": "RIO GRANDE",
            "country_name": "Costa Rica",
            "connectivity": true
        },
        {
            "lon": -84.66174359,
            "lat": 10.55939347,
            "school_name": "SAN ANTONIO",
            "country_name": "Costa Rica",
            "connectivity": true
        },
        {
            "lon": -83.40409155,
            "lat": 9.8207886,
            "school_name": "TSIPIRI",
            "country_name": "Costa Rica",
            "connectivity": true
        },
        {
            "lon": -83.55942214,
            "lat": 9.86319048,
            "school_name": "MATA DE GUINEO",
            "country_name": "Costa Rica",
            "connectivity": true
        },
        {
            "lon": -83.14298603,
            "lat": 8.3718706,
            "school_name": "SANTA CLARA",
            "country_name": "Costa Rica",
            "connectivity": true
        },
        {
            "lon": -82.9433822,
            "lat": 8.78695471,
            "school_name": "LOS ANGELES",
            "country_name": "Costa Rica",
            "connectivity": true
        },
        {
            "lon": 35.365683,
            "lat": 32.474195,
            "school_name": "Name unknown",
            "country_name": "Palestine",
            "connectivity": true
        },
        {
            "lon": 35.229361,
            "lat": 31.766839,
            "school_name": "Name unknown",
            "country_name": "Palestine",
            "connectivity": true
        },
        {
            "lon": 35.009145,
            "lat": 31.436083,
            "school_name": "abu al quslan prim",
            "country_name": "Palestine",
            "connectivity": true
        },
        {
            "lon": -82.8324576,
            "lat": 8.88223317,
            "school_name": "LA ESMERALDA",
            "country_name": "Costa Rica",
            "connectivity": true
        },
        {
            "lon": -83.66846797,
            "lat": 9.41951148,
            "school_name": "LINDA VISTA",
            "country_name": "Costa Rica",
            "connectivity": true
        },
        {
            "lon": -56.49273,
            "lat": -14.364182,
            "school_name": "ESCOLA MUNICIPAL DE PRE E 1\u00ba GRAU PREFEITO JOAO BATISTA DE ALMEIDA",
            "country_name": "Brazil",
            "connectivity": true
        },
        {
            "lon": 30.13443,
            "lat": -18.11315,
            "school_name": "KAGUVI",
            "country_name": "Zimbabwe",
            "connectivity": true
        },
        {
            "lon": 31.64585,
            "lat": -20.24308,
            "school_name": "BENGURA",
            "country_name": "Zimbabwe",
            "connectivity": true
        },
        {
            "lon": 26.46508,
            "lat": -18.39434,
            "school_name": "GEBHUZA  HIGH",
            "country_name": "Zimbabwe",
            "connectivity": true
        },
        {
            "lon": 28.84482,
            "lat": -20.4703,
            "school_name": "SHALE",
            "country_name": "Zimbabwe",
            "connectivity": true
        },
        {
            "lon": 28.85912,
            "lat": -21.51152,
            "school_name": "MAFUKO",
            "country_name": "Zimbabwe",
            "connectivity": true
        },
        {
            "lon": 27.74465,
            "lat": -20.7986,
            "school_name": "MADABE",
            "country_name": "Zimbabwe",
            "connectivity": true
        },
        {
            "lon": -78.30058891,
            "lat": 1.821965924,
            "school_name": "Name unknown",
            "country_name": "Colombia",
            "connectivity": false
        },
        {
            "lon": -74.10844858,
            "lat": 4.746813796,
            "school_name": "Name unknown",
            "country_name": "Colombia",
            "connectivity": false
        },
        {
            "lon": 119.817147,
            "lat": 16.148957,
            "school_name": "Patar ES",
            "country_name": "Philippines",
            "connectivity": true
        },
        {
            "lon": 121.7475028,
            "lat": 16.71793056,
            "school_name": "Campanario PS",
            "country_name": "Philippines",
            "connectivity": true
        },
        {
            "lon": 120.581588,
            "lat": 15.546855,
            "school_name": "Sta. Maria ES",
            "country_name": "Philippines",
            "connectivity": true
        },
        {
            "lon": 120.6733139,
            "lat": 15.25479722,
            "school_name": "Talimundoc Elementary School",
            "country_name": "Philippines",
            "connectivity": true
        },
        {
            "lon": 122.9520152,
            "lat": 13.06169105,
            "school_name": "Sta. Cruz ES",
            "country_name": "Philippines",
            "connectivity": true
        },
        {
            "lon": 123.581972,
            "lat": 13.014034,
            "school_name": "Tagbac ES",
            "country_name": "Philippines",
            "connectivity": true
        },
        {
            "lon": 123.2754178,
            "lat": 13.37518866,
            "school_name": "Tapayas ES",
            "country_name": "Philippines",
            "connectivity": true
        },
        {
            "lon": 124.961386,
            "lat": 10.317621,
            "school_name": "Cabascan Elementary School",
            "country_name": "Philippines",
            "connectivity": true
        },
        {
            "lon": 125.4033333,
            "lat": 12.18861111,
            "school_name": "Iwayan ES",
            "country_name": "Philippines",
            "connectivity": true
        },
        {
            "lon": 124.1495962,
            "lat": 12.46392701,
            "school_name": "San Luis ES",
            "country_name": "Philippines",
            "connectivity": true
        },
        {
            "lon": 125.5171664,
            "lat": 7.183057269,
            "school_name": "Talandang ES",
            "country_name": "Philippines",
            "connectivity": true
        },
        {
            "lon": 125.9477803,
            "lat": 9.262173702,
            "school_name": "Patongpatong ES",
            "country_name": "Philippines",
            "connectivity": true
        },
        {
            "lon": 122.180176,
            "lat": 6.542892,
            "school_name": "Bohebaca ES",
            "country_name": "Philippines",
            "connectivity": true
        },
        {
            "lon": 122.140846,
            "lat": 6.491668,
            "school_name": "Danapah ES",
            "country_name": "Philippines",
            "connectivity": true
        },
        {
            "lon": 120.747925,
            "lat": 16.476345,
            "school_name": "Adonot PS",
            "country_name": "Philippines",
            "connectivity": true
        },
        {
            "lon": 120.666632,
            "lat": 16.800045,
            "school_name": "Guing-oy PS",
            "country_name": "Philippines",
            "connectivity": true
        },
        {
            "lon": 120.6203282,
            "lat": 16.47588811,
            "school_name": "Pagal ES",
            "country_name": "Philippines",
            "connectivity": true
        },
        {
            "lon": 120.63,
            "lat": 17.6638,
            "school_name": "Sidongan PS",
            "country_name": "Philippines",
            "connectivity": true
        },
        {
            "lon": -43.966316,
            "lat": -19.999292,
            "school_name": "ESCOLA MUNICIPAL PEDRO NAVA",
            "country_name": "Brazil",
            "connectivity": true
        },
        {
            "lon": -42.464252,
            "lat": -22.902971,
            "school_name": "ESCOLA MUNICIPAL LUCIO NUNES",
            "country_name": "Brazil",
            "connectivity": true
        },
        {
            "lon": -88.55626,
            "lat": 15.29231,
            "school_name": "ESCUELA JOSE TRINIDAD  CABA\u00c3\u0090AS",
            "country_name": "Honduras",
            "connectivity": true
        },
        {
            "lon": -87.48174,
            "lat": 13.55551,
            "school_name": "CRISTIAN OSIRIS ESCOBAR",
            "country_name": "Honduras",
            "connectivity": true
        },
        {
            "lon": -87.89529,
            "lat": 15.73855,
            "school_name": "MARY LOU",
            "country_name": "Honduras",
            "connectivity": true
        },
        {
            "lon": -72.54353322,
            "lat": 6.246399356,
            "school_name": "I.E.T. AGROINDUSTRIAL CUSAGUI - SEDE PRINCIPAL",
            "country_name": "Colombia",
            "connectivity": true
        },
        {
            "lon": -72.28354253,
            "lat": 11.45348466,
            "school_name": "SEDE JARESAPAIN",
            "country_name": "Colombia",
            "connectivity": true
        },
        {
            "lon": -72.18194444,
            "lat": 5.438055556,
            "school_name": "SAN JOSE",
            "country_name": "Colombia",
            "connectivity": true
        },
        {
            "lon": -72.47652778,
            "lat": 6.16686111,
            "school_name": "ESC VICHACUCA",
            "country_name": "Colombia",
            "connectivity": true
        },
        {
            "lon": -72.760278,
            "lat": 5.784722,
            "school_name": "ESC CHITAL",
            "country_name": "Colombia",
            "connectivity": true
        },
        {
            "lon": -72.36651398,
            "lat": 11.48291261,
            "school_name": "SEDE JAIPALIIJUNAI",
            "country_name": "Colombia",
            "connectivity": true
        },
        {
            "lon": -73.029722,
            "lat": 5.817778,
            "school_name": "PRINCIPAL INTEGRADO",
            "country_name": "Colombia",
            "connectivity": true
        },
        {
            "lon": -72.976389,
            "lat": 2.349722,
            "school_name": "CA\u00d1O PESCADO",
            "country_name": "Colombia",
            "connectivity": true
        },
        {
            "lon": -73.07405462,
            "lat": 7.172854388,
            "school_name": "CER BOSCONIA SEDE D BOLARQUI",
            "country_name": "Colombia",
            "connectivity": true
        },
        {
            "lon": -72.93410105,
            "lat": 11.53423771,
            "school_name": "CENTRO EDUCATIVO NUEVO HORIZONTE",
            "country_name": "Colombia",
            "connectivity": true
        },
        {
            "lon": -73.23350141,
            "lat": 9.904407928,
            "school_name": "ESCUELA INDIGENA TEWA",
            "country_name": "Colombia",
            "connectivity": true
        },
        {
            "lon": -73.76690199,
            "lat": 8.253158892,
            "school_name": "LAS PAILAS",
            "country_name": "Colombia",
            "connectivity": true
        },
        {
            "lon": -74.9925,
            "lat": 6.893056,
            "school_name": "C. E. R. CARLOS ESCOBAR CAMBAS",
            "country_name": "Colombia",
            "connectivity": true
        },
        {
            "lon": -74.79944786,
            "lat": 10.95166647,
            "school_name": "INST. EDUC. DIST. LA VICTORIA (ANT. C.E.B. # 060)",
            "country_name": "Colombia",
            "connectivity": true
        },
        {
            "lon": -75.309722,
            "lat": 5.708056,
            "school_name": "I. E. TECNICO AGROPECUARIO Y EN SALUD DE SONS\u00d3N",
            "country_name": "Colombia",
            "connectivity": true
        },
        {
            "lon": -75.298611,
            "lat": 6.2025,
            "school_name": "C. E. R. CANONIGO ULPIANO RAMIREZ",
            "country_name": "Colombia",
            "connectivity": true
        },
        {
            "lon": -75.19173933,
            "lat": 10.22885752,
            "school_name": "LUIS C GALAN SARMIENTO",
            "country_name": "Colombia",
            "connectivity": true
        },
        {
            "lon": -75.62138889,
            "lat": 1.652222222,
            "school_name": "LA CARBONA",
            "country_name": "Colombia",
            "connectivity": true
        },
        {
            "lon": -75.61065435,
            "lat": 7.697807161,
            "school_name": "I.E. CORAZ\u00d2N DE MAR\u00ccA",
            "country_name": "Colombia",
            "connectivity": true
        },
        {
            "lon": -75.93251379,
            "lat": 4.272446444,
            "school_name": "SAN JUAN BOSCO",
            "country_name": "Colombia",
            "connectivity": true
        },
        {
            "lon": -76.05250548,
            "lat": 1.857081615,
            "school_name": "IE MUNICIPAL HUMBERTO MU\u00d1OZ ORDO\u00d1EZ - SEDE PRINCIPAL",
            "country_name": "Colombia",
            "connectivity": true
        },
        {
            "lon": -76.30381573,
            "lat": 3.898531695,
            "school_name": "CARLOTA ARMERO",
            "country_name": "Colombia",
            "connectivity": true
        },
        {
            "lon": -76.27013791,
            "lat": 3.613776923,
            "school_name": "FRANCISCO DE PAULA SANTANDER",
            "country_name": "Colombia",
            "connectivity": true
        },
        {
            "lon": -76.317666,
            "lat": 3.051334,
            "school_name": "EL VERGEL",
            "country_name": "Colombia",
            "connectivity": true
        },
        {
            "lon": -76.380543,
            "lat": 1.863592,
            "school_name": "PORVENIR",
            "country_name": "Colombia",
            "connectivity": true
        },
        {
            "lon": -76.48039151,
            "lat": 3.453583818,
            "school_name": "JOSE MARIA VILLEGAS",
            "country_name": "Colombia",
            "connectivity": true
        },
        {
            "lon": -76.437768,
            "lat": 2.901605,
            "school_name": "ESCUELA RURAL MIXTA RIO CLARO",
            "country_name": "Colombia",
            "connectivity": true
        },
        {
            "lon": -76.41916667,
            "lat": 2.72111111,
            "school_name": "CENTRO DOCENTE RURAL MIXTO LAGUNA SECA",
            "country_name": "Colombia",
            "connectivity": true
        },
        {
            "lon": -76.506667,
            "lat": 7.773056,
            "school_name": "E R I CAMPAMENTO",
            "country_name": "Colombia",
            "connectivity": true
        },
        {
            "lon": -76.540833,
            "lat": 7.324722,
            "school_name": "C. E. R. INDIGENISTA EL SILENCIO",
            "country_name": "Colombia",
            "connectivity": true
        },
        {
            "lon": -76.582047,
            "lat": 2.903848,
            "school_name": "ESCUELA RURAL MIXTA LA CONCEPCION",
            "country_name": "Colombia",
            "connectivity": true
        },
        {
            "lon": -76.551385,
            "lat": 2.89258,
            "school_name": "JOSE EUSTACIO RIVERA",
            "country_name": "Colombia",
            "connectivity": true
        },
        {
            "lon": -76.606944,
            "lat": 8.561389,
            "school_name": "E R I SUCIO ARRIBA",
            "country_name": "Colombia",
            "connectivity": true
        },
        {
            "lon": -76.61012894,
            "lat": 7.880247695,
            "school_name": "20 DE ENERO",
            "country_name": "Colombia",
            "connectivity": true
        },
        {
            "lon": -76.77971416,
            "lat": 3.122799942,
            "school_name": "ESCUELA RURAL MIXTA RIO AZUL",
            "country_name": "Colombia",
            "connectivity": true
        },
        {
            "lon": -76.85481095,
            "lat": 1.913648379,
            "school_name": "CHORRILLOS",
            "country_name": "Colombia",
            "connectivity": true
        },
        {
            "lon": -77.269722,
            "lat": 1.573333,
            "school_name": "CENTRO EDUCAT BELLAVISTA",
            "country_name": "Colombia",
            "connectivity": true
        },
        {
            "lon": -77.0795061,
            "lat": 1.775732448,
            "school_name": "SAN JOAQUIN",
            "country_name": "Colombia",
            "connectivity": true
        },
        {
            "lon": -43.87603,
            "lat": -4.4491987,
            "school_name": "EM JARDIM SAO JOSE",
            "country_name": "Brazil",
            "connectivity": true
        },
        {
            "lon": -77.72873592,
            "lat": 1.375767163,
            "school_name": "CENTRO EDUCATIVO GUADUALITO",
            "country_name": "Colombia",
            "connectivity": true
        },
        {
            "lon": -77.45103333,
            "lat": 1.19511111,
            "school_name": "CENTRO EDUCATIVO ALTO BOMBONA",
            "country_name": "Colombia",
            "connectivity": true
        },
        {
            "lon": -77.61608962,
            "lat": 1.367488843,
            "school_name": "CENTRO EDUCATIVO ALTO PACUAL",
            "country_name": "Colombia",
            "connectivity": true
        },
        {
            "lon": -62.9013,
            "lat": -10.3433,
            "school_name": "EEEFM FREI HENRIQUE DE COIMBRA",
            "country_name": "Brazil",
            "connectivity": true
        },
        {
            "lon": -71.4161,
            "lat": -7.1811,
            "school_name": "ESC MUN DONA ENEDINA HERCULANO",
            "country_name": "Brazil",
            "connectivity": true
        },
        {
            "lon": -63.1416,
            "lat": -4.0915,
            "school_name": "ESCOLA ESTADUAL PREFEITO ALEXANDRE MONTORIL",
            "country_name": "Brazil",
            "connectivity": true
        },
        {
            "lon": -60.0531,
            "lat": -3.0831,
            "school_name": "ESCOLA ESTADUAL MARIA DE LOURDES RODRIGUES ARRUDA",
            "country_name": "Brazil",
            "connectivity": true
        },
        {
            "lon": -58.1333,
            "lat": -2.3291,
            "school_name": "ESCOLA MUNICIPAL FERNANDO FALABELLA",
            "country_name": "Brazil",
            "connectivity": false
        },
        {
            "lon": -59.9502,
            "lat": -3.02,
            "school_name": "EM ALMERON CAMINHA MONTEIRO",
            "country_name": "Brazil",
            "connectivity": true
        },
        {
            "lon": -60.7725,
            "lat": 2.7956,
            "school_name": "COLEGIO ESTADUAL MILITARIZADO PROFESSORA ELZA BREVES DE CARVALHO",
            "country_name": "Brazil",
            "connectivity": true
        },
        {
            "lon": -54.7607,
            "lat": -2.1931,
            "school_name": "E M E F STA CRUZ",
            "country_name": "Brazil",
            "connectivity": true
        },
        {
            "lon": -52.5782,
            "lat": -1.5241,
            "school_name": "E M E F SAGRADA FAMILIA",
            "country_name": "Brazil",
            "connectivity": false
        },
        {
            "lon": -47.854,
            "lat": -0.7352,
            "school_name": "EEEF MARIA HYLUISA PINTO FERREIRA",
            "country_name": "Brazil",
            "connectivity": true
        },
        {
            "lon": -49.0968,
            "lat": -6.5539,
            "school_name": "E M E F ITAIPAVAS",
            "country_name": "Brazil",
            "connectivity": false
        },
        {
            "lon": -48.1648,
            "lat": -1.4589,
            "school_name": "EMEIF AGRICOLA JOAO POSSIDONIO ALVES FARO",
            "country_name": "Brazil",
            "connectivity": false
        },
        {
            "lon": -48.3021,
            "lat": -1.3798,
            "school_name": "E M E I F CELIA ASTRAL",
            "country_name": "Brazil",
            "connectivity": true
        },
        {
            "lon": -54.7275,
            "lat": -1.6717,
            "school_name": "E M E I F SANTO ANTONIO V",
            "country_name": "Brazil",
            "connectivity": false
        },
        {
            "lon": -51.064,
            "lat": -0.7548,
            "school_name": "E M E F SEBASTIAO AMADO II RIO MUTUTI DOS MELOS",
            "country_name": "Brazil",
            "connectivity": false
        },
        {
            "lon": -54.4799,
            "lat": -3.2593,
            "school_name": "E M E F SAO FRANCISCO",
            "country_name": "Brazil",
            "connectivity": false
        },
        {
            "lon": -48.108,
            "lat": -20.0588,
            "school_name": "EM GENERAL OSORIO",
            "country_name": "Brazil",
            "connectivity": true
        },
        {
            "lon": -48.9126,
            "lat": -10.5689,
            "school_name": "COLEGIO ESTADUAL VEREADOR PEDRO XAVIER TEIXEIRA",
            "country_name": "Brazil",
            "connectivity": true
        },
        {
            "lon": -44.1981,
            "lat": -2.5736,
            "school_name": "CENTRO DE ENSINO SAO JOSE OPERARIO",
            "country_name": "Brazil",
            "connectivity": true
        },
        {
            "lon": -45.0544,
            "lat": -1.578,
            "school_name": "UE MANOEL VERISSIMO DOS SANTOS",
            "country_name": "Brazil",
            "connectivity": false
        },
        {
            "lon": -45.0611,
            "lat": -1.5517,
            "school_name": "UE DEUSELINA NASCIMENTO",
            "country_name": "Brazil",
            "connectivity": false
        },
        {
            "lon": -44.1078,
            "lat": -2.5333,
            "school_name": "UEB LEDA TAJRA",
            "country_name": "Brazil",
            "connectivity": false
        },
        {
            "lon": -44.2502,
            "lat": -2.9484,
            "school_name": "UNIDADE INTEGRADA KLEPER AQUINO",
            "country_name": "Brazil",
            "connectivity": true
        },
        {
            "lon": -45.182,
            "lat": -3.2823,
            "school_name": "UE DOMINGOS GOMES",
            "country_name": "Brazil",
            "connectivity": false
        },
        {
            "lon": -44.8708,
            "lat": -3.8672,
            "school_name": "EM PE CLAUDIO BERGAMASCHI",
            "country_name": "Brazil",
            "connectivity": false
        },
        {
            "lon": -45.7288,
            "lat": -4.2333,
            "school_name": "UE JARBAS PASSARINHO",
            "country_name": "Brazil",
            "connectivity": true
        },
        {
            "lon": -42.3163,
            "lat": -22.864,
            "school_name": "E M PARATI",
            "country_name": "Brazil",
            "connectivity": true
        },
        {
            "lon": -44.8841,
            "lat": -4.8655,
            "school_name": "EM JULIO MELO",
            "country_name": "Brazil",
            "connectivity": true
        },
        {
            "lon": -44.8995,
            "lat": -6.0351,
            "school_name": "ESCOLA MUNICIPAL DE EDUCACAO BASICA MARIANO FERREIRA DE SOUSA",
            "country_name": "Brazil",
            "connectivity": true
        },
        {
            "lon": -44.9012,
            "lat": -5.6904,
            "school_name": "EM JOSE AUGUSTO FILHO SOBRINHO",
            "country_name": "Brazil",
            "connectivity": true
        },
        {
            "lon": -43.3515,
            "lat": -3.0517,
            "school_name": "GE ESTER FLORA DE ARAUJO",
            "country_name": "Brazil",
            "connectivity": false
        },
        {
            "lon": -43.7649,
            "lat": -4.7135,
            "school_name": "ESCOLA MUNICIPAL BENTA MOTA SALAZAR",
            "country_name": "Brazil",
            "connectivity": false
        },
        {
            "lon": -45.0925,
            "lat": -3.3646,
            "school_name": "ESCOLA MUNICIPAL SANTO EXPEDITO",
            "country_name": "Brazil",
            "connectivity": false
        },
        {
            "lon": -44.1748,
            "lat": -2.5713,
            "school_name": "EM GONCALVES DIAS",
            "country_name": "Brazil",
            "connectivity": true
        },
        {
            "lon": -47.8896,
            "lat": -4.9417,
            "school_name": "UNIDADE INTEGRADA SANTA IZABEL",
            "country_name": "Brazil",
            "connectivity": true
        },
        {
            "lon": -44.5768,
            "lat": -3.5606,
            "school_name": "CENTRO DE ENSINO JOSE FURTADO BEZERRA",
            "country_name": "Brazil",
            "connectivity": true
        },
        {
            "lon": -45.9345,
            "lat": -4.0047,
            "school_name": "EM FAZENDA GUARACY",
            "country_name": "Brazil",
            "connectivity": false
        },
        {
            "lon": -46.6685,
            "lat": -4.2056,
            "school_name": "EMEB JUSCELINO KUBSCHECK",
            "country_name": "Brazil",
            "connectivity": false
        },
        {
            "lon": -44.321,
            "lat": -4.2688,
            "school_name": "EM SAO FRANCISCO",
            "country_name": "Brazil",
            "connectivity": false
        },
        {
            "lon": -45.3046,
            "lat": -2.0752,
            "school_name": "EM PROTECAO DE JESUS",
            "country_name": "Brazil",
            "connectivity": false
        },
        {
            "lon": -44.6488,
            "lat": -4.837,
            "school_name": "CENTRO DE ENSINO JOAQUIM SALVIANO - ANEXO III- FORTALEZA BEIRA RIO",
            "country_name": "Brazil",
            "connectivity": true
        },
        {
            "lon": -46.1076,
            "lat": -5.7961,
            "school_name": "IFMA - CAMPUS GRAJAU",
            "country_name": "Brazil",
            "connectivity": true
        },
        {
            "lon": -44.2566,
            "lat": -6.0246,
            "school_name": "ESCOLA ELISABETTA RENZI",
            "country_name": "Brazil",
            "connectivity": true
        },
        {
            "lon": -42.0654,
            "lat": -3.5811,
            "school_name": "U E JOAO LUCAS ESCORCIO",
            "country_name": "Brazil",
            "connectivity": false
        },
        {
            "lon": -41.7575,
            "lat": -2.9125,
            "school_name": "ESC MUL DOMINGOS RUBEM UCHOA",
            "country_name": "Brazil",
            "connectivity": true
        },
        {
            "lon": -44.1987,
            "lat": -6.9694,
            "school_name": "INSTITUICAO DE EDUCACAO INFANTIL RENATA CRISTINA",
            "country_name": "Brazil",
            "connectivity": false
        },
        {
            "lon": -41.2304,
            "lat": -8.2758,
            "school_name": "UNIDADE ESC JOVINO GOMES FERREIRA",
            "country_name": "Brazil",
            "connectivity": true
        },
        {
            "lon": -42.4409,
            "lat": -5.8603,
            "school_name": "ESCOLA MUNICIPAL ABDIAS FRANCISCO DOS SANTOS",
            "country_name": "Brazil",
            "connectivity": true
        },
        {
            "lon": -42.828,
            "lat": -4.9992,
            "school_name": "CETI JOSE PEREIRA DA SILVA",
            "country_name": "Brazil",
            "connectivity": true
        },
        {
            "lon": -40.8103,
            "lat": -3.6007,
            "school_name": "SANTA RITA EMEI",
            "country_name": "Brazil",
            "connectivity": true
        },
        {
            "lon": -39.7469,
            "lat": -3.2785,
            "school_name": "FCO JOSE MAGALHAES ESC EDUC BASICA",
            "country_name": "Brazil",
            "connectivity": true
        },
        {
            "lon": -39.1979,
            "lat": -4.2341,
            "school_name": "CARMOZINA BITTENCOURT DE PINHO EEF",
            "country_name": "Brazil",
            "connectivity": true
        },
        {
            "lon": -39.2522,
            "lat": -4.388,
            "school_name": "VALDEMAR GOMES DA SILVA ESC MUL",
            "country_name": "Brazil",
            "connectivity": false
        },
        {
            "lon": -38.9318,
            "lat": -4.2699,
            "school_name": "JOAO XXIII ESC MUL DE EDUC INFANTIL E ENS FUND",
            "country_name": "Brazil",
            "connectivity": false
        },
        {
            "lon": -40.8539,
            "lat": -5.5892,
            "school_name": "HONORIO FERNANDES ARAUJO E E F",
            "country_name": "Brazil",
            "connectivity": true
        },
        {
            "lon": -39.7603,
            "lat": -7.2478,
            "school_name": "OSVALDO DAXO DE ALENCAR EMEIEF",
            "country_name": "Brazil",
            "connectivity": true
        },
        {
            "lon": -38.9891,
            "lat": -6.3667,
            "school_name": "JUVINO PATRICIO DA SILVA EEF",
            "country_name": "Brazil",
            "connectivity": false
        },
        {
            "lon": -44.7787,
            "lat": -20.183,
            "school_name": "EE SAO FRANCISCO DE ASSIS",
            "country_name": "Brazil",
            "connectivity": true
        },
        {
            "lon": -38.4717,
            "lat": -3.7904,
            "school_name": "EEMTI JOAO NOGUEIRA JUCA",
            "country_name": "Brazil",
            "connectivity": true
        },
        {
            "lon": -40.778,
            "lat": -4.2763,
            "school_name": "ANTONIO OTAVIANO DE MELO EMEB",
            "country_name": "Brazil",
            "connectivity": true
        },
        {
            "lon": -35.2101,
            "lat": -6.0901,
            "school_name": "EM PROFESSORA MARIA DOLORES REGINA DE MACEDO LEITE",
            "country_name": "Brazil",
            "connectivity": false
        },
        {
            "lon": -37.7159,
            "lat": -6.0762,
            "school_name": "CRECHE MUNICIPAL CAMINHO PARA O FUTURO",
            "country_name": "Brazil",
            "connectivity": true
        },
        {
            "lon": -35.2387,
            "lat": -5.7363,
            "school_name": "CMEI SANTA CECILIA",
            "country_name": "Brazil",
            "connectivity": true
        },
        {
            "lon": -50.6048,
            "lat": -5.0433,
            "school_name": "E M E F PEDRO LUIS DE CAMARGO",
            "country_name": "Brazil",
            "connectivity": true
        },
        {
            "lon": -35.9598,
            "lat": -7.0875,
            "school_name": "ESCOLA MUNICIPAL DE ENSINO FUNDAMENTAL ERASMO DE ARAUJO SOUZA",
            "country_name": "Brazil",
            "connectivity": true
        },
        {
            "lon": -35.5469,
            "lat": -6.9511,
            "school_name": "ESC MUL PROFESSOR NEU",
            "country_name": "Brazil",
            "connectivity": true
        },
        {
            "lon": -35.1155,
            "lat": -7.4016,
            "school_name": "CRECHE MUL JULIETA PEDROSA R DA COSTA",
            "country_name": "Brazil",
            "connectivity": true
        },
        {
            "lon": -35.1074,
            "lat": -7.4035,
            "school_name": "ESCOLA MUNICIPAL JACIRA DE SOUZA CESAR",
            "country_name": "Brazil",
            "connectivity": true
        },
        {
            "lon": -37.9573,
            "lat": -7.9092,
            "school_name": "ESCOLA MUNICIPAL JUSTINO GOMES DUARTE",
            "country_name": "Brazil",
            "connectivity": true
        },
        {
            "lon": -37.7654,
            "lat": -7.6617,
            "school_name": "ESCOLA MUL IMACULADA CONCEICAO",
            "country_name": "Brazil",
            "connectivity": true
        },
        {
            "lon": -35.1685,
            "lat": -7.8551,
            "school_name": "ESCOLA MUNICIPAL DO JUNCO",
            "country_name": "Brazil",
            "connectivity": true
        },
        {
            "lon": -48.8772,
            "lat": -1.7156,
            "school_name": "CRECHE MUNICIPAL FRANCISCO MAUES CARVALHO",
            "country_name": "Brazil",
            "connectivity": true
        },
        {
            "lon": -37.4252,
            "lat": -10.5712,
            "school_name": "ESCOLA MUNICIPAL MARIA IRENE BARBOSA PORTELA",
            "country_name": "Brazil",
            "connectivity": false
        },
        {
            "lon": -38.2046,
            "lat": -10.7792,
            "school_name": "ESC AGRICOLA MUL PRES JOSE SARNEY",
            "country_name": "Brazil",
            "connectivity": true
        },
        {
            "lon": -36.9587,
            "lat": -10.0252,
            "school_name": "COLEGIO ESTADUAL MONSENHOR FERNANDO GRACA LEITE",
            "country_name": "Brazil",
            "connectivity": true
        },
        {
            "lon": -37.1266,
            "lat": -10.6051,
            "school_name": "ESCOLA MUL JOSEFA MONTEIRO",
            "country_name": "Brazil",
            "connectivity": false
        },
        {
            "lon": -46.9791,
            "lat": -4.6799,
            "school_name": "EM ANTONIO ALVES MOREIRA",
            "country_name": "Brazil",
            "connectivity": true
        },
        {
            "lon": -41.7765,
            "lat": -4.2836,
            "school_name": "U E EMB ESPEDITO RESENDE",
            "country_name": "Brazil",
            "connectivity": true
        },
        {
            "lon": -41.9612,
            "lat": -11.1435,
            "school_name": "ESCOLA MUNICIPAL HIGINO DE CARVALHO",
            "country_name": "Brazil",
            "connectivity": true
        },
        {
            "lon": -38.0852,
            "lat": -11.2372,
            "school_name": "JOAO ESTEVE MALAQUIAS",
            "country_name": "Brazil",
            "connectivity": false
        },
        {
            "lon": -42.205,
            "lat": -13.1853,
            "school_name": "ESCOLA MUNICIPAL FRANCISCO SILVA",
            "country_name": "Brazil",
            "connectivity": false
        },
        {
            "lon": -39.4476,
            "lat": -17.1065,
            "school_name": "ESCOLA MUNICIPAL DOIS DE JULHO",
            "country_name": "Brazil",
            "connectivity": true
        },
        {
            "lon": -38.2688,
            "lat": -9.4047,
            "school_name": "ESCOLA MUNICIPAL SAO JOSE",
            "country_name": "Brazil",
            "connectivity": true
        },
        {
            "lon": -41.1527,
            "lat": -11.5531,
            "school_name": "CENTRO MUNICIPAL DE EDUCACAO INFANTIL SECUNDINA MIRANDA",
            "country_name": "Brazil",
            "connectivity": true
        },
        {
            "lon": -44.0298,
            "lat": -20.0153,
            "school_name": "ESCOLA MUNICIPAL JONAS BARCELLOS CORREA",
            "country_name": "Brazil",
            "connectivity": true
        },
        {
            "lon": -43.931,
            "lat": -19.8566,
            "school_name": "ESCOLA MUNICIPAL JOSEFINA SOUZA LIMA",
            "country_name": "Brazil",
            "connectivity": true
        },
        {
            "lon": -43.6234,
            "lat": -21.0636,
            "school_name": "EE PREFEITO JOSE PAULO DE ASSIS",
            "country_name": "Brazil",
            "connectivity": true
        },
        {
            "lon": -41.9151,
            "lat": -20.0815,
            "school_name": "EM DA FAZ DOS HONORIOS",
            "country_name": "Brazil",
            "connectivity": false
        },
        {
            "lon": -43.8679,
            "lat": -16.4611,
            "school_name": "EM ALEXANDRE MARTINS DURAES",
            "country_name": "Brazil",
            "connectivity": true
        },
        {
            "lon": -42.9944,
            "lat": -16.6767,
            "school_name": "EM SEREIA DE PINHO",
            "country_name": "Brazil",
            "connectivity": false
        },
        {
            "lon": -44.9254,
            "lat": -17.3443,
            "school_name": "EM DR OTAVIO VIEIRA MACHADO",
            "country_name": "Brazil",
            "connectivity": true
        },
        {
            "lon": -42.8362,
            "lat": -21.6129,
            "school_name": "EM DR CUSTODIO JUNQUEIRA",
            "country_name": "Brazil",
            "connectivity": true
        },
        {
            "lon": -43.2754,
            "lat": -20.3975,
            "school_name": "EE DONA REPARATA DIAS DE OLIVEIRA",
            "country_name": "Brazil",
            "connectivity": true
        },
        {
            "lon": -49.5816,
            "lat": -18.6872,
            "school_name": "EM BAIXADINHA",
            "country_name": "Brazil",
            "connectivity": true
        },
        {
            "lon": -41.0068,
            "lat": -16.9083,
            "school_name": "EM MONTES CLAROS",
            "country_name": "Brazil",
            "connectivity": true
        },
        {
            "lon": -46.989,
            "lat": -18.9446,
            "school_name": "COLEGIO MUNICIPAL PROFESSOR OLIMPIO DOS SANTOS",
            "country_name": "Brazil",
            "connectivity": true
        },
        {
            "lon": -42.2344,
            "lat": -19.6269,
            "school_name": "CENTRO MUNICIPAL DE EDUCACAO INFANTIL DULCE PAIVA",
            "country_name": "Brazil",
            "connectivity": true
        },
        {
            "lon": -53.8484,
            "lat": -25.1457,
            "school_name": "MONTEIRO LOBATO C E E F M P",
            "country_name": "Brazil",
            "connectivity": true
        },
        {
            "lon": -36.9744,
            "lat": -10.1395,
            "school_name": "COLEGIO ESTADUAL SAO FRANCISCO DE ASSIS",
            "country_name": "Brazil",
            "connectivity": true
        },
        {
            "lon": -40.3326,
            "lat": -18.9316,
            "school_name": "EMUEF CORREGO DA SAUDE",
            "country_name": "Brazil",
            "connectivity": false
        },
        {
            "lon": -40.8314,
            "lat": -20.7133,
            "school_name": "EMUEF PEDRA LISA ALTA",
            "country_name": "Brazil",
            "connectivity": true
        },
        {
            "lon": -41.5088,
            "lat": -20.3588,
            "school_name": "EMEF LENILCE HERINGER CEZAR RAMOS",
            "country_name": "Brazil",
            "connectivity": false
        },
        {
            "lon": -40.5214,
            "lat": -18.096,
            "school_name": "CENTRO CULTURAL TOQUE E CANTE MUCURICI",
            "country_name": "Brazil",
            "connectivity": true
        },
        {
            "lon": -52.0684,
            "lat": -17.5258,
            "school_name": "ESCOLA MUNICIPAL ULISSES GUIMARAES",
            "country_name": "Brazil",
            "connectivity": true
        },
        {
            "lon": -52.6383,
            "lat": -28.4947,
            "school_name": "EMEF MARCILIO DIAS",
            "country_name": "Brazil",
            "connectivity": true
        },
        {
            "lon": -41.0585,
            "lat": -21.4763,
            "school_name": "E M DIRCEU DIAS DA SILVA",
            "country_name": "Brazil",
            "connectivity": true
        },
        {
            "lon": -42.4568,
            "lat": -21.88,
            "school_name": "CE DOUTOR FRANCISCO LEITE TEIXEIRA",
            "country_name": "Brazil",
            "connectivity": true
        },
        {
            "lon": -44.352,
            "lat": -23.0542,
            "school_name": "E M ALBERTO TORRES",
            "country_name": "Brazil",
            "connectivity": false
        },
        {
            "lon": -37.1921,
            "lat": -10.4967,
            "school_name": "CENTRO DE EDUCACAO INFANTIL PETRONILHO DE MENEZES COTIAS",
            "country_name": "Brazil",
            "connectivity": true
        },
        {
            "lon": -45.0052,
            "lat": -12.1235,
            "school_name": "CENTRO DE EDUCACAO INFANTIL NOSSA SENHORA DAS GRACAS",
            "country_name": "Brazil",
            "connectivity": true
        },
        {
            "lon": -43.3547,
            "lat": -22.9238,
            "school_name": "0716031 ESCOLA MUNICIPAL GENERAL JOAO MENDONCA LIMA",
            "country_name": "Brazil",
            "connectivity": true
        },
        {
            "lon": -47.3959,
            "lat": -22.1786,
            "school_name": "JULIA RODRIGUES LEME DONA EMEB",
            "country_name": "Brazil",
            "connectivity": true
        },
        {
            "lon": -43.3568,
            "lat": -22.8104,
            "school_name": "0625020 ESCOLA MUNICIPAL ARTUR AZEVEDO",
            "country_name": "Brazil",
            "connectivity": true
        },
        {
            "lon": -42.9529,
            "lat": -22.7944,
            "school_name": "EE LEONOR FRANCO MOREIRA",
            "country_name": "Brazil",
            "connectivity": true
        },
        {
            "lon": -52.4242,
            "lat": -22.3739,
            "school_name": "ASSENTAMENTO SANTA ZELIA",
            "country_name": "Brazil",
            "connectivity": true
        },
        {
            "lon": -43.3912,
            "lat": -22.8063,
            "school_name": "EE SAO FRANCISCO DE ASSIS",
            "country_name": "Brazil",
            "connectivity": true
        },
        {
            "lon": -47.1337,
            "lat": -22.9589,
            "school_name": "MILTON SANTOS PROFESSOR CEI NAVE MAE",
            "country_name": "Brazil",
            "connectivity": true
        },
        {
            "lon": -49.4666,
            "lat": -20.6186,
            "school_name": "CRECHE ESCOLA MARIA LUIZA",
            "country_name": "Brazil",
            "connectivity": true
        },
        {
            "lon": -50.3283,
            "lat": -21.5036,
            "school_name": "CENTRO DE EDUCACAO INFANTIL PROFESSORA ECYRA MUCILLO GARCIA",
            "country_name": "Brazil",
            "connectivity": true
        },
        {
            "lon": -46.8167,
            "lat": -23.687,
            "school_name": "HANS LUDWIG SCHMIDT EM",
            "country_name": "Brazil",
            "connectivity": true
        },
        {
            "lon": -45.3038,
            "lat": -22.8978,
            "school_name": "FRANCISCO DE PAULA SANTOS PROF",
            "country_name": "Brazil",
            "connectivity": false
        },
        {
            "lon": -46.75,
            "lat": -23.4785,
            "school_name": "JOAO NOGUEIRA LOTUFO PROFESSOR",
            "country_name": "Brazil",
            "connectivity": true
        },
        {
            "lon": -46.7523,
            "lat": -23.4718,
            "school_name": "EMEI PEROLA ELLIS BYINGTON",
            "country_name": "Brazil",
            "connectivity": true
        },
        {
            "lon": -49.6922,
            "lat": -21.0486,
            "school_name": "EMEI MUNDO ENCANTADO PROF ABRAHAO HACKME",
            "country_name": "Brazil",
            "connectivity": true
        },
        {
            "lon": -46.7629,
            "lat": -23.5015,
            "school_name": "ALIPIO DA SILVA LAVOURA PROF CEMEIEF",
            "country_name": "Brazil",
            "connectivity": false
        },
        {
            "lon": -46.7596,
            "lat": -22.1899,
            "school_name": "PAULINO DE FELIPPI DOUTOR EMEB",
            "country_name": "Brazil",
            "connectivity": true
        },
        {
            "lon": -46.3455,
            "lat": -23.5281,
            "school_name": "EUSTAQUIO PADRE EMEB",
            "country_name": "Brazil",
            "connectivity": true
        },
        {
            "lon": -45.4142,
            "lat": -23.8128,
            "school_name": "BEIJA FLOR EMEI MEIRE VASQUES DOS SANTOS CRECHE",
            "country_name": "Brazil",
            "connectivity": true
        },
        {
            "lon": -49.0936,
            "lat": -23.4057,
            "school_name": "ANGELINA MARIA DE ALMEIDA TANNUS PROFA EMEI",
            "country_name": "Brazil",
            "connectivity": true
        },
        {
            "lon": -46.6969,
            "lat": -23.7504,
            "school_name": "CEI DIRET JARDIM REIMBERG",
            "country_name": "Brazil",
            "connectivity": true
        },
        {
            "lon": -46.7288,
            "lat": -23.2719,
            "school_name": "ALMEIDA JUNIOR ESCOLA MUNICIPAL",
            "country_name": "Brazil",
            "connectivity": true
        },
        {
            "lon": -46.629,
            "lat": -23.6841,
            "school_name": "CORA CORALINA ESCOLA MUNICIPAL DE EDUCACAO BASICA",
            "country_name": "Brazil",
            "connectivity": false
        },
        {
            "lon": -48.9467,
            "lat": -21.1434,
            "school_name": "CLAUDIOMAR COUTO PROFESSOR EMESF",
            "country_name": "Brazil",
            "connectivity": true
        },
        {
            "lon": -46.4631,
            "lat": -23.5045,
            "school_name": "EMEI GLOBO DO SOL",
            "country_name": "Brazil",
            "connectivity": true
        },
        {
            "lon": -47.2159,
            "lat": -23.1122,
            "school_name": "LUCIANA CANDIDO CARNEIRO PROFESSORA EMEB E CRECHE",
            "country_name": "Brazil",
            "connectivity": true
        },
        {
            "lon": -47.8919,
            "lat": -20.7168,
            "school_name": "IRACEMA MIELE PROFA EMEB",
            "country_name": "Brazil",
            "connectivity": true
        },
        {
            "lon": -48.6863,
            "lat": -21.2628,
            "school_name": "SOPHIA ATHAYDE PEDRASSOLI PROFESSORA EMEB",
            "country_name": "Brazil",
            "connectivity": false
        },
        {
            "lon": -46.6969,
            "lat": -23.728,
            "school_name": "CEU EMEF VILA RUBI",
            "country_name": "Brazil",
            "connectivity": true
        },
        {
            "lon": -45.2806,
            "lat": -22.8864,
            "school_name": "EMEI THEREZA DE JESUS TRANNIN PASIN",
            "country_name": "Brazil",
            "connectivity": true
        },
        {
            "lon": -51.1486,
            "lat": -29.0257,
            "school_name": "ESC EST ENS FUN ANTONIO SOLDATELLI",
            "country_name": "Brazil",
            "connectivity": true
        },
        {
            "lon": -49.2169,
            "lat": -21.4808,
            "school_name": "MARIA VIRGINIA CORREA DE GODOI PROFA CMEI",
            "country_name": "Brazil",
            "connectivity": true
        },
        {
            "lon": -46.7845,
            "lat": -22.0052,
            "school_name": "ISAURA TEIXEIRA VASCONCELLOS PROFESSORA",
            "country_name": "Brazil",
            "connectivity": true
        },
        {
            "lon": -46.4165,
            "lat": -23.5035,
            "school_name": "MARCELO TULMAN NETO",
            "country_name": "Brazil",
            "connectivity": true
        },
        {
            "lon": -48.4905,
            "lat": -1.459,
            "school_name": "EEEF JOSE VERISSIMO",
            "country_name": "Brazil",
            "connectivity": true
        },
        {
            "lon": -47.6873,
            "lat": -0.5932,
            "school_name": "E M E I E F PROF ENEIDA P LISBOA",
            "country_name": "Brazil",
            "connectivity": true
        },
        {
            "lon": -48.7483,
            "lat": -25.4375,
            "school_name": "ARACY PINHEIRO LIMA E M PROFA EI EF",
            "country_name": "Brazil",
            "connectivity": true
        },
        {
            "lon": -50.3189,
            "lat": -27.807,
            "school_name": "EMEB ANJO DA GUARDA",
            "country_name": "Brazil",
            "connectivity": true
        },
        {
            "lon": -49.8133,
            "lat": -27.831,
            "school_name": "ESCOLA NUCLEADA MUNICIPAL JOAO WALTER",
            "country_name": "Brazil",
            "connectivity": true
        },
        {
            "lon": -48.6928,
            "lat": -26.897,
            "school_name": "CEI TANCREDO NEVES",
            "country_name": "Brazil",
            "connectivity": true
        },
        {
            "lon": -48.6085,
            "lat": -27.127,
            "school_name": "UD DE ITAPEMA",
            "country_name": "Brazil",
            "connectivity": true
        },
        {
            "lon": -50.9306,
            "lat": -29.1224,
            "school_name": "E M E F DR GUIDO D ANDREA",
            "country_name": "Brazil",
            "connectivity": false
        },
        {
            "lon": -43.3725,
            "lat": -22.9083,
            "school_name": "0716602 CRECHE MUNICIPAL TIA TEREZA",
            "country_name": "Brazil",
            "connectivity": true
        },
        {
            "lon": -52.0815,
            "lat": -29.1389,
            "school_name": "ESC MUN ENS FUND TIRADENTES",
            "country_name": "Brazil",
            "connectivity": false
        },
        {
            "lon": -49.5675,
            "lat": -25.4614,
            "school_name": "HANS E SCHMIDT E M EI EF",
            "country_name": "Brazil",
            "connectivity": true
        },
        {
            "lon": -51.1626,
            "lat": -30.1168,
            "school_name": "EMEF RINCAO",
            "country_name": "Brazil",
            "connectivity": true
        },
        {
            "lon": -58.6076,
            "lat": -10.9543,
            "school_name": "ERM GERMANO CHINIKOSKI",
            "country_name": "Brazil",
            "connectivity": true
        },
        {
            "lon": -54.6752,
            "lat": -16.4616,
            "school_name": "EMEF FIRMICIO ALVES BARRETO",
            "country_name": "Brazil",
            "connectivity": true
        },
        {
            "lon": -49.2393,
            "lat": -25.5358,
            "school_name": "LUCIA BASTOS C E EF M",
            "country_name": "Brazil",
            "connectivity": true
        },
        {
            "lon": -49.33,
            "lat": -14.634,
            "school_name": "ESC MUL IBRAIM FERREIRA DE SOUZA",
            "country_name": "Brazil",
            "connectivity": true
        },
        {
            "lon": -46.7196,
            "lat": -21.3077,
            "school_name": "EE DOUTOR ANDRE CORTEZ GRANERO",
            "country_name": "Brazil",
            "connectivity": true
        },
        {
            "lon": -46.6243,
            "lat": -23.4771,
            "school_name": "CARLOS DE LAET PROF",
            "country_name": "Brazil",
            "connectivity": true
        },
        {
            "lon": -46.4314,
            "lat": -23.6947,
            "school_name": "ALVARO DE SOUZA VIEIRA",
            "country_name": "Brazil",
            "connectivity": true
        },
        {
            "lon": -46.5034,
            "lat": -23.4485,
            "school_name": "EPG - EPG DALVA MARINA RONCHI MINGOSSI PROFESSORA",
            "country_name": "Brazil",
            "connectivity": true
        },
        {
            "lon": -48.1629,
            "lat": -17.1494,
            "school_name": "ESC MUL SAO JOSE",
            "country_name": "Brazil",
            "connectivity": false
        },
        {
            "lon": -50.4728,
            "lat": -25.7452,
            "school_name": "JOSE DE ALENCAR E M C EI EF",
            "country_name": "Brazil",
            "connectivity": true
        },
        {
            "lon": -46.3934,
            "lat": -23.4796,
            "school_name": "EPG - EPG HERBERT DE SOUZA BETINHO",
            "country_name": "Brazil",
            "connectivity": true
        },
        {
            "lon": -49.2491,
            "lat": -16.7664,
            "school_name": "ESCOLA MUNICIPAL EURIPEDES MENEZES",
            "country_name": "Brazil",
            "connectivity": true
        },
        {
            "lon": -39.1878,
            "lat": -12.673,
            "school_name": "ESCOLA APRIGIO MARCELINO DA COSTA",
            "country_name": "Brazil",
            "connectivity": true
        },
        {
            "lon": -44.2373,
            "lat": -2.5456,
            "school_name": "IEMA - INSTITUTO ESTADUAL DE EDUCACAO CIENCIA E TECNOLOGIA DO MA - UNIDADE PLENA RIO ANIL",
            "country_name": "Brazil",
            "connectivity": true
        },
        {
            "lon": -46.9195,
            "lat": -23.5388,
            "school_name": "ANDRE FRANCO MONTORO GOVERNADOR CEMEB",
            "country_name": "Brazil",
            "connectivity": true
        },
        {
            "lon": -50.9868,
            "lat": -25.1976,
            "school_name": "ZILDA ARNS C M E I",
            "country_name": "Brazil",
            "connectivity": true
        },
        {
            "lon": -37.0911,
            "lat": -9.3876,
            "school_name": "ESCOLA MUNICIPAL PROFESSOR LUCIANO JORGE PEIXOTO",
            "country_name": "Brazil",
            "connectivity": true
        },
        {
            "lon": -38.612,
            "lat": -3.7623,
            "school_name": "ESCOLA MUNICIPAL DE TEMPO INTEGRAL PROFESSOR ADEMAR NUNES BATISTA",
            "country_name": "Brazil",
            "connectivity": true
        },
        {
            "lon": -51.8023,
            "lat": -23.4904,
            "school_name": "JURACY R S ROCHA C E EF M PROFIS",
            "country_name": "Brazil",
            "connectivity": true
        },
        {
            "lon": -60.7585,
            "lat": 2.8217,
            "school_name": "COLEGIO ESTADUAL MILITARIZADO LUIZ RIBEIRO DE LIMA - CEM V",
            "country_name": "Brazil",
            "connectivity": true
        },
        {
            "lon": -46.4331,
            "lat": -23.3903,
            "school_name": "EPG - EPG MACHADO DE ASSIS",
            "country_name": "Brazil",
            "connectivity": true
        },
        {
            "lon": -46.5661,
            "lat": -23.556,
            "school_name": "BLANCA ZWICKER SIMOES PROFESSORA",
            "country_name": "Brazil",
            "connectivity": true
        },
        {
            "lon": -50.1361,
            "lat": -25.4306,
            "school_name": "COLONIA MACIEL E M C DE EI EF",
            "country_name": "Brazil",
            "connectivity": true
        },
        {
            "lon": -39.2785,
            "lat": -4.2368,
            "school_name": "EEIF FRANCISCO DE MOURA BARROS",
            "country_name": "Brazil",
            "connectivity": true
        },
        {
            "lon": -43.3837,
            "lat": -22.925,
            "school_name": "0716038 ESCOLA MUNICIPAL PEDRO AMERICO",
            "country_name": "Brazil",
            "connectivity": true
        },
        {
            "lon": -38.7721,
            "lat": -7.3882,
            "school_name": "PEDRO MARANHAO DE LACERDA EEF",
            "country_name": "Brazil",
            "connectivity": true
        },
        {
            "lon": -38.5888,
            "lat": -3.7314,
            "school_name": "ESCOLA MUNICIPAL PROFESSOR DENIZARD MACEDO DE ALCANTARA",
            "country_name": "Brazil",
            "connectivity": true
        },
        {
            "lon": -38.4842,
            "lat": -12.9919,
            "school_name": "EE - COLEGIO ESTADUAL MANOEL VITORINO - TEMPO INTEGRAL",
            "country_name": "Brazil",
            "connectivity": true
        },
        {
            "lon": -38.0423,
            "lat": -6.2686,
            "school_name": "ESCOLA ESTADUAL DESEMBARGADOR SINVAL MOREIRA DIAS - ENSINO MEDIO",
            "country_name": "Brazil",
            "connectivity": true
        },
        {
            "lon": -42.5254,
            "lat": -13.3834,
            "school_name": "CRECHE MUNICIPAL LIZANDRA PAULA",
            "country_name": "Brazil",
            "connectivity": true
        },
        {
            "lon": -36.855,
            "lat": -5.451,
            "school_name": "ESCOLA MUNICIPAL PROFESSORA JULIETA MOURA SOUZA",
            "country_name": "Brazil",
            "connectivity": true
        },
        {
            "lon": -36.3419,
            "lat": -8.4757,
            "school_name": "ESCOLA MUNICIPAL CARLOS RIOS",
            "country_name": "Brazil",
            "connectivity": true
        },
        {
            "lon": -36.1974,
            "lat": -8.8749,
            "school_name": "ESCOLA DE REFERENCIA EM ENSINO MEDIO JERONIMO GUEIROS",
            "country_name": "Brazil",
            "connectivity": true
        }
    ],
    "num_countries": 14,
    "countries": [
        "Anguilla",
        "Benin",
        "Brazil",
        "Colombia",
        "Costa Rica",
        "Honduras",
        "Kazakhstan",
        "Kyrgyzstan",
        "Namibia",
        "Palestine",
        "Philippines",
        "Rwanda",
        "Sierra Leone",
        "Zimbabwe"
    ],
    "schools_no_data": [
        {
            "lon": 28.22174,
            "lat": -12.82611,
            "school_name": "MATETE SECONDARY",
            "country_name": "Zambia",
            "connectivity": false
        },
        {
            "lon": -57.8425356,
            "lat": -35.033787,
            "school_name": "JARDIN DE INFANTES N\u00ba970 IGNACIO CORREAS",
            "country_name": "Argentina",
            "connectivity": false
        },
        {
            "lon": -10.27516014,
            "lat": 6.216143845,
            "school_name": "Self Help Community",
            "country_name": "Liberia",
            "connectivity": false
        },
        {
            "lon": -9.648483,
            "lat": 8.155298,
            "school_name": "Barziwen Public School",
            "country_name": "Liberia",
            "connectivity": false
        },
        {
            "lon": -10.246288,
            "lat": 6.545899,
            "school_name": "Life Public School",
            "country_name": "Liberia",
            "connectivity": false
        },
        {
            "lon": -0.19036,
            "lat": 5.6031894,
            "school_name": "Name unknown",
            "country_name": "Ghana",
            "connectivity": false
        },
        {
            "lon": 33.35296188,
            "lat": 19.49923485,
            "school_name": "Name unknown",
            "country_name": "Sudan",
            "connectivity": false
        },
        {
            "lon": 33.5363443333333,
            "lat": 14.9269491333333,
            "school_name": "Name unknown",
            "country_name": "Sudan",
            "connectivity": false
        },
        {
            "lon": 34.72474,
            "lat": -4.18102,
            "school_name": "MNTAMBA",
            "country_name": "United Republic of Tanzania",
            "connectivity": false
        },
        {
            "lon": 19.90671158,
            "lat": 43.91866955,
            "school_name": "\u041c\u0438\u043e\u0434\u0440\u0430\u0433 \u041c\u0438\u043b\u043e\u0432\u0430\u043d\u043e\u0432\u0438\u045b \u041b\u0443\u043d\u0435",
            "country_name": "Serbia",
            "connectivity": false
        },
        {
            "lon": 19.65201974,
            "lat": 43.86295759,
            "school_name": "\u0411\u043e\u0433\u043e\u0441\u0430\u0432 \u0408\u0430\u043d\u043a\u043e\u0432\u0438\u045b",
            "country_name": "Serbia",
            "connectivity": false
        },
        {
            "lon": 32.92711927,
            "lat": 13.03918925,
            "school_name": "Name unknown",
            "country_name": "Sudan",
            "connectivity": false
        },
        {
            "lon": -1.6443899,
            "lat": 6.6679297,
            "school_name": "Name unknown",
            "country_name": "Ghana",
            "connectivity": false
        },
        {
            "lon": -1.4685416,
            "lat": 6.7956123,
            "school_name": "Name unknown",
            "country_name": "Ghana",
            "connectivity": false
        },
        {
            "lon": 36.70925,
            "lat": -3.42562,
            "school_name": "HAZINA MISSION",
            "country_name": "United Republic of Tanzania",
            "connectivity": false
        },
        {
            "lon": 36.92082,
            "lat": -3.11058,
            "school_name": "MASAI VISION",
            "country_name": "United Republic of Tanzania",
            "connectivity": false
        },
        {
            "lon": 35.10997,
            "lat": -8.24978,
            "school_name": "IGOMBAVANU",
            "country_name": "United Republic of Tanzania",
            "connectivity": false
        },
        {
            "lon": 39.39327,
            "lat": -7.19945,
            "school_name": "SHUNGUBWENI",
            "country_name": "United Republic of Tanzania",
            "connectivity": false
        },
        {
            "lon": 37.15603,
            "lat": -3.2769,
            "school_name": "KWARE",
            "country_name": "United Republic of Tanzania",
            "connectivity": false
        },
        {
            "lon": 36.43509,
            "lat": -5.80493,
            "school_name": "MUUNGANO",
            "country_name": "United Republic of Tanzania",
            "connectivity": false
        },
        {
            "lon": 35.87726,
            "lat": -8.2343,
            "school_name": "WANGAMA",
            "country_name": "United Republic of Tanzania",
            "connectivity": false
        },
        {
            "lon": 39.20623,
            "lat": -6.82778,
            "school_name": "TUMAINI",
            "country_name": "United Republic of Tanzania",
            "connectivity": false
        },
        {
            "lon": 36.13853,
            "lat": -6.2063,
            "school_name": "MAKOJA",
            "country_name": "United Republic of Tanzania",
            "connectivity": false
        },
        {
            "lon": 29.13055,
            "lat": -28.26784,
            "school_name": "Harrismith Primary School",
            "country_name": "South Africa",
            "connectivity": false
        },
        {
            "lon": -2.6931417,
            "lat": 7.9413066,
            "school_name": "Name unknown",
            "country_name": "Ghana",
            "connectivity": false
        },
        {
            "lon": 19.98951674,
            "lat": 45.40587751,
            "school_name": "\u0416\u0430\u0440\u043a\u043e \u0417\u0440\u0435\u045a\u0430\u043d\u0438\u043d",
            "country_name": "Serbia",
            "connectivity": false
        },
        {
            "lon": 1.40773,
            "lat": 6.658881,
            "school_name": "EPL BENEDICTA",
            "country_name": "Togo",
            "connectivity": false
        },
        {
            "lon": 0.635289,
            "lat": 7.049478,
            "school_name": "EPP LAVIE AGODE",
            "country_name": "Togo",
            "connectivity": false
        },
        {
            "lon": 0.641457,
            "lat": 6.911783,
            "school_name": "EPE NUMETUKODZI G/A",
            "country_name": "Togo",
            "connectivity": false
        },
        {
            "lon": 0.790552,
            "lat": 7.230992,
            "school_name": "EPC SAINT ANTOINE AVEXO",
            "country_name": "Togo",
            "connectivity": false
        },
        {
            "lon": 1.599131,
            "lat": 7.107582,
            "school_name": "EPE LONMEY",
            "country_name": "Togo",
            "connectivity": false
        },
        {
            "lon": 0.23364,
            "lat": 10.99384833,
            "school_name": "EPP BOLIMPIENGUE",
            "country_name": "Togo",
            "connectivity": false
        },
        {
            "lon": 1.414953,
            "lat": 6.659554,
            "school_name": "LYCEE KOUVE",
            "country_name": "Togo",
            "connectivity": false
        },
        {
            "lon": 30.74485,
            "lat": -3.41891,
            "school_name": "GWANUMPU",
            "country_name": "United Republic of Tanzania",
            "connectivity": false
        },
        {
            "lon": 36.35394,
            "lat": -8.80154,
            "school_name": "MANDA JUU",
            "country_name": "United Republic of Tanzania",
            "connectivity": false
        },
        {
            "lon": 0.741567,
            "lat": 10.329521,
            "school_name": "LYCEE GANDO",
            "country_name": "Togo",
            "connectivity": false
        },
        {
            "lon": 34.97145402,
            "lat": -15.0265788,
            "school_name": "Chidalala",
            "country_name": "Malawi",
            "connectivity": false
        },
        {
            "lon": 33.95174334,
            "lat": -14.31576299,
            "school_name": "Kanyezi F. P.",
            "country_name": "Malawi",
            "connectivity": false
        },
        {
            "lon": 33.82394979,
            "lat": -13.49734675,
            "school_name": "Miwale Primary School",
            "country_name": "Malawi",
            "connectivity": false
        },
        {
            "lon": 34.16560507,
            "lat": -12.71133133,
            "school_name": "Mdyankhanga F.P.School",
            "country_name": "Malawi",
            "connectivity": false
        },
        {
            "lon": 25.288,
            "lat": 0.625,
            "school_name": "EP BUKAKA",
            "country_name": "Democratic Republic of the Congo",
            "connectivity": false
        },
        {
            "lon": 29.6572,
            "lat": -7.0552,
            "school_name": "EP MWELE",
            "country_name": "Democratic Republic of the Congo",
            "connectivity": false
        },
        {
            "lon": 30.69446772,
            "lat": 2.758618877,
            "school_name": "INST EKANGA",
            "country_name": "Democratic Republic of the Congo",
            "connectivity": false
        },
        {
            "lon": 23.88952318,
            "lat": -3.868409612,
            "school_name": "INST LOMBA",
            "country_name": "Democratic Republic of the Congo",
            "connectivity": false
        },
        {
            "lon": 27.44866453,
            "lat": -11.709296,
            "school_name": "MONT DES  OLIVIERS",
            "country_name": "Democratic Republic of the Congo",
            "connectivity": false
        },
        {
            "lon": 26.73464238,
            "lat": -11.01232016,
            "school_name": "UMOJA",
            "country_name": "Democratic Republic of the Congo",
            "connectivity": false
        },
        {
            "lon": 25.84101272,
            "lat": -2.878814312,
            "school_name": "INST KAPOME",
            "country_name": "Democratic Republic of the Congo",
            "connectivity": false
        },
        {
            "lon": 20.70214633,
            "lat": 1.57207062,
            "school_name": "INST BOMBELE",
            "country_name": "Democratic Republic of the Congo",
            "connectivity": false
        },
        {
            "lon": 28.19205833,
            "lat": -3.169491667,
            "school_name": "INST LONGANGI",
            "country_name": "Democratic Republic of the Congo",
            "connectivity": false
        },
        {
            "lon": 22.79930105,
            "lat": 3.684751955,
            "school_name": "CS SETI YALE",
            "country_name": "Democratic Republic of the Congo",
            "connectivity": false
        },
        {
            "lon": -100.88207,
            "lat": 20.22891,
            "school_name": "CENTRO DE ESTUDIOS TECNOLOGICOS INDUSTRIAL Y DE SE",
            "country_name": "Mexico",
            "connectivity": false
        },
        {
            "lon": 31.51448,
            "lat": -0.53244,
            "school_name": "NGOMA R.C P/SCHOOL",
            "country_name": "Uganda",
            "connectivity": false
        },
        {
            "lon": 31.43717,
            "lat": -0.37864,
            "school_name": "NURSERY SCH.",
            "country_name": "Uganda",
            "connectivity": false
        },
        {
            "lon": 32.88973,
            "lat": 0.32737,
            "school_name": "3R'S SECONDARY SCHOOL",
            "country_name": "Uganda",
            "connectivity": false
        },
        {
            "lon": 32.68999,
            "lat": 0.53294,
            "school_name": "NAMASUBA'S P/SCH",
            "country_name": "Uganda",
            "connectivity": false
        },
        {
            "lon": 33.10673,
            "lat": 1.76189,
            "school_name": "Akwalakwala P.S.",
            "country_name": "Uganda",
            "connectivity": false
        },
        {
            "lon": 31.49998,
            "lat": 0.92263,
            "school_name": "Kiryajjobyo P.S.",
            "country_name": "Uganda",
            "connectivity": false
        },
        {
            "lon": 32.31278,
            "lat": 0.19175,
            "school_name": "kyosinga",
            "country_name": "Uganda",
            "connectivity": false
        },
        {
            "lon": 32.45552,
            "lat": 0.06274,
            "school_name": "Queens P.S",
            "country_name": "Uganda",
            "connectivity": false
        },
        {
            "lon": 33.68711,
            "lat": 0.43214,
            "school_name": "Namuntenga P.S.",
            "country_name": "Uganda",
            "connectivity": false
        },
        {
            "lon": 29.9427,
            "lat": -0.86852,
            "school_name": "Bugyerakitojo",
            "country_name": "Uganda",
            "connectivity": false
        },
        {
            "lon": 33.4735,
            "lat": 0.42531,
            "school_name": "Bukawongo P.S.",
            "country_name": "Uganda",
            "connectivity": false
        },
        {
            "lon": 6.019366,
            "lat": 5.503037,
            "school_name": "Name unknown",
            "country_name": "Nigeria",
            "connectivity": false
        },
        {
            "lon": 31.65278,
            "lat": 3.33998,
            "school_name": "Esia",
            "country_name": "Uganda",
            "connectivity": false
        },
        {
            "lon": 34.62572,
            "lat": 1.79628,
            "school_name": "Namalu Mixed P.S.",
            "country_name": "Uganda",
            "connectivity": false
        },
        {
            "lon": 34.57837,
            "lat": 2.06581,
            "school_name": "Arengesiep S.S.S.",
            "country_name": "Uganda",
            "connectivity": false
        },
        {
            "lon": -63.274883,
            "lat": -17.850034,
            "school_name": "LUZ DE LA ESPERANZA",
            "country_name": "Bolivia (Plurinational State of)",
            "connectivity": false
        },
        {
            "lon": 27.85294,
            "lat": -25.02608,
            "school_name": "Morokwa-Ditlou Primary School",
            "country_name": "South Africa",
            "connectivity": false
        },
        {
            "lon": 25.9762,
            "lat": -27.18601,
            "school_name": "Daeraadskool",
            "country_name": "South Africa",
            "connectivity": false
        },
        {
            "lon": 26.99339,
            "lat": -25.06286,
            "school_name": "Ramalebya Primary School",
            "country_name": "South Africa",
            "connectivity": false
        },
        {
            "lon": 21.20276,
            "lat": -28.46093,
            "school_name": "Rosendal Primary School",
            "country_name": "South Africa",
            "connectivity": false
        },
        {
            "lon": 18.41143,
            "lat": -33.92927,
            "school_name": "Retail Excellence Development",
            "country_name": "South Africa",
            "connectivity": false
        },
        {
            "lon": 29.81188,
            "lat": -23.4621,
            "school_name": "Ramotlhale Primary",
            "country_name": "South Africa",
            "connectivity": false
        },
        {
            "lon": 23.16239,
            "lat": -33.72149,
            "school_name": "Avontuur Lb Primary School",
            "country_name": "South Africa",
            "connectivity": false
        },
        {
            "lon": 18.69418,
            "lat": -34.03164,
            "school_name": "Academia Primary School",
            "country_name": "South Africa",
            "connectivity": false
        },
        {
            "lon": 18.85198,
            "lat": -33.96328,
            "school_name": "Kabouterland",
            "country_name": "South Africa",
            "connectivity": false
        },
        {
            "lon": 30.56248,
            "lat": -29.57361,
            "school_name": "Maqongqo Primary School",
            "country_name": "South Africa",
            "connectivity": false
        },
        {
            "lon": 30.92549,
            "lat": -29.97786,
            "school_name": "Thembelani Training & Consultancy",
            "country_name": "South Africa",
            "connectivity": false
        },
        {
            "lon": 31.53599,
            "lat": -29.16579,
            "school_name": "Madlanga Junior Secondary School",
            "country_name": "South Africa",
            "connectivity": false
        },
        {
            "lon": 26.5126,
            "lat": -33.30695,
            "school_name": "Saint Andrews Preparatory School",
            "country_name": "South Africa",
            "connectivity": false
        },
        {
            "lon": 27.22762,
            "lat": -31.9131,
            "school_name": "Ntabankulu Senior Primary School",
            "country_name": "South Africa",
            "connectivity": false
        },
        {
            "lon": 26.74522,
            "lat": -28.65097,
            "school_name": "Sacsonia Primary School",
            "country_name": "South Africa",
            "connectivity": false
        },
        {
            "lon": 26.81146,
            "lat": -27.999,
            "school_name": "Bronville Primary School",
            "country_name": "South Africa",
            "connectivity": false
        },
        {
            "lon": 27.92125,
            "lat": -28.51489,
            "school_name": "Primary School",
            "country_name": "South Africa",
            "connectivity": false
        },
        {
            "lon": 28.32509,
            "lat": -28.20526,
            "school_name": "Matswathaka Primary School",
            "country_name": "South Africa",
            "connectivity": false
        },
        {
            "lon": 28.6941,
            "lat": -31.77388,
            "school_name": "Dalukhanyo Secondary School",
            "country_name": "South Africa",
            "connectivity": false
        },
        {
            "lon": -89.630644,
            "lat": 20.969336,
            "school_name": "AMERICANO",
            "country_name": "Mexico",
            "connectivity": false
        },
        {
            "lon": 30.37638,
            "lat": -23.47125,
            "school_name": "Manonyaneng Secondary School",
            "country_name": "South Africa",
            "connectivity": false
        },
        {
            "lon": -58.68719072,
            "lat": -34.5677187,
            "school_name": "INSTITUTO DE ENSE\u00d1ANZA SECUNDARIA ALMAFUERTE",
            "country_name": "Argentina",
            "connectivity": false
        },
        {
            "lon": -58.97679282,
            "lat": -27.44036042,
            "school_name": "E.E.P. N\u00ba 607-DEL CENT. DE LA CREACION DEL CHACO",
            "country_name": "Argentina",
            "connectivity": false
        },
        {
            "lon": -62.26540411,
            "lat": -38.72180604,
            "school_name": "COLEGIO VICTORIA OCAMPO",
            "country_name": "Argentina",
            "connectivity": false
        },
        {
            "lon": -58.34374215,
            "lat": -34.65025765,
            "school_name": "ESCUELA PRIMARIA N\u00ba35 ESTEBAN DE LUCA",
            "country_name": "Argentina",
            "connectivity": false
        },
        {
            "lon": -58.20662782,
            "lat": -34.78382226,
            "school_name": "ESCUELA RANELAGH",
            "country_name": "Argentina",
            "connectivity": false
        },
        {
            "lon": -58.47767038,
            "lat": -34.53296377,
            "school_name": "ESCUELA SECUNDARIA N\u00ba6 \\JUAN PABLO DUARTE Y DIEZ\\",
            "country_name": "Argentina",
            "connectivity": false
        },
        {
            "lon": -60.21623501,
            "lat": -33.32677314,
            "school_name": "ESCUELA POLIMODAL N\u00ba9 JUSTO JOSE DE URQUIZA",
            "country_name": "Argentina",
            "connectivity": false
        },
        {
            "lon": -60.10593312,
            "lat": -38.02296285,
            "school_name": "ESCUELA PRIMARIA N\u00ba8 HIPOLITO YRIGOYEN",
            "country_name": "Argentina",
            "connectivity": false
        },
        {
            "lon": -57.92146386,
            "lat": -34.90660998,
            "school_name": "ESCUELA PRIMARIA N\u00ba8 GENERAL MARTIN MIGUEL DE G\u00dcEMES",
            "country_name": "Argentina",
            "connectivity": false
        },
        {
            "lon": -58.75692422,
            "lat": -35.05560458,
            "school_name": "ESCUELA PRIMARIA N\u00ba32 JOSE M. ESTRADA",
            "country_name": "Argentina",
            "connectivity": false
        },
        {
            "lon": -63.16563641,
            "lat": -37.695997,
            "school_name": "C.E.C. N\u00ba2 DR. JOSE DARREGUEIRA",
            "country_name": "Argentina",
            "connectivity": false
        },
        {
            "lon": -58.57001903,
            "lat": -34.52975952,
            "school_name": "INSTITUTO CONCORDIA",
            "country_name": "Argentina",
            "connectivity": false
        },
        {
            "lon": -67.01165,
            "lat": -27.24235,
            "school_name": "ESCUELA N\u00b0 419",
            "country_name": "Argentina",
            "connectivity": false
        },
        {
            "lon": -58.82903614,
            "lat": -27.40871975,
            "school_name": "E.E.P. N\u00ba 159 PROVINCIA DE CORRIENTES",
            "country_name": "Argentina",
            "connectivity": false
        },
        {
            "lon": -67.5751161,
            "lat": -45.82270932,
            "school_name": "ANEXO JARDINES MATERNALES MUNICIPALES",
            "country_name": "Argentina",
            "connectivity": false
        },
        {
            "lon": -58.49221547,
            "lat": -34.62146986,
            "school_name": "JIC N\u00b0 03 DE 12",
            "country_name": "Argentina",
            "connectivity": false
        },
        {
            "lon": -64.0515723,
            "lat": -30.0682088,
            "school_name": "J.DE INF. VICENTE LOPEZ Y PLANES",
            "country_name": "Argentina",
            "connectivity": false
        },
        {
            "lon": -64.21904139,
            "lat": -31.42854631,
            "school_name": "J.DE INF. REPUBLICA DEL PERU",
            "country_name": "Argentina",
            "connectivity": false
        },
        {
            "lon": -58.81090945,
            "lat": -27.50531407,
            "school_name": "ESCUELA JARDIN DE INFANTES N\u00ba 28 \u00d1EMBOE",
            "country_name": "Argentina",
            "connectivity": false
        },
        {
            "lon": -58.18967659,
            "lat": -29.61314346,
            "school_name": "EXTENSION AULICA QUE FUNCIONA EN LA ESCUELA N\u00b0 585",
            "country_name": "Argentina",
            "connectivity": false
        },
        {
            "lon": -58.66077104,
            "lat": -33.71648265,
            "school_name": "LUIS MARIA DRAGO NOCT. 2",
            "country_name": "Argentina",
            "connectivity": false
        },
        {
            "lon": -58.6322749,
            "lat": -32.77258098,
            "school_name": "JULIAN NAVARRO 52",
            "country_name": "Argentina",
            "connectivity": false
        },
        {
            "lon": -59.51023523,
            "lat": -25.9557376,
            "school_name": "EPEP N\u00b0 303 ANEXO 1 (EX EPEP N\u00b0 272)",
            "country_name": "Argentina",
            "connectivity": false
        },
        {
            "lon": -58.27915527,
            "lat": -25.36178676,
            "school_name": "NEP Y FP N\u00ba 13 - EPEP N\u00b0 264",
            "country_name": "Argentina",
            "connectivity": false
        },
        {
            "lon": -59.35294072,
            "lat": -26.30209998,
            "school_name": "NEP Y FP N\u00ba 07 - EPEP N\u00ba503",
            "country_name": "Argentina",
            "connectivity": false
        },
        {
            "lon": -58.16001421,
            "lat": -26.19438804,
            "school_name": "NEP Y FP N\u00ba 04 - CC BRESANOVICH",
            "country_name": "Argentina",
            "connectivity": false
        },
        {
            "lon": -60.58938311,
            "lat": -24.69693932,
            "school_name": "JIN N\u00b0 42 - EPEP N\u00b0 111",
            "country_name": "Argentina",
            "connectivity": false
        },
        {
            "lon": -64.87185544,
            "lat": -24.26731407,
            "school_name": "ESCUELA N 313 CONSTANCIO C. VIGIL",
            "country_name": "Argentina",
            "connectivity": false
        },
        {
            "lon": -66.87047144,
            "lat": -29.41729096,
            "school_name": "CENTRO DE CAPACITACION LABORAL N\u00b028",
            "country_name": "Argentina",
            "connectivity": false
        },
        {
            "lon": -68.73883782,
            "lat": -32.85160956,
            "school_name": "NUESTRA SE\u00d1ORA DE LA CONSOLATA",
            "country_name": "Argentina",
            "connectivity": false
        },
        {
            "lon": -69.02028878,
            "lat": -33.57040878,
            "school_name": "ELVIRA GIORDANO DE DALVIT",
            "country_name": "Argentina",
            "connectivity": false
        },
        {
            "lon": -63.00769427,
            "lat": -40.81523862,
            "school_name": "ESCUELA DE APRENDIZAJE DE OFICIOS NRO.1",
            "country_name": "Argentina",
            "connectivity": false
        },
        {
            "lon": -63.69061412,
            "lat": -22.04976057,
            "school_name": "PROFESOR SALVADOR MAZZA EX N\u00b0749 (FRA 6)",
            "country_name": "Argentina",
            "connectivity": false
        },
        {
            "lon": -64.76756495,
            "lat": -22.49883978,
            "school_name": "PATRICIAS ARGENTINAS EX N\u00b0 251",
            "country_name": "Argentina",
            "connectivity": false
        },
        {
            "lon": -62.510525,
            "lat": -22.549085,
            "school_name": "FEDERICO GAUFFIN EX N\u00b0 203",
            "country_name": "Argentina",
            "connectivity": false
        },
        {
            "lon": -60.97933623,
            "lat": -32.2381376,
            "school_name": "ANEXO E.E.M.P.A. NRO 1275",
            "country_name": "Argentina",
            "connectivity": false
        },
        {
            "lon": -61.04073327,
            "lat": -30.52757014,
            "school_name": "ESCUELA NRO 555 GENERAL JOSE DE SAN MARTIN",
            "country_name": "Argentina",
            "connectivity": false
        },
        {
            "lon": -62.49373929,
            "lat": -28.99702386,
            "school_name": "ESCUELA N\u00b0 1231 VICENTE PRIMO MARANZANA",
            "country_name": "Argentina",
            "connectivity": false
        },
        {
            "lon": -64.22936049,
            "lat": -27.82031322,
            "school_name": "ESCUELA PARA ADULTOS N\u00ba6 LEOPOLDO HERRERA",
            "country_name": "Argentina",
            "connectivity": false
        },
        {
            "lon": -64.2467786,
            "lat": -27.861219,
            "school_name": "AGRUPAMIENTO N\u00b0 86123 - Esc N\u00b0 631",
            "country_name": "Argentina",
            "connectivity": false
        },
        {
            "lon": 6.163509,
            "lat": 5.212336,
            "school_name": "Name unknown",
            "country_name": "Nigeria",
            "connectivity": false
        },
        {
            "lon": 7.338559978,
            "lat": 5.327207352,
            "school_name": "Name unknown",
            "country_name": "Nigeria",
            "connectivity": false
        },
        {
            "lon": 7.4178083,
            "lat": 5.0827017,
            "school_name": "Name unknown",
            "country_name": "Nigeria",
            "connectivity": false
        },
        {
            "lon": -77.0816,
            "lat": -12.0814,
            "school_name": "ANN SULLIVAN DEL PERU-CASP",
            "country_name": "Peru",
            "connectivity": false
        },
        {
            "lon": 7.81872,
            "lat": 5.628637,
            "school_name": "Name unknown",
            "country_name": "Nigeria",
            "connectivity": false
        },
        {
            "lon": 7.92836,
            "lat": 5.82676,
            "school_name": "Name unknown",
            "country_name": "Nigeria",
            "connectivity": false
        },
        {
            "lon": 8.072935,
            "lat": 6.279461667,
            "school_name": "Name unknown",
            "country_name": "Nigeria",
            "connectivity": false
        },
        {
            "lon": 6.23126,
            "lat": 6.602746,
            "school_name": "Name unknown",
            "country_name": "Nigeria",
            "connectivity": false
        },
        {
            "lon": 6.273145,
            "lat": 6.465599,
            "school_name": "Name unknown",
            "country_name": "Nigeria",
            "connectivity": false
        },
        {
            "lon": 5.471258333,
            "lat": 7.439,
            "school_name": "Name unknown",
            "country_name": "Nigeria",
            "connectivity": false
        },
        {
            "lon": 5.062221,
            "lat": 7.813769,
            "school_name": "Name unknown",
            "country_name": "Nigeria",
            "connectivity": false
        },
        {
            "lon": 7.495291,
            "lat": 6.417649,
            "school_name": "Name unknown",
            "country_name": "Nigeria",
            "connectivity": false
        },
        {
            "lon": 7.399969,
            "lat": 6.671745,
            "school_name": "Name unknown",
            "country_name": "Nigeria",
            "connectivity": false
        },
        {
            "lon": 3.26176,
            "lat": 6.67851,
            "school_name": "Name unknown",
            "country_name": "Nigeria",
            "connectivity": false
        },
        {
            "lon": 7.489692,
            "lat": 9.147005,
            "school_name": "Name unknown",
            "country_name": "Nigeria",
            "connectivity": false
        },
        {
            "lon": 10.860425,
            "lat": 10.78426667,
            "school_name": "Name unknown",
            "country_name": "Nigeria",
            "connectivity": false
        },
        {
            "lon": -78.8112,
            "lat": -5.7008,
            "school_name": "10",
            "country_name": "Peru",
            "connectivity": false
        },
        {
            "lon": -71.2349,
            "lat": -14.2509,
            "school_name": "22",
            "country_name": "Peru",
            "connectivity": false
        },
        {
            "lon": -76.2546,
            "lat": -8.65272,
            "school_name": "392",
            "country_name": "Peru",
            "connectivity": false
        },
        {
            "lon": -78.8663,
            "lat": -6.2257,
            "school_name": "10352",
            "country_name": "Peru",
            "connectivity": false
        },
        {
            "lon": -79.7399,
            "lat": -6.1813,
            "school_name": "10855 DIVINO SE\u00d1OR CAUTIVO",
            "country_name": "Peru",
            "connectivity": false
        },
        {
            "lon": -69.4454,
            "lat": -14.6234,
            "school_name": "1092 RITICUCHO",
            "country_name": "Peru",
            "connectivity": false
        },
        {
            "lon": -74.6132,
            "lat": -12.8949,
            "school_name": "1099",
            "country_name": "Peru",
            "connectivity": false
        },
        {
            "lon": -77.0016,
            "lat": -12.0556,
            "school_name": "1171 JORGE BASADRE GROHMANN",
            "country_name": "Peru",
            "connectivity": false
        },
        {
            "lon": -72.0312,
            "lat": -13.3148,
            "school_name": "1184",
            "country_name": "Peru",
            "connectivity": false
        },
        {
            "lon": -79.551,
            "lat": -4.75943,
            "school_name": "1247",
            "country_name": "Peru",
            "connectivity": false
        },
        {
            "lon": -71.9189,
            "lat": -13.5406,
            "school_name": "1360",
            "country_name": "Peru",
            "connectivity": false
        },
        {
            "lon": -79.7414,
            "lat": -4.73509,
            "school_name": "15096",
            "country_name": "Peru",
            "connectivity": false
        },
        {
            "lon": -79.8809,
            "lat": -4.68615,
            "school_name": "15407",
            "country_name": "Peru",
            "connectivity": false
        },
        {
            "lon": -77.6536,
            "lat": -8.11996,
            "school_name": "1625",
            "country_name": "Peru",
            "connectivity": false
        },
        {
            "lon": -78.7145,
            "lat": -6.1482,
            "school_name": "16391",
            "country_name": "Peru",
            "connectivity": false
        },
        {
            "lon": -78.4707,
            "lat": -5.618,
            "school_name": "16993",
            "country_name": "Peru",
            "connectivity": false
        },
        {
            "lon": -78.2157,
            "lat": -6.25175,
            "school_name": "18091",
            "country_name": "Peru",
            "connectivity": false
        },
        {
            "lon": -77.9564,
            "lat": -5.87166,
            "school_name": "18285",
            "country_name": "Peru",
            "connectivity": false
        },
        {
            "lon": -77.056,
            "lat": -12.0041,
            "school_name": "2032 MANUEL SCORZA TORRES",
            "country_name": "Peru",
            "connectivity": false
        },
        {
            "lon": 3.54062,
            "lat": 6.44218,
            "school_name": "Name unknown",
            "country_name": "Nigeria",
            "connectivity": false
        },