{
    "name": "Patchwork Kingdom #487 | Minolbos",
    "description": "The twin kingdoms of Minolbos, separated by a digital divide. A bustling kingdom of 162 schools on top that are all connected to the internet, and 107 schools, not connected, hidden in the upside down kingdom | Created for Giga (GigaConnect.org) \u2014 connecting every school in the world \u2014 in celebration of UNICEF's 75th birthday, by Nadieh Bremer",
    "external_url": "https://dummyURL.com/patchwork_kingdoms_487",
    "image": "https://dummy-storage-url.com/patchwork_kingdoms_487.png",
    "attributes": [
        {
            "trait_type": "Color palette",
            "value": "broomsticks"
        },
        {
            "display_type": "number",
            "trait_type": "Schools",
            "value": 289,
            "max_value": 460
        },
        {
            "display_type": "number",
            "trait_type": "Ratio - Connected",
            "value": 0.56,
            "max_value": 1
        },
        {
            "display_type": "number",
            "trait_type": "Ratio - Unconnected",
            "value": 0.37,
            "max_value": 1
        },
        {
            "display_type": "number",
            "trait_type": "Ratio - Data unavailable",
            "value": 0.07,
            "max_value": 1
        },
        {
            "trait_type": "Countries",
            "value": "BR-CO-CR-HN-KG-KN-KZ-LC-PH-PS-RW-SL-ZW"
        },
        {
            "display_type": "number",
            "trait_type": "Symbols",
            "value": 45,
            "max_value": 51
        }
    ],
    "cluster_id": 487,
    "num_schools": 289,
    "num_schools_connected": 162,
    "num_schools_unconnected": 107,
    "num_schools_unknown": 20,
    "schools": [
        {
            "lon": -51.996,
            "lat": -23.6568,
            "school_name": "SILVIA M BRAGA ALVES C M E I",
            "country_name": "Brazil",
            "connectivity": true
        },
        {
            "lon": -51.1827,
            "lat": -29.1671,
            "school_name": "NEEJA CAXIAS DO SUL",
            "country_name": "Brazil",
            "connectivity": true
        },
        {
            "lon": -87.38329,
            "lat": 13.20273,
            "school_name": "RONY ISRAEL  FUNEZ",
            "country_name": "Honduras",
            "connectivity": true
        },
        {
            "lon": -87.79688,
            "lat": 14.02023,
            "school_name": "FRANCISCO MORAZAN",
            "country_name": "Honduras",
            "connectivity": true
        },
        {
            "lon": -88.56401,
            "lat": 14.67354,
            "school_name": "ADA ELENA GUERRA ELVIR",
            "country_name": "Honduras",
            "connectivity": true
        },
        {
            "lon": -88.58337,
            "lat": 14.9557,
            "school_name": "RICARDO MEMBRE\u00c3\u0090O",
            "country_name": "Honduras",
            "connectivity": true
        },
        {
            "lon": -87.43613,
            "lat": 15.40821,
            "school_name": "MAURICIO ROSALES",
            "country_name": "Honduras",
            "connectivity": true
        },
        {
            "lon": -87.76909,
            "lat": 15.55019,
            "school_name": "JOSE TRINIDAD REYES",
            "country_name": "Honduras",
            "connectivity": true
        },
        {
            "lon": -87.28728,
            "lat": 14.98261,
            "school_name": "15 DE SEPTIEMBRE",
            "country_name": "Honduras",
            "connectivity": true
        },
        {
            "lon": -60.993239,
            "lat": 13.751757,
            "school_name": "Laborie Boys' Primary",
            "country_name": "Saint Lucia",
            "connectivity": true
        },
        {
            "lon": -47.566,
            "lat": -22.9268,
            "school_name": "MATEUS BISPO DOM",
            "country_name": "Brazil",
            "connectivity": true
        },
        {
            "lon": -48.64123,
            "lat": -28.007292,
            "school_name": "E M AREIAS DE MACACU",
            "country_name": "Brazil",
            "connectivity": false
        },
        {
            "lon": -49.525776,
            "lat": -26.270927,
            "school_name": "EMEB PROF\u00aa SELMA TEIXEIRA GRABOSKI",
            "country_name": "Brazil",
            "connectivity": true
        },
        {
            "lon": -87.58791,
            "lat": 14.8663,
            "school_name": "FELICITA GUZMAN DE CABALLERO",
            "country_name": "Honduras",
            "connectivity": true
        },
        {
            "lon": -58.2617,
            "lat": -11.7031,
            "school_name": "EMEB CEREJAL",
            "country_name": "Brazil",
            "connectivity": true
        },
        {
            "lon": -49.1714,
            "lat": -26.7028,
            "school_name": "CEIM PROF RUDOLF HORNBURG",
            "country_name": "Brazil",
            "connectivity": true
        },
        {
            "lon": -86.45042,
            "lat": 14.20461,
            "school_name": "JOSE TOMAS SERRANO",
            "country_name": "Honduras",
            "connectivity": true
        },
        {
            "lon": -86.61692,
            "lat": 14.33259,
            "school_name": "RAUL OTONIEL MORAZAN",
            "country_name": "Honduras",
            "connectivity": true
        },
        {
            "lon": -87.13282,
            "lat": 14.17895,
            "school_name": "LISANDRO SAGASTUME",
            "country_name": "Honduras",
            "connectivity": true
        },
        {
            "lon": -87.2395,
            "lat": 14.10225,
            "school_name": "CARRIZAL NO. 2",
            "country_name": "Honduras",
            "connectivity": true
        },
        {
            "lon": -87.20648,
            "lat": 14.04423,
            "school_name": "J.N ARCA DE NOE",
            "country_name": "Honduras",
            "connectivity": true
        },
        {
            "lon": -87.14295,
            "lat": 14.63747,
            "school_name": "17 DE JUNIO",
            "country_name": "Honduras",
            "connectivity": true
        },
        {
            "lon": -87.03553,
            "lat": 14.08969,
            "school_name": "DIONISIO DE HERRERA",
            "country_name": "Honduras",
            "connectivity": true
        },
        {
            "lon": -87.04315,
            "lat": 14.33403,
            "school_name": "ALVARO CONTRERAS",
            "country_name": "Honduras",
            "connectivity": true
        },
        {
            "lon": -38.3878,
            "lat": -10.3686,
            "school_name": "ESC MUL SAO JOAO",
            "country_name": "Brazil",
            "connectivity": true
        },
        {
            "lon": -84.51894057,
            "lat": 9.84330403,
            "school_name": "LAGUNAS",
            "country_name": "Costa Rica",
            "connectivity": true
        },
        {
            "lon": -83.21337862,
            "lat": 9.20218214,
            "school_name": "BIKAKLA",
            "country_name": "Costa Rica",
            "connectivity": true
        },
        {
            "lon": -83.37995946,
            "lat": 9.24789625,
            "school_name": "SANTA ROSA",
            "country_name": "Costa Rica",
            "connectivity": true
        },
        {
            "lon": -84.55752199,
            "lat": 10.89739918,
            "school_name": "SANTA ELENA",
            "country_name": "Costa Rica",
            "connectivity": true
        },
        {
            "lon": -82.95347076,
            "lat": 8.82438192,
            "school_name": "SAN JOAQUIN",
            "country_name": "Costa Rica",
            "connectivity": true
        },
        {
            "lon": -83.11129881,
            "lat": 8.72434314,
            "school_name": "LA UNION",
            "country_name": "Costa Rica",
            "connectivity": true
        },
        {
            "lon": 35.270141,
            "lat": 32.136862,
            "school_name": "mohamad bn rashed secondary girls",
            "country_name": "Palestine",
            "connectivity": true
        },
        {
            "lon": -75.66722222,
            "lat": 5.295555556,
            "school_name": "SE AGUA SALADA",
            "country_name": "Colombia",
            "connectivity": true
        },
        {
            "lon": 35.161491,
            "lat": 31.955353,
            "school_name": "mazraa kblia secondary boys",
            "country_name": "Palestine",
            "connectivity": true
        },
        {
            "lon": 35.094261,
            "lat": 31.551494,
            "school_name": "Bait almakdesbasic private g",
            "country_name": "Palestine",
            "connectivity": true
        },
        {
            "lon": 30.66494,
            "lat": -18.27346,
            "school_name": "MADZONGWE",
            "country_name": "Zimbabwe",
            "connectivity": true
        },
        {
            "lon": 30.79286,
            "lat": -20.38424,
            "school_name": "MUSINGARABWI",
            "country_name": "Zimbabwe",
            "connectivity": true
        },
        {
            "lon": 30.58229,
            "lat": -21.1169,
            "school_name": "CHIZUMBA",
            "country_name": "Zimbabwe",
            "connectivity": true
        },
        {
            "lon": 28.54727,
            "lat": -20.14551,
            "school_name": "LUKANYISO",
            "country_name": "Zimbabwe",
            "connectivity": true
        },
        {
            "lon": 28.60969,
            "lat": -18.66495,
            "school_name": "SAZIYABANA",
            "country_name": "Zimbabwe",
            "connectivity": true
        },
        {
            "lon": 26.17457,
            "lat": -18.00095,
            "school_name": "SIKUMBI",
            "country_name": "Zimbabwe",
            "connectivity": true
        },
        {
            "lon": 30.38718,
            "lat": -19.5279,
            "school_name": "TANGLEY RANCH",
            "country_name": "Zimbabwe",
            "connectivity": true
        },
        {
            "lon": -50.1681,
            "lat": -13.2748,
            "school_name": "CENTRO DE ENSINO EM PERIODO INTEGRAL DR DORIVAL BRANDAO DE ANDRADE",
            "country_name": "Brazil",
            "connectivity": true
        },
        {
            "lon": -62.75956346,
            "lat": 17.38116236,
            "school_name": "CHARLESTOWN SECONDARY SCHOOL",
            "country_name": "Saint Kitts and Nevis",
            "connectivity": true
        },
        {
            "lon": -76.98649418,
            "lat": 3.792208634,
            "school_name": "Name unknown",
            "country_name": "Colombia",
            "connectivity": false
        },
        {
            "lon": -75.5817238,
            "lat": 6.289718541,
            "school_name": "Name unknown",
            "country_name": "Colombia",
            "connectivity": false
        },
        {
            "lon": -74.21583333,
            "lat": 4.581944444,
            "school_name": "Name unknown",
            "country_name": "Colombia",
            "connectivity": false
        },
        {
            "lon": 121.558707,
            "lat": 17.800304,
            "school_name": "Campo Elementary School",
            "country_name": "Philippines",
            "connectivity": true
        },
        {
            "lon": 121.7977472,
            "lat": 16.82993889,
            "school_name": "Canangan PS",
            "country_name": "Philippines",
            "connectivity": true
        },
        {
            "lon": 120.396166,
            "lat": 15.586911,
            "school_name": "Mamonit ES",
            "country_name": "Philippines",
            "connectivity": true
        },
        {
            "lon": 120.758224,
            "lat": 13.958761,
            "school_name": "Pook ES",
            "country_name": "Philippines",
            "connectivity": true
        },
        {
            "lon": 122.083336,
            "lat": 13.316667,
            "school_name": "Torrijos CS",
            "country_name": "Philippines",
            "connectivity": true
        },
        {
            "lon": 121.91573,
            "lat": 11.99384,
            "school_name": "Yapak Elementary School",
            "country_name": "Philippines",
            "connectivity": true
        },
        {
            "lon": 123.01638,
            "lat": 10.369581,
            "school_name": "Zamora ES",
            "country_name": "Philippines",
            "connectivity": true
        },
        {
            "lon": 126.1137886,
            "lat": 8.669882966,
            "school_name": "Manyayay MG Demo. School",
            "country_name": "Philippines",
            "connectivity": true
        },
        {
            "lon": 124.800003,
            "lat": 6.783333,
            "school_name": "Mamalinta CES",
            "country_name": "Philippines",
            "connectivity": true
        },
        {
            "lon": 121.00112,
            "lat": 6.051081,
            "school_name": "Salih Ututalum ES",
            "country_name": "Philippines",
            "connectivity": true
        },
        {
            "lon": -45.18828,
            "lat": -18.221111,
            "school_name": "CRECHE MUN ESC PEQUENO POLEGAR",
            "country_name": "Brazil",
            "connectivity": false
        },
        {
            "lon": -72.29687282,
            "lat": 5.66070757,
            "school_name": "ESC NISCOTA",
            "country_name": "Colombia",
            "connectivity": true
        },
        {
            "lon": -72.28138889,
            "lat": 4.816944444,
            "school_name": "MATA DE PI\u00d1A",
            "country_name": "Colombia",
            "connectivity": true
        },
        {
            "lon": -72.2138003,
            "lat": 7.118716798,
            "school_name": "SEDE SAN ANTONIO",
            "country_name": "Colombia",
            "connectivity": true
        },
        {
            "lon": -72.62046966,
            "lat": 6.018355025,
            "school_name": "ESC SAN JOS\u00c9 DE PARPA",
            "country_name": "Colombia",
            "connectivity": true
        },
        {
            "lon": -72.75,
            "lat": 4.82,
            "school_name": "EL GUAFAL",
            "country_name": "Colombia",
            "connectivity": true
        },
        {
            "lon": -73.143611,
            "lat": 5.195833,
            "school_name": "ESC AYATA",
            "country_name": "Colombia",
            "connectivity": true
        },
        {
            "lon": -72.86656316,
            "lat": 10.93250591,
            "school_name": "INSTITUCI\u00d3N EDUCATIVA MAYABANGLOMA",
            "country_name": "Colombia",
            "connectivity": true
        },
        {
            "lon": -72.93761122,
            "lat": 8.616688165,
            "school_name": "SEDE BELLO HORIZONTE",
            "country_name": "Colombia",
            "connectivity": true
        },
        {
            "lon": -73.14376889,
            "lat": 6.647073815,
            "school_name": "ESCUELA RURAL EL CHORO",
            "country_name": "Colombia",
            "connectivity": true
        },
        {
            "lon": -73.13111111,
            "lat": 6.540277778,
            "school_name": "CONCENTRACION ESCOLAR SAGRADA FAMILIA",
            "country_name": "Colombia",
            "connectivity": true
        },
        {
            "lon": -73.37,
            "lat": 3.02,
            "school_name": "SEDE NUESTRA SE\u00d1ORA DE LA PAZ",
            "country_name": "Colombia",
            "connectivity": true
        },
        {
            "lon": -73.03583333,
            "lat": 10.4550933,
            "school_name": "CENTRO EDUCATIVO EL PLAN",
            "country_name": "Colombia",
            "connectivity": true
        },
        {
            "lon": -73.66276692,
            "lat": 8.668822573,
            "school_name": "ESC. RURAL CARRIZAL",
            "country_name": "Colombia",
            "connectivity": true
        },
        {
            "lon": -73.67833431,
            "lat": 5.983779524,
            "school_name": "ESCUELA RURAL LA CAPILLA",
            "country_name": "Colombia",
            "connectivity": true
        },
        {
            "lon": -73.6039832,
            "lat": 6.303864292,
            "school_name": "ESCUELA RURAL EL PATO",
            "country_name": "Colombia",
            "connectivity": true
        },
        {
            "lon": -73.77583333,
            "lat": 5.869166667,
            "school_name": "CENTRO EDUCATIVO  AGUA FRIA",
            "country_name": "Colombia",
            "connectivity": true
        },
        {
            "lon": -74.06611111,
            "lat": 9.12861111,
            "school_name": "ERM DE GARZON",
            "country_name": "Colombia",
            "connectivity": true
        },
        {
            "lon": -75.180556,
            "lat": 6.1275,
            "school_name": "C.E.R. SAN ESTEBAN",
            "country_name": "Colombia",
            "connectivity": true
        },
        {
            "lon": -76.04,
            "lat": 2.65,
            "school_name": "I.E. AGROPECUARIA KPI SX ZUN CALDERAS - CALDERAS - SEDE PRINCIPAL",
            "country_name": "Colombia",
            "connectivity": true
        },
        {
            "lon": -76.081068,
            "lat": 9.101113,
            "school_name": "BAJO GRANDE",
            "country_name": "Colombia",
            "connectivity": true
        },
        {
            "lon": -76.2091381,
            "lat": 4.308766204,
            "school_name": "MARIA AGUSTINA MADRID",
            "country_name": "Colombia",
            "connectivity": true
        },
        {
            "lon": -76.26222222,
            "lat": 6.999722222,
            "school_name": "E U EL PESEBRE",
            "country_name": "Colombia",
            "connectivity": true
        },
        {
            "lon": -76.26915608,
            "lat": 1.88208415,
            "school_name": "ALIANZA PARA EL PROGRESO",
            "country_name": "Colombia",
            "connectivity": true
        },
        {
            "lon": -76.43595692,
            "lat": 0.616270497,
            "school_name": "ESFOBIN LAS MINAS",
            "country_name": "Colombia",
            "connectivity": true
        },
        {
            "lon": -76.4969784,
            "lat": 3.006342106,
            "school_name": "BELLO HORIZONTE",
            "country_name": "Colombia",
            "connectivity": true
        },
        {
            "lon": -77.46781667,
            "lat": 1.25194444,
            "school_name": "CENT EDUC SAN MIGUEL",
            "country_name": "Colombia",
            "connectivity": true
        },
        {
            "lon": -60.6563,
            "lat": -2.6414,
            "school_name": "EM ESTRELA DA MANHA",
            "country_name": "Brazil",
            "connectivity": true
        },
        {
            "lon": -59.091,
            "lat": -3.8876,
            "school_name": "ESCOLA MUNICIPAL JARDIM DA INFANCIA 03 DE OUTUBRO",
            "country_name": "Brazil",
            "connectivity": false
        },
        {
            "lon": -57.6427,
            "lat": -3.2766,
            "school_name": "ESC MUN OLAVO SILVA",
            "country_name": "Brazil",
            "connectivity": false
        },
        {
            "lon": -60.7107,
            "lat": 2.8185,
            "school_name": "ESCOLA ESTADUAL GIRASSOL",
            "country_name": "Brazil",
            "connectivity": true
        },
        {
            "lon": -50.8535,
            "lat": -1.1737,
            "school_name": "E M E F PORTO PAMPEIRO RIO TAJAPURU",
            "country_name": "Brazil",
            "connectivity": false
        },
        {
            "lon": -49.0328,
            "lat": -1.8311,
            "school_name": "E M E F SAO JOSE CAMARAO QUARA",
            "country_name": "Brazil",
            "connectivity": false
        },
        {
            "lon": -48.9755,
            "lat": -1.9033,
            "school_name": "E M E F SAO MIGUEL- ITAMINBUCA",
            "country_name": "Brazil",
            "connectivity": false
        },
        {
            "lon": -47.4384,
            "lat": -1.7702,
            "school_name": "E M E I F HEBRON",
            "country_name": "Brazil",
            "connectivity": false
        },
        {
            "lon": -46.9463,
            "lat": -2.355,
            "school_name": "E M E I F NOSSA SENHORA DA DIVINA PROVIDENCIA",
            "country_name": "Brazil",
            "connectivity": false
        },
        {
            "lon": -48.7482,
            "lat": -6.1893,
            "school_name": "E M E F ANDRE VIDAL",
            "country_name": "Brazil",
            "connectivity": true
        },
        {
            "lon": -55.1196,
            "lat": -7.6149,
            "school_name": "E M E I E F PROF MARIA JOSE VILANOVA DE BRITO",
            "country_name": "Brazil",
            "connectivity": true
        },
        {
            "lon": -47.5061,
            "lat": -3.755,
            "school_name": "E M E F DR\u00ba WILSON ZANCANER",
            "country_name": "Brazil",
            "connectivity": true
        },
        {
            "lon": -55.0984,
            "lat": -1.7302,
            "school_name": "EMEI AIDA PEREIRA",
            "country_name": "Brazil",
            "connectivity": false
        },
        {
            "lon": -50.9622,
            "lat": -0.9328,
            "school_name": "E M E F NOVA ESPERANCA RIO ROSA",
            "country_name": "Brazil",
            "connectivity": false
        },
        {
            "lon": -47.8906,
            "lat": -1.3012,
            "school_name": "EMEF CACILDA POSSIDONIO NASCIMENTO",
            "country_name": "Brazil",
            "connectivity": true
        },
        {
            "lon": -44.7795,
            "lat": -2.445,
            "school_name": "ESCOLA MUNICIPAL RAIMUNDA PAIXAO RIBEIRO",
            "country_name": "Brazil",
            "connectivity": true
        },
        {
            "lon": -49.8679,
            "lat": -6.5453,
            "school_name": "NEI IRANI VIEIRA DA SILVA",
            "country_name": "Brazil",
            "connectivity": true
        },
        {
            "lon": -44.1639,
            "lat": -2.503,
            "school_name": "UEB EMMANUEL AROSO",
            "country_name": "Brazil",
            "connectivity": true
        },
        {
            "lon": -44.0681,
            "lat": -2.5508,
            "school_name": "EM VERA MATOS",
            "country_name": "Brazil",
            "connectivity": false
        },
        {
            "lon": -45.2547,
            "lat": -4.2865,
            "school_name": "UNIDADE ESCOLAR PROFESSORA CREUSA MESQUITA SOUSA",
            "country_name": "Brazil",
            "connectivity": true
        },
        {
            "lon": -45.2209,
            "lat": -5.0527,
            "school_name": "UNIDADE ESCOLAR NOSSA SRA DE FATIMA",
            "country_name": "Brazil",
            "connectivity": false
        },
        {
            "lon": -44.9929,
            "lat": -5.1337,
            "school_name": "UNIDADE ESCOLAR PRINCESA ISABEL",
            "country_name": "Brazil",
            "connectivity": false
        },
        {
            "lon": -44.4263,
            "lat": -5.0593,
            "school_name": "ESCOLA MUNICIPAL 15 DE NOVEMBRO",
            "country_name": "Brazil",
            "connectivity": false
        },
        {
            "lon": -44.3819,
            "lat": -5.5845,
            "school_name": "UE HUMBERTO DE CAMPOS",
            "country_name": "Brazil",
            "connectivity": false
        },
        {
            "lon": -44.2568,
            "lat": -4.8129,
            "school_name": "UEM ANTONIO JOSE SERRA FIGUEIREDO",
            "country_name": "Brazil",
            "connectivity": false
        },
        {
            "lon": -47.4861,
            "lat": -4.941,
            "school_name": "CENTRO DE ENSINO MARY DALVA CASTRO ROCHA",
            "country_name": "Brazil",
            "connectivity": true
        },
        {
            "lon": -45.7331,
            "lat": -1.4538,
            "school_name": "ESCOLA DE MUSICA ZUILA LEITE PROTAZIO",
            "country_name": "Brazil",
            "connectivity": false
        },
        {
            "lon": -43.3501,
            "lat": -4.8813,
            "school_name": "ESCOLINHA TIA JOANA",
            "country_name": "Brazil",
            "connectivity": true
        },
        {
            "lon": -47.4602,
            "lat": -5.4953,
            "school_name": "EM DE EDUCACAO INFANTIL GOVERNADOR JACKSON LAGO",
            "country_name": "Brazil",
            "connectivity": false
        },
        {
            "lon": -43.9016,
            "lat": -5.1581,
            "school_name": "CCRECHE MUNICIPAL TIA INES",
            "country_name": "Brazil",
            "connectivity": false
        },
        {
            "lon": -42.4947,
            "lat": -3.5389,
            "school_name": "UNID ESC PEDRO TEIXEIRA",
            "country_name": "Brazil",
            "connectivity": false
        },
        {
            "lon": -42.6273,
            "lat": -5.8915,
            "school_name": "ESCOLA MUNICIPAL ADELAIDE ROSA",
            "country_name": "Brazil",
            "connectivity": true
        },
        {
            "lon": -42.7269,
            "lat": -6.4731,
            "school_name": "UNID ESC MUL SETE DE SETEMBRO",
            "country_name": "Brazil",
            "connectivity": true
        },
        {
            "lon": -42.9108,
            "lat": -8.3992,
            "school_name": "UNIDADE ESCOLAR JOAO VALENTE",
            "country_name": "Brazil",
            "connectivity": true
        },
        {
            "lon": -40.7312,
            "lat": -3.8415,
            "school_name": "JOAO SILVERIO DE AZEVEDO EEIEF",
            "country_name": "Brazil",
            "connectivity": true
        },
        {
            "lon": -40.6067,
            "lat": -4.1766,
            "school_name": "FRANCISCO SILVEIRA EEIF",
            "country_name": "Brazil",
            "connectivity": true
        },
        {
            "lon": -39.904,
            "lat": -3.2775,
            "school_name": "RAIMUNDO GOMES GARCEZ EEB",
            "country_name": "Brazil",
            "connectivity": true
        },
        {
            "lon": -39.148,
            "lat": -3.4397,
            "school_name": "BETEL EMEF",
            "country_name": "Brazil",
            "connectivity": true
        },
        {
            "lon": -35.2029,
            "lat": -6.2813,
            "school_name": "EM DR JOAO B GADELHA DO E SANTO",
            "country_name": "Brazil",
            "connectivity": true
        },
        {
            "lon": -37.29,
            "lat": -7.011,
            "school_name": "ESCOLA ROTARY CLUB DE ENSINO FUNDAMENTAL MARCONI ARAUJO LEITE",
            "country_name": "Brazil",
            "connectivity": true
        },
        {
            "lon": -36.5291,
            "lat": -7.177,
            "school_name": "EMEF FRANCISCA NUNES PEREIRA",
            "country_name": "Brazil",
            "connectivity": false
        },
        {
            "lon": -35.111,
            "lat": -6.65,
            "school_name": "ESC MUL PRES GETULIO VARGAS",
            "country_name": "Brazil",
            "connectivity": false
        },
        {
            "lon": -38.0852,
            "lat": -6.7913,
            "school_name": "EMEF SEVERINA FERREIRA DE SOUSA",
            "country_name": "Brazil",
            "connectivity": true
        },
        {
            "lon": -35.8043,
            "lat": -6.9715,
            "school_name": "CRECHE E PRE ESCOLA MUNICIPAL MARIA APARECIDA FIDELIS DOS SANTOS - TIA TIDA",
            "country_name": "Brazil",
            "connectivity": false
        },
        {
            "lon": -37.7314,
            "lat": -8.2684,
            "school_name": "ESCOLA MUNICIPAL LUIZ CRISTINO BEZERRA",
            "country_name": "Brazil",
            "connectivity": false
        },
        {
            "lon": -36.0924,
            "lat": -7.8579,
            "school_name": "ESC MUL PE IBIAPINA-ED INFANTIL E ENS FUNDAMENTAL",
            "country_name": "Brazil",
            "connectivity": true
        },
        {
            "lon": -35.4256,
            "lat": -8.1307,
            "school_name": "ESCOLA MUNICIPAL JOAO ALVES DE FREITAS",
            "country_name": "Brazil",
            "connectivity": false
        },
        {
            "lon": -35.0635,
            "lat": -8.402,
            "school_name": "ESCOLA MUNICIPAL SANTO CRISTO",
            "country_name": "Brazil",
            "connectivity": true
        },
        {
            "lon": -44.9852,
            "lat": -3.2009,
            "school_name": "UE LUIS CARLOS GUIMARAES",
            "country_name": "Brazil",
            "connectivity": true
        },
        {
            "lon": -38.8511,
            "lat": -12.0589,
            "school_name": "ESCOLA JOSE DE LIMA VALVERDE",
            "country_name": "Brazil",
            "connectivity": true
        },
        {
            "lon": -42.7335,
            "lat": -12.5696,
            "school_name": "ESCOLA MUNICIPAL DE LAGOA DO LEITE",
            "country_name": "Brazil",
            "connectivity": false
        },
        {
            "lon": -42.3387,
            "lat": -12.7809,
            "school_name": "ESC MUL DE LAGRIMAS",
            "country_name": "Brazil",
            "connectivity": true
        },
        {
            "lon": -42.6176,
            "lat": -13.086,
            "school_name": "ESC MUL DE ENCHU",
            "country_name": "Brazil",
            "connectivity": true
        },
        {
            "lon": -40.9431,
            "lat": -15.242,
            "school_name": "ESCOLA MUNICIPAL AFONSO HOFFMAN",
            "country_name": "Brazil",
            "connectivity": true
        },
        {
            "lon": -38.4662,
            "lat": -3.8143,
            "school_name": "ESCOLA MUNICIPAL MOREIRA DA ROCHA",
            "country_name": "Brazil",
            "connectivity": true
        },
        {
            "lon": -43.6007,
            "lat": -14.4164,
            "school_name": "ESC MUL ODILON PEREIRA",
            "country_name": "Brazil",
            "connectivity": false
        },
        {
            "lon": -44.5121,
            "lat": -10.9987,
            "school_name": "CRECHE MUNICIPAL PROFESSORA MARIA LAURINDA",
            "country_name": "Brazil",
            "connectivity": true
        },
        {
            "lon": -45.1385,
            "lat": -10.8826,
            "school_name": "ESCOLA MUNICIPAL FRANCISCO DA SILVA NOGUEIRA",
            "country_name": "Brazil",
            "connectivity": true
        },
        {
            "lon": -42.6947,
            "lat": -13.0141,
            "school_name": "ESCOLA MUNICIPAL DE EDUCACAO BASICA VEREADOR MANOEL JOAO PEREIRA",
            "country_name": "Brazil",
            "connectivity": true
        },
        {
            "lon": -42.459,
            "lat": -13.6401,
            "school_name": "CRECHE JACAREZINHO",
            "country_name": "Brazil",
            "connectivity": false
        },
        {
            "lon": -43.9836,
            "lat": -19.9057,
            "school_name": "EE ELISEU LABORNE E VALE",
            "country_name": "Brazil",
            "connectivity": true
        },
        {
            "lon": -44.0661,
            "lat": -21.6369,
            "school_name": "EM EVARISTO FERREIRA DA FONSECA",
            "country_name": "Brazil",
            "connectivity": false
        },
        {
            "lon": -44.125,
            "lat": -15.1773,
            "school_name": "EE PETRONIO PORTELLA",
            "country_name": "Brazil",
            "connectivity": true
        },
        {
            "lon": -42.6954,
            "lat": -20.4072,
            "school_name": "EM JOSE BENTO RIBEIRO",
            "country_name": "Brazil",
            "connectivity": false
        },
        {
            "lon": -43.7068,
            "lat": -16.3263,
            "school_name": "EM ILDA FERNANDES DE OLIVEIRA",
            "country_name": "Brazil",
            "connectivity": true
        },
        {
            "lon": -43.3436,
            "lat": -21.732,
            "school_name": "CRECHE NIVEA BRACHER",
            "country_name": "Brazil",
            "connectivity": true
        },
        {
            "lon": -37.0558,
            "lat": -10.5068,
            "school_name": "COLEGIO ESTADUAL IRMA MARIA CLEMENCIA",
            "country_name": "Brazil",
            "connectivity": true
        },
        {
            "lon": -40.3565,
            "lat": -19.5081,
            "school_name": "EMPEF PATRIMONIO DO HUMAITA",
            "country_name": "Brazil",
            "connectivity": false
        },
        {
            "lon": -54.8201,
            "lat": -29.8923,
            "school_name": "ESC EST ENS MED NOSSA SENHORA DAS VITORIAS",
            "country_name": "Brazil",
            "connectivity": true
        },
        {
            "lon": -49.371,
            "lat": -16.7157,
            "school_name": "COLEGIO ESTADUAL BENEDITO LUCIMAR HESKETH DA SILVA",
            "country_name": "Brazil",
            "connectivity": true
        },
        {
            "lon": -41.8105,
            "lat": -20.9788,
            "school_name": "ESC MUL MUNDO NOVO",
            "country_name": "Brazil",
            "connectivity": false
        },
        {
            "lon": -36.3513,
            "lat": -6.8643,
            "school_name": "ECI IOLANDA TEREZA CHAVES LIMA",
            "country_name": "Brazil",
            "connectivity": true
        },
        {
            "lon": -49.3191,
            "lat": -23.004,
            "school_name": "HERMELINDO PRESTES EMEISEF",
            "country_name": "Brazil",
            "connectivity": true
        },
        {
            "lon": -43.2565,
            "lat": -22.8499,
            "school_name": "0410806 EDI PIERRE JANET",
            "country_name": "Brazil",
            "connectivity": true
        },
        {
            "lon": -43.4162,
            "lat": -22.7153,
            "school_name": "E M TENENTE VALMOR LYNCH VALENCA",
            "country_name": "Brazil",
            "connectivity": true
        },
        {
            "lon": -43.3348,
            "lat": -22.7065,
            "school_name": "CRECHE MUNICIPAL PROFESSORA MARIA DA SILVA BARBOSA",
            "country_name": "Brazil",
            "connectivity": true
        },
        {
            "lon": -42.1919,
            "lat": -21.5336,
            "school_name": "FAETEC SANTO ANTONIO DE PADUA",
            "country_name": "Brazil",
            "connectivity": true
        },
        {
            "lon": -46.7172,
            "lat": -23.7607,
            "school_name": "MARIA AMELIA BRAZ PROFA",
            "country_name": "Brazil",
            "connectivity": true
        },
        {
            "lon": -46.794,
            "lat": -23.5035,
            "school_name": "FRANCISCA LISBOA PERALTA PROFESSORA",
            "country_name": "Brazil",
            "connectivity": true
        },
        {
            "lon": -52.4221,
            "lat": -28.2517,
            "school_name": "ESC EST ENS MED ERNESTO TOCCHETTO",
            "country_name": "Brazil",
            "connectivity": true
        },
        {
            "lon": -47.9268,
            "lat": -24.3819,
            "school_name": "MATERNAL ESCOLA MUNICIPAL DE EDUCACAO INFANTIL",
            "country_name": "Brazil",
            "connectivity": true
        },
        {
            "lon": -46.4556,
            "lat": -23.9508,
            "school_name": "KELMA MARIA TOFFETI GONCALVES PROFA EMEI",
            "country_name": "Brazil",
            "connectivity": true
        },
        {
            "lon": -46.7644,
            "lat": -23.613,
            "school_name": "MINGAU EMEI",
            "country_name": "Brazil",
            "connectivity": true
        },
        {
            "lon": -47.7696,
            "lat": -21.1226,
            "school_name": "ALCINA DOS SANTOS HECK EMEF",
            "country_name": "Brazil",
            "connectivity": true
        },
        {
            "lon": -46.5569,
            "lat": -23.5174,
            "school_name": "EMEF CELIA REGINA LEKEVICIUS CONSOLIN PROFA",
            "country_name": "Brazil",
            "connectivity": true
        },
        {
            "lon": -47.4601,
            "lat": -23.5773,
            "school_name": "MARIA JOSE SILVA OLIVEIRA CRECHE",
            "country_name": "Brazil",
            "connectivity": true
        },
        {
            "lon": -47.808,
            "lat": -21.1275,
            "school_name": "FELICITA DRUDI COSTA PINTO CENTRO DE EDUCACAO INFANTIL",
            "country_name": "Brazil",
            "connectivity": true
        },
        {
            "lon": -46.8263,
            "lat": -23.4241,
            "school_name": "COLEGIO MUNICIPAL LUIZ CARLOS BARBOSA",
            "country_name": "Brazil",
            "connectivity": true
        },
        {
            "lon": -49.3308,
            "lat": -24.1097,
            "school_name": "MARIA DA SILVEIRA VASCONCELOS EM",
            "country_name": "Brazil",
            "connectivity": true
        },
        {
            "lon": -47.1901,
            "lat": -23.5432,
            "school_name": "PAULO FREIRE PROFESSOR EDUCADOR ESCOLA MUNICIPAL",
            "country_name": "Brazil",
            "connectivity": true
        },
        {
            "lon": -46.4132,
            "lat": -23.5844,
            "school_name": "CEI DIRET MARIO PEREIRA COSTA PROF",
            "country_name": "Brazil",
            "connectivity": true
        },
        {
            "lon": -50.5224,
            "lat": -21.339,
            "school_name": "FERNANDO GOMES DE CASTRO PROFESSOR EMEB",
            "country_name": "Brazil",
            "connectivity": true
        },
        {
            "lon": -46.496,
            "lat": -23.4161,
            "school_name": "PROFESSOR MARCOS HOLANDA ALMEIDA",
            "country_name": "Brazil",
            "connectivity": true
        },
        {
            "lon": -46.2084,
            "lat": -23.5414,
            "school_name": "BENEDITO FERREIRA LOPES CENTRO MUN DE PROG EDUCACIONAIS",
            "country_name": "Brazil",
            "connectivity": true
        },
        {
            "lon": -51.243,
            "lat": -23.2899,
            "school_name": "ESCOLA MUNICIPAL PE SYMPHORIANO KOPF - EIEF",
            "country_name": "Brazil",
            "connectivity": true
        },
        {
            "lon": -50.346,
            "lat": -27.8129,
            "school_name": "EMEF PEDRAS BRANCAS",
            "country_name": "Brazil",
            "connectivity": false
        },
        {
            "lon": -50.7581,
            "lat": -27.9003,
            "school_name": "ESCOLA DE EDUCACAO INFANTIL PINGO DE GENTE",
            "country_name": "Brazil",
            "connectivity": true
        },
        {
            "lon": -53.5239,
            "lat": -26.6012,
            "school_name": "EEB SARA CASTELHANO KLEINKAUF",
            "country_name": "Brazil",
            "connectivity": true
        },
        {
            "lon": -49.9345,
            "lat": -22.2447,
            "school_name": "NOSSA SENHORA DA GLORIA EMEI",
            "country_name": "Brazil",
            "connectivity": true
        },
        {
            "lon": -49.1448,
            "lat": -25.3763,
            "school_name": "ANJO GABRIEL C M E I",
            "country_name": "Brazil",
            "connectivity": true
        },
        {
            "lon": -49.0224,
            "lat": -25.3575,
            "school_name": "TANCREDO A NEVES E M PRES EI EF",
            "country_name": "Brazil",
            "connectivity": true
        },
        {
            "lon": -51.0397,
            "lat": -29.6605,
            "school_name": "EMEI CEBOLINHA",
            "country_name": "Brazil",
            "connectivity": true
        },
        {
            "lon": -46.6402,
            "lat": -23.5539,
            "school_name": "PAULO MACHADO DE CARVALHO",
            "country_name": "Brazil",
            "connectivity": true
        },
        {
            "lon": -46.4625,
            "lat": -23.6289,
            "school_name": "SILVANA EVANGELISTA PROFESSORA",
            "country_name": "Brazil",
            "connectivity": true
        },
        {
            "lon": -38.458,
            "lat": -3.9302,
            "school_name": "ALOISIO BERNARDO DE CASTRO EMEF",
            "country_name": "Brazil",
            "connectivity": true
        },
        {
            "lon": -52.9637,
            "lat": -29.4514,
            "school_name": "ESC MUN ENS FUN JOSE RECH",
            "country_name": "Brazil",
            "connectivity": true
        },
        {
            "lon": -49.0681,
            "lat": -26.8782,
            "school_name": "EEB PROF HERIBERTO JOSEPH MULLER",
            "country_name": "Brazil",
            "connectivity": true
        },
        {
            "lon": -41.787,
            "lat": -17.8039,
            "school_name": "EE CLAUDIO MANOEL",
            "country_name": "Brazil",
            "connectivity": true
        }
    ],
    "num_countries": 13,
    "countries": [
        "Brazil",
        "Colombia",
        "Costa Rica",
        "Honduras",
        "Kazakhstan",
        "Kyrgyzstan",
        "Palestine",
        "Philippines",
        "Rwanda",
        "Saint Kitts and Nevis",
        "Saint Lucia",
        "Sierra Leone",
        "Zimbabwe"
    ],
    "schools_no_data": [
        {
            "lon": 28.32356,
            "lat": -15.4479,
            "school_name": "LIBALA STG III PRIMARY",
            "country_name": "Zambia",
            "connectivity": false
        },
        {
            "lon": -8.546683,
            "lat": 7.568915,
            "school_name": "Yekepa Free Pentecostal Elem&Jr. High",
            "country_name": "Liberia",
            "connectivity": false
        },
        {
            "lon": -8.464113,
            "lat": 7.119832,
            "school_name": "Garplay Inland Mission",
            "country_name": "Liberia",
            "connectivity": false
        },
        {
            "lon": 1.1492601,
            "lat": 6.100008,
            "school_name": "Name unknown",
            "country_name": "Ghana",
            "connectivity": false
        },
        {
            "lon": 0.9853555,
            "lat": 5.8925438,
            "school_name": "Name unknown",
            "country_name": "Ghana",
            "connectivity": false
        },
        {
            "lon": 32.8996543166667,
            "lat": 14.0565053833333,
            "school_name": "Name unknown",
            "country_name": "Sudan",
            "connectivity": false
        },
        {
            "lon": 32.63825208,
            "lat": 13.40571353,
            "school_name": "Name unknown",
            "country_name": "Sudan",
            "connectivity": false
        },
        {
            "lon": 34.12141,
            "lat": 12.504182,
            "school_name": "Name unknown",
            "country_name": "Sudan",
            "connectivity": false
        },
        {
            "lon": -61.56424368,
            "lat": -30.94927254,
            "school_name": "I.S.P.A. NRO 9244 I.C.E.S.",
            "country_name": "Argentina",
            "connectivity": false
        },
        {
            "lon": 0.619997,
            "lat": 5.7797277,
            "school_name": "Name unknown",
            "country_name": "Ghana",
            "connectivity": false
        },
        {
            "lon": -2.5523686,
            "lat": 6.9080064,
            "school_name": "Name unknown",
            "country_name": "Ghana",
            "connectivity": false
        },
        {
            "lon": -0.0672645,
            "lat": 5.6516404,
            "school_name": "Name unknown",
            "country_name": "Ghana",
            "connectivity": false
        },
        {
            "lon": -0.8075759,
            "lat": 10.793851,
            "school_name": "Name unknown",
            "country_name": "Ghana",
            "connectivity": false
        },
        {
            "lon": 34.4890575,
            "lat": 0.8265498,
            "school_name": "Kamarang Primary School",
            "country_name": "Kenya",
            "connectivity": false
        },
        {
            "lon": -63.199673,
            "lat": -19.68251,
            "school_name": "ENGRACIA DE GUTIERREZ",
            "country_name": "Bolivia (Plurinational State of)",
            "connectivity": false
        },
        {
            "lon": -1.9437553,
            "lat": 8.1600538,
            "school_name": "Name unknown",
            "country_name": "Ghana",
            "connectivity": false
        },
        {
            "lon": 38.96324,
            "lat": -7.86527,
            "school_name": "MISIMBO",
            "country_name": "United Republic of Tanzania",
            "connectivity": false
        },
        {
            "lon": 35.70495,
            "lat": -7.77346,
            "school_name": "GANGILONGA",
            "country_name": "United Republic of Tanzania",
            "connectivity": false
        },
        {
            "lon": 34.82149,
            "lat": -11.11038,
            "school_name": "MITULA",
            "country_name": "United Republic of Tanzania",
            "connectivity": false
        },
        {
            "lon": 33.67801,
            "lat": -8.82409,
            "school_name": "IKUYU",
            "country_name": "United Republic of Tanzania",
            "connectivity": false
        },
        {
            "lon": 33.70623,
            "lat": -9.08119,
            "school_name": "NGUMBULU",
            "country_name": "United Republic of Tanzania",
            "connectivity": false
        },
        {
            "lon": -2.0101976,
            "lat": 7.6175676,
            "school_name": "Name unknown",
            "country_name": "Ghana",
            "connectivity": false
        },
        {
            "lon": 31.11664,
            "lat": -1.86756,
            "school_name": "MUUNGANO",
            "country_name": "United Republic of Tanzania",
            "connectivity": false
        },
        {
            "lon": 39.47011,
            "lat": -7.00736,
            "school_name": "MUHIMBILI II",
            "country_name": "United Republic of Tanzania",
            "connectivity": false
        },
        {
            "lon": 31.98988,
            "lat": -3.068,
            "school_name": "NYAMISEBEI",
            "country_name": "United Republic of Tanzania",
            "connectivity": false
        },
        {
            "lon": 32.80129,
            "lat": -4.86088,
            "school_name": "MAGOWEKO",
            "country_name": "United Republic of Tanzania",
            "connectivity": false
        },
        {
            "lon": 35.91169,
            "lat": -3.40433,
            "school_name": "LOSIRWA",
            "country_name": "United Republic of Tanzania",
            "connectivity": false
        },
        {
            "lon": -1.8729246,
            "lat": 7.7823276,
            "school_name": "Name unknown",
            "country_name": "Ghana",
            "connectivity": false
        },
        {
            "lon": 1.213023,
            "lat": 6.43101,
            "school_name": "JEE EVANGELIQUE DE TSEVIE",
            "country_name": "Togo",
            "connectivity": false
        },
        {
            "lon": 0.848853,
            "lat": 7.346513,
            "school_name": "JEE SODO",
            "country_name": "Togo",
            "connectivity": false
        },
        {
            "lon": 1.576915,
            "lat": 6.384842,
            "school_name": "EPC VO KPONOU",
            "country_name": "Togo",
            "connectivity": false
        },
        {
            "lon": 1.213128333,
            "lat": 6.39422,
            "school_name": "EPL LA CITE DU SAVOIR",
            "country_name": "Togo",
            "connectivity": false
        },
        {
            "lon": 0.622426,
            "lat": 6.9152,
            "school_name": "EPP KPEGOLO/A",
            "country_name": "Togo",
            "connectivity": false
        },
        {
            "lon": 0.583097,
            "lat": 6.763383,
            "school_name": "EPP NYIVE WODOME",
            "country_name": "Togo",
            "connectivity": false
        },
        {
            "lon": 0.792585,
            "lat": 6.795051,
            "school_name": "EPP AVETONOU G/B",
            "country_name": "Togo",
            "connectivity": false
        },
        {
            "lon": 0.9544,
            "lat": 6.8497,
            "school_name": "EDIL AKOLIKOPE",
            "country_name": "Togo",
            "connectivity": false
        },
        {
            "lon": 1.178696,
            "lat": 9.196845,
            "school_name": "EPP KIKIMINI",
            "country_name": "Togo",
            "connectivity": false
        },
        {
            "lon": 1.423413,
            "lat": 9.124729,
            "school_name": "EPP YELIWA 1",
            "country_name": "Togo",
            "connectivity": false
        },
        {
            "lon": 0.588476,
            "lat": 9.634023,
            "school_name": "EPP NAGNINE",
            "country_name": "Togo",
            "connectivity": false
        },
        {
            "lon": 0.421533333,
            "lat": 10.15778333,
            "school_name": "EPP TADERI",
            "country_name": "Togo",
            "connectivity": false
        },
        {
            "lon": 6.508363185,
            "lat": 6.289743683,
            "school_name": "Name unknown",
            "country_name": "Nigeria",
            "connectivity": false
        },
        {
            "lon": 1.197249,
            "lat": 6.243684,
            "school_name": "CPL ETOILE BLEUE",
            "country_name": "Togo",
            "connectivity": false
        },
        {
            "lon": 1.085569,
            "lat": 9.476944,
            "school_name": "CEG BOUNOH",
            "country_name": "Togo",
            "connectivity": false
        },
        {
            "lon": 21.046362,
            "lat": 44.405501,
            "school_name": "\u0412\u0443\u043a \u041a\u0430\u0440\u0430\u045f\u0438\u045b",
            "country_name": "Serbia",
            "connectivity": false
        },
        {
            "lon": 31.45719,
            "lat": -2.89342,
            "school_name": "MBINDI",
            "country_name": "United Republic of Tanzania",
            "connectivity": false
        },
        {
            "lon": 32.39415,
            "lat": -3.30151,
            "school_name": "BUYANGE",
            "country_name": "United Republic of Tanzania",
            "connectivity": false
        },
        {
            "lon": 37.68269,
            "lat": -6.80714,
            "school_name": "AREA FIVE",
            "country_name": "United Republic of Tanzania",
            "connectivity": false
        },
        {
            "lon": 0.682421,
            "lat": 7.331154,
            "school_name": "CEG DANYI BABAXOE",
            "country_name": "Togo",
            "connectivity": false
        },
        {
            "lon": 35.13734978,
            "lat": -17.00383082,
            "school_name": "Mbale",
            "country_name": "Malawi",
            "connectivity": false
        },
        {
            "lon": 33.82002576,
            "lat": -14.00369897,
            "school_name": "St Bapton Pvt Primary School",
            "country_name": "Malawi",
            "connectivity": false
        },
        {
            "lon": 33.29759673,
            "lat": -13.80323959,
            "school_name": "Khasu Prim School",
            "country_name": "Malawi",
            "connectivity": false
        },
        {
            "lon": 34.20774049,
            "lat": -11.64190957,
            "school_name": "Chombe",
            "country_name": "Malawi",
            "connectivity": false
        },
        {
            "lon": 33.83738255,
            "lat": -12.99802756,
            "school_name": "Mchentche Primary School",
            "country_name": "Malawi",
            "connectivity": false
        },
        {
            "lon": 27.35081843,
            "lat": -5.26917136,
            "school_name": "INSTITUT KILONDA",
            "country_name": "Democratic Republic of the Congo",
            "connectivity": false
        },
        {
            "lon": 15.31367397,
            "lat": -4.385051481,
            "school_name": "CS FAMILIA LIBOTA",
            "country_name": "Democratic Republic of the Congo",
            "connectivity": false
        },
        {
            "lon": 27.18059542,
            "lat": 3.034044418,
            "school_name": "EP KUMBATAYO",
            "country_name": "Democratic Republic of the Congo",
            "connectivity": false
        },
        {
            "lon": 25.74058075,
            "lat": -5.383091238,
            "school_name": "LYCEE TETE MENDAKU",
            "country_name": "Democratic Republic of the Congo",
            "connectivity": false
        },
        {
            "lon": 27.53572377,
            "lat": -11.65140506,
            "school_name": "CS FLEUVE D'EAU VIVE",
            "country_name": "Democratic Republic of the Congo",
            "connectivity": false
        },
        {
            "lon": 27.53244094,
            "lat": -11.60908052,
            "school_name": "CS LE PROGRES",
            "country_name": "Democratic Republic of the Congo",
            "connectivity": false
        },
        {
            "lon": 28.61686994,
            "lat": -8.764600045,
            "school_name": "INST KILALA NTAMBO",
            "country_name": "Democratic Republic of the Congo",
            "connectivity": false
        },
        {
            "lon": 29.31436082,
            "lat": 0.085620511,
            "school_name": "CS LA GLOIRE",
            "country_name": "Democratic Republic of the Congo",
            "connectivity": false
        },
        {
            "lon": 28.94515558,
            "lat": -1.923144448,
            "school_name": "EP NYANGE",
            "country_name": "Democratic Republic of the Congo",
            "connectivity": false
        },
        {
            "lon": 33.72854,
            "lat": -4.00771,
            "school_name": "IKONDA",
            "country_name": "United Republic of Tanzania",
            "connectivity": false
        },
        {
            "lon": 27.00725629,
            "lat": -4.907690549,
            "school_name": "EP AMANI",
            "country_name": "Democratic Republic of the Congo",
            "connectivity": false
        },
        {
            "lon": 21.49997847,
            "lat": 2.16213342,
            "school_name": "INST NENGO",
            "country_name": "Democratic Republic of the Congo",
            "connectivity": false
        },
        {
            "lon": 28.16514444,
            "lat": -3.203891667,
            "school_name": "EP KABOGE",
            "country_name": "Democratic Republic of the Congo",
            "connectivity": false
        },
        {
            "lon": 13.4700296,
            "lat": -5.82232567,
            "school_name": "INST MINKONDO 2",
            "country_name": "Democratic Republic of the Congo",
            "connectivity": false
        },
        {
            "lon": 23.0477091,
            "lat": -5.7903868,
            "school_name": "INST CIKELENGE",
            "country_name": "Democratic Republic of the Congo",
            "connectivity": false
        },
        {
            "lon": -66.921004,
            "lat": -18.598387,
            "school_name": "21 DE SEPTIEMBRE",
            "country_name": "Bolivia (Plurinational State of)",
            "connectivity": false
        },
        {
            "lon": -65.047288,
            "lat": -19.087076,
            "school_name": "PUNO",
            "country_name": "Bolivia (Plurinational State of)",
            "connectivity": false
        },
        {
            "lon": 6.65278,
            "lat": 6.420441,
            "school_name": "Name unknown",
            "country_name": "Nigeria",
            "connectivity": false
        },
        {
            "lon": -11.840267,
            "lat": 16.813817,
            "school_name": "GUEROU2",
            "country_name": "Mauritania",
            "connectivity": false
        },
        {
            "lon": 33.93163,
            "lat": 1.48585,
            "school_name": "KUMI TOWNSHIP P/SCHOOL",
            "country_name": "Uganda",
            "connectivity": false
        },
        {
            "lon": 33.72757,
            "lat": 0.6148,
            "school_name": "Itanda",
            "country_name": "Uganda",
            "connectivity": false
        },
        {
            "lon": 33.77908,
            "lat": 1.45818,
            "school_name": "Ngora Township P.S.",
            "country_name": "Uganda",
            "connectivity": false
        },
        {
            "lon": 31.91638,
            "lat": 0.81292,
            "school_name": "Lunnya P.S",
            "country_name": "Uganda",
            "connectivity": false
        },
        {
            "lon": 31.65856,
            "lat": -0.57029,
            "school_name": "Lwenkanja public school",
            "country_name": "Uganda",
            "connectivity": false
        },
        {
            "lon": 30.45711,
            "lat": 0.20316,
            "school_name": "Kamwenge S.S.",
            "country_name": "Uganda",
            "connectivity": false
        },
        {
            "lon": 32.44046,
            "lat": 0.32562,
            "school_name": "St. Noah's College School  - Buloba",
            "country_name": "Uganda",
            "connectivity": false
        },
        {
            "lon": 30.20596,
            "lat": -0.42854,
            "school_name": "Kemitaaha P.S.",
            "country_name": "Uganda",
            "connectivity": false
        },
        {
            "lon": 34.03894,
            "lat": 0.35707,
            "school_name": "Magombe P.S.",
            "country_name": "Uganda",
            "connectivity": false
        },
        {
            "lon": 34.18507,
            "lat": 1.21625,
            "school_name": "Kotia P.S.",
            "country_name": "Uganda",
            "connectivity": false
        },
        {
            "lon": 34.31706,
            "lat": 0.88283,
            "school_name": "Nambale P.S.",
            "country_name": "Uganda",
            "connectivity": false
        },
        {
            "lon": 31.37705,
            "lat": -0.46203,
            "school_name": "Kanoni P.S.",
            "country_name": "Uganda",
            "connectivity": false
        },
        {
            "lon": 7.3825,
            "lat": 5.08332,
            "school_name": "Name unknown",
            "country_name": "Nigeria",
            "connectivity": false
        },
        {
            "lon": 34.29268,
            "lat": 1.32435,
            "school_name": "Muyembe Girls P.S.",
            "country_name": "Uganda",
            "connectivity": false
        },
        {
            "lon": 29.03542,
            "lat": -25.4684,
            "school_name": "Mhlutswa Primary School",
            "country_name": "South Africa",
            "connectivity": false
        },
        {
            "lon": 26.72137,
            "lat": -26.9398,
            "school_name": "United Primary School",
            "country_name": "South Africa",
            "connectivity": false
        },
        {
            "lon": 18.44945,
            "lat": -33.93216,
            "school_name": "Mountain Road Primary School",
            "country_name": "South Africa",
            "connectivity": false
        },
        {
            "lon": 30.0726,
            "lat": -22.92051,
            "school_name": "Mungomani Primary",
            "country_name": "South Africa",
            "connectivity": false
        },
        {
            "lon": 18.49976,
            "lat": -34.01828,
            "school_name": "Ottery Youth Care & Education Centre Main Gate",
            "country_name": "South Africa",
            "connectivity": false
        },
        {
            "lon": 23.08537,
            "lat": -34.02822,
            "school_name": "Thembalitsha Primary School",
            "country_name": "South Africa",
            "connectivity": false
        },
        {
            "lon": 18.63493,
            "lat": -34.01069,
            "school_name": "Sivile Secondary School",
            "country_name": "South Africa",
            "connectivity": false
        },
        {
            "lon": 18.65955,
            "lat": -34.04466,
            "school_name": "Masifunde Pre Primary School",
            "country_name": "South Africa",
            "connectivity": false
        },
        {
            "lon": 29.39569,
            "lat": -25.17119,
            "school_name": "Groblersdal Christian School",
            "country_name": "South Africa",
            "connectivity": false
        },
        {
            "lon": 29.39353,
            "lat": -23.84808,
            "school_name": "Snell Phoshoko Primary School",
            "country_name": "South Africa",
            "connectivity": false
        },
        {
            "lon": 18.71223,
            "lat": -33.86777,
            "school_name": "Northpine Primary School",
            "country_name": "South Africa",
            "connectivity": false
        },
        {
            "lon": 29.90365,
            "lat": -30.40512,
            "school_name": "Mlozana Junior Secondary School",
            "country_name": "South Africa",
            "connectivity": false
        },
        {
            "lon": 30.84165,
            "lat": -28.83196,
            "school_name": "Sizweni Junior Primary School",
            "country_name": "South Africa",
            "connectivity": false
        },
        {
            "lon": 28.56084,
            "lat": -23.46714,
            "school_name": "Kgobuki Primary School",
            "country_name": "South Africa",
            "connectivity": false
        },
        {
            "lon": 30.0741,
            "lat": -30.39996,
            "school_name": "Gloucester Junior Secondary School",
            "country_name": "South Africa",
            "connectivity": false
        },
        {
            "lon": 32.1062,
            "lat": -28.33091,
            "school_name": "Mehlokubheka Primary School",
            "country_name": "South Africa",
            "connectivity": false
        },
        {
            "lon": 32.04238,
            "lat": -28.47696,
            "school_name": "Nkiyankiya Primary School",
            "country_name": "South Africa",
            "connectivity": false
        },
        {
            "lon": 32.04781,
            "lat": -28.74824,
            "school_name": "Dons Driving School",
            "country_name": "South Africa",
            "connectivity": false
        },
        {
            "lon": 31.02125,
            "lat": -29.85979,
            "school_name": "Dcc Campus",
            "country_name": "South Africa",
            "connectivity": false
        },
        {
            "lon": 31.21814,
            "lat": -27.38209,
            "school_name": "Altonia Senior Primary School",
            "country_name": "South Africa",
            "connectivity": false
        },
        {
            "lon": 30.90838,
            "lat": -29.33027,
            "school_name": "Henley Primary School",
            "country_name": "South Africa",
            "connectivity": false
        },
        {
            "lon": 28.19552,
            "lat": -25.75106,
            "school_name": "Pretoria Secondary School",
            "country_name": "South Africa",
            "connectivity": false
        },
        {
            "lon": 27.95269,
            "lat": -26.14501,
            "school_name": "Learning Strategies International Lsi College",
            "country_name": "South Africa",
            "connectivity": false
        },
        {
            "lon": 27.60977,
            "lat": -30.56262,
            "school_name": "Lufefe Junior Secondary School",
            "country_name": "South Africa",
            "connectivity": false
        },
        {
            "lon": 27.21805,
            "lat": -17.35582,
            "school_name": "MAAMBA MINE BASIC",
            "country_name": "Zambia",
            "connectivity": false
        },
        {
            "lon": 27.20916,
            "lat": -33.15891,
            "school_name": "Dam Dam Primary School",
            "country_name": "South Africa",
            "connectivity": false
        },
        {
            "lon": 27.24191,
            "lat": -32.82231,
            "school_name": "Dumalisile Senior Secondary School",
            "country_name": "South Africa",
            "connectivity": false
        },
        {
            "lon": 26.89335,
            "lat": -28.14936,
            "school_name": "Marematlou Secondary School",
            "country_name": "South Africa",
            "connectivity": false
        },
        {
            "lon": 27.89394,
            "lat": -26.99892,
            "school_name": "Tabu Primary Farm School",
            "country_name": "South Africa",
            "connectivity": false
        },
        {
            "lon": 25.08024,
            "lat": -28.9859,
            "school_name": "Perdeberg Intermediate School",
            "country_name": "South Africa",
            "connectivity": false
        },
        {
            "lon": 27.8468,
            "lat": -33.01619,
            "school_name": "Aspiranza Primary School",
            "country_name": "South Africa",
            "connectivity": false
        },
        {
            "lon": 28.37906,
            "lat": -31.95578,
            "school_name": "Sijadu Junior Secondary School",
            "country_name": "South Africa",
            "connectivity": false
        },
        {
            "lon": 28.93402,
            "lat": -30.78632,
            "school_name": "Mganu Junior Secondary School",
            "country_name": "South Africa",
            "connectivity": false
        },
        {
            "lon": 29.27077,
            "lat": -31.5938,
            "school_name": "Vulindlela Secondary School",
            "country_name": "South Africa",
            "connectivity": false
        },
        {
            "lon": 29.53579,
            "lat": -30.86411,
            "school_name": "Cetshe Junior Secondary School",
            "country_name": "South Africa",
            "connectivity": false
        },
        {
            "lon": -60.19739696,
            "lat": -33.3526424,
            "school_name": "ESCUELA POLIMODAL N\u00ba4 ESPERANZA",
            "country_name": "Argentina",
            "connectivity": false
        },
        {
            "lon": -58.73455028,
            "lat": -34.54406224,
            "school_name": "ESCUELA PRIMARIA N\u00ba22 EJERCITO ARGENTINO",
            "country_name": "Argentina",
            "connectivity": false
        },
        {
            "lon": -58.491709,
            "lat": -35.76621051,
            "school_name": "ESCUELA ESPECIAL N\u00ba501 DR. JOSE MARIA MAGGI",
            "country_name": "Argentina",
            "connectivity": false
        },
        {
            "lon": -58.75088855,
            "lat": -34.47525111,
            "school_name": "INSTITUTO MODELO TORTUGUITAS",
            "country_name": "Argentina",
            "connectivity": false
        },
        {
            "lon": -60.7867125,
            "lat": -37.54600034,
            "school_name": "CENTRO EDUCATIVO COMPLEMENTARIO N\u00ba1 DON BOSCO",
            "country_name": "Argentina",
            "connectivity": false
        },
        {
            "lon": -58.39614639,
            "lat": -34.90556959,
            "school_name": "ESC. SECUNDARIA BASICA N\u00ba39",
            "country_name": "Argentina",
            "connectivity": false
        },
        {
            "lon": -58.43835432,
            "lat": -34.74809309,
            "school_name": "ESC. SECUNDARIA BASICA N\u00ba52",
            "country_name": "Argentina",
            "connectivity": false
        },
        {
            "lon": -59.8147,
            "lat": -37.6841,
            "school_name": "C.E.N.S. N\u00ba451 JUANA AZURDUY",
            "country_name": "Argentina",
            "connectivity": false
        },
        {
            "lon": -63.73585941,
            "lat": -32.08147638,
            "school_name": "DOCTOR TOMAS GARZON",
            "country_name": "Argentina",
            "connectivity": false
        },
        {
            "lon": -63.8890002,
            "lat": -33.6368817,
            "school_name": "ESCUELA MANUEL BELGRANO",
            "country_name": "Argentina",
            "connectivity": false
        },
        {
            "lon": -77.0948,
            "lat": -11.8567,
            "school_name": "ANGELITOS DE JESUS III",
            "country_name": "Peru",
            "connectivity": false
        },
        {
            "lon": -64.13901902,
            "lat": -31.37268505,
            "school_name": "I.P.E.M.y T. N\u00ba 297 DR. RENE FAVALORO",
            "country_name": "Argentina",
            "connectivity": false
        },
        {
            "lon": -64.365,
            "lat": -33.148,
            "school_name": "J.DE INF. MAESTRO INDIO FELIPE ROSAS (EX-S/N DE B\u00b0 PIZARRO)",
            "country_name": "Argentina",
            "connectivity": false
        },
        {
            "lon": -58.99797455,
            "lat": -29.42309525,
            "school_name": "ESCUELA N\u00ba 545",
            "country_name": "Argentina",
            "connectivity": false
        },
        {
            "lon": -58.80697199,
            "lat": -33.50058549,
            "school_name": "WOLF SCHCOLNICK 12",
            "country_name": "Argentina",
            "connectivity": false
        },
        {
            "lon": -76.1001,
            "lat": -6.929,
            "school_name": "782",
            "country_name": "Peru",
            "connectivity": false
        },
        {
            "lon": -58.63084211,
            "lat": -26.65440217,
            "school_name": "EPES N\u00ba 32",
            "country_name": "Argentina",
            "connectivity": false
        },
        {
            "lon": -58.98681511,
            "lat": -25.40865518,
            "school_name": "CBSR EPEP N\u00b0 117 ANEXO 1",
            "country_name": "Argentina",
            "connectivity": false
        },
        {
            "lon": -68.84510113,
            "lat": -32.9112787,
            "school_name": "MANUEL BELGRANO",
            "country_name": "Argentina",
            "connectivity": false
        },
        {
            "lon": -64.98204794,
            "lat": -22.6997955,
            "school_name": "ESCUELA N\u00ba 4765 - PARAJE EL ALFARCITO",
            "country_name": "Argentina",
            "connectivity": false
        },
        {
            "lon": -67.55111092,
            "lat": -46.44425629,
            "school_name": "ESCUELA PRIMARIA PROVINCIAL N\u00ba 76 KIMEHUEN",
            "country_name": "Argentina",
            "connectivity": false
        },
        {
            "lon": -64.26538683,
            "lat": -27.81726978,
            "school_name": "JARDIN DE INFANTES N\u00ba 104 EVITA",
            "country_name": "Argentina",
            "connectivity": false
        },
        {
            "lon": -63.27115623,
            "lat": -29.29766716,
            "school_name": "ESCUELA N\u00ba 852",
            "country_name": "Argentina",
            "connectivity": false
        },
        {
            "lon": 5.78209,
            "lat": 5.548161,
            "school_name": "Name unknown",
            "country_name": "Nigeria",
            "connectivity": false
        },
        {
            "lon": 5.196909,
            "lat": 5.576228,
            "school_name": "Name unknown",
            "country_name": "Nigeria",
            "connectivity": false
        },
        {
            "lon": 7.460535,
            "lat": 5.605441,
            "school_name": "Name unknown",
            "country_name": "Nigeria",
            "connectivity": false
        },
        {
            "lon": 7.908466667,
            "lat": 5.817138333,
            "school_name": "Name unknown",
            "country_name": "Nigeria",
            "connectivity": false
        },
        {
            "lon": 8.112276667,
            "lat": 6.072296667,
            "school_name": "Name unknown",
            "country_name": "Nigeria",
            "connectivity": false
        },
        {
            "lon": 7.948605,
            "lat": 6.467493,
            "school_name": "Name unknown",
            "country_name": "Nigeria",
            "connectivity": false
        },
        {
            "lon": 7.81114,
            "lat": 6.156303333,
            "school_name": "Name unknown",
            "country_name": "Nigeria",
            "connectivity": false
        },
        {
            "lon": 13.76263703,
            "lat": 13.0561439,
            "school_name": "Name unknown",
            "country_name": "Nigeria",
            "connectivity": false
        },
        {
            "lon": 5.1534552,
            "lat": 7.8593669,
            "school_name": "Name unknown",
            "country_name": "Nigeria",
            "connectivity": false
        },
        {
            "lon": 5.311868333,
            "lat": 7.694071667,
            "school_name": "Name unknown",
            "country_name": "Nigeria",
            "connectivity": false
        },
        {
            "lon": 7.510935,
            "lat": 7.0423,
            "school_name": "Name unknown",
            "country_name": "Nigeria",
            "connectivity": false
        },
        {
            "lon": 7.454105,
            "lat": 6.827951667,
            "school_name": "Name unknown",
            "country_name": "Nigeria",
            "connectivity": false
        },
        {
            "lon": 7.35737,
            "lat": 6.74775,
            "school_name": "Name unknown",
            "country_name": "Nigeria",
            "connectivity": false
        },
        {
            "lon": 7.19742,
            "lat": 6.56438,
            "school_name": "Name unknown",
            "country_name": "Nigeria",
            "connectivity": false
        },
        {
            "lon": 7.482305,
            "lat": 8.87599,
            "school_name": "Name unknown",
            "country_name": "Nigeria",
            "connectivity": false
        },
        {
            "lon": 11.74392333,
            "lat": 9.859268333,
            "school_name": "Name unknown",
            "country_name": "Nigeria",
            "connectivity": false
        },
        {
            "lon": 10.88536,
            "lat": 10.38737,
            "school_name": "Name unknown",
            "country_name": "Nigeria",
            "connectivity": false
        },
        {
            "lon": 11.00486,
            "lat": 10.59156,
            "school_name": "Name unknown",
            "country_name": "Nigeria",
            "connectivity": false
        },
        {
            "lon": 7.261203,
            "lat": 5.378306,
            "school_name": "Name unknown",
            "country_name": "Nigeria",
            "connectivity": false
        },
        {
            "lon": 7.10865,
            "lat": 5.902227,
            "school_name": "Name unknown",
            "country_name": "Nigeria",
            "connectivity": false
        },
        {
            "lon": 6.795852,
            "lat": 5.478897,
            "school_name": "Name unknown",
            "country_name": "Nigeria",
            "connectivity": false
        },
        {
            "lon": -77.0173,
            "lat": -12.0091,
            "school_name": "0076 MARIA AUXILIADORA",
            "country_name": "Peru",
            "connectivity": false
        },
        {
            "lon": -74.5418,
            "lat": -8.36729,
            "school_name": "515",
            "country_name": "Peru",
            "connectivity": false
        },
        {
            "lon": -76.4589,
            "lat": -6.4244,
            "school_name": "22",
            "country_name": "Peru",
            "connectivity": false
        },
        {
            "lon": -78.8402,
            "lat": -7.22099,
            "school_name": "76",
            "country_name": "Peru",
            "connectivity": false
        },
        {
            "lon": -79.8725,
            "lat": -6.87785,
            "school_name": "11030 INMACULADA CONCEPCION",
            "country_name": "Peru",
            "connectivity": false
        },
        {
            "lon": -80.2679,
            "lat": -4.83392,
            "school_name": "1352",
            "country_name": "Peru",
            "connectivity": false
        },
        {
            "lon": -79.6438,
            "lat": -4.50991,
            "school_name": "14227",
            "country_name": "Peru",
            "connectivity": false
        },
        {
            "lon": -80.0517,
            "lat": -5.10995,
            "school_name": "1472",
            "country_name": "Peru",
            "connectivity": false
        },
        {
            "lon": -80.6719,
            "lat": -4.8838,
            "school_name": "1506",
            "country_name": "Peru",
            "connectivity": false
        },
        {
            "lon": -79.5907,
            "lat": -5.46521,
            "school_name": "15491",
            "country_name": "Peru",
            "connectivity": false
        },
        {
            "lon": -78.2204,
            "lat": -6.38215,
            "school_name": "18178",
            "country_name": "Peru",
            "connectivity": false
        },
        {
            "lon": -77.0631,
            "lat": -11.9506,
            "school_name": "2026 SIMON BOLIVAR",
            "country_name": "Peru",
            "connectivity": false
        },
        {
            "lon": -77.6473,
            "lat": -10.9477,
            "school_name": "20857",
            "country_name": "Peru",
            "connectivity": false
        },
        {
            "lon": 9.8709784,
            "lat": 12.3518162,
            "school_name": "Name unknown",
            "country_name": "Nigeria",
            "connectivity": false
        },
        {
            "lon": -75.4747,
            "lat": -13.3917,
            "school_name": "22112",
            "country_name": "Peru",
            "connectivity": false
        },
        {
            "lon": -75.6489,
            "lat": -11.7027,
            "school_name": "30467 BLAS FILOMENO RIVERA FABIAN",
            "country_name": "Peru",
            "connectivity": false
        },
        {
            "lon": 8.07418,
            "lat": 6.280855,
            "school_name": "Name unknown",
            "country_name": "Nigeria",
            "connectivity": false
        },
        {
            "lon": -75.3904,
            "lat": -11.8893,
            "school_name": "324 MARIA AUXILIADORA",
            "country_name": "Peru",
            "connectivity": false
        },
        {
            "lon": -77.0774,
            "lat": -11.933,
            "school_name": "ATENIENSE",
            "country_name": "Peru",
            "connectivity": false
        },
        {
            "lon": -74.7006,
            "lat": -13.0343,
            "school_name": "36243",
            "country_name": "Peru",
            "connectivity": false
        },
        {
            "lon": -74.5342,
            "lat": -12.6533,
            "school_name": "36517 CIRO ALEGRIA BAZAN",
            "country_name": "Peru",
            "connectivity": false
        },
        {
            "lon": -75.0549,
            "lat": -12.3996,
            "school_name": "36642",
            "country_name": "Peru",
            "connectivity": false
        },
        {
            "lon": -74.0042,
            "lat": -13.6032,
            "school_name": "38249",
            "country_name": "Peru",
            "connectivity": false
        },
        {
            "lon": -69.7502,
            "lat": -15.2152,
            "school_name": "CATAHUI CHINQUILLAYA",
            "country_name": "Peru",
            "connectivity": false
        },
        {
            "lon": -74.3051,
            "lat": -13.1527,
            "school_name": "38728",
            "country_name": "Peru",
            "connectivity": false
        },
        {
            "lon": -70.665,
            "lat": -17.5621,
            "school_name": "42057 CHIPE",
            "country_name": "Peru",
            "connectivity": false
        },
        {
            "lon": -74.3351,
            "lat": -13.369,
            "school_name": "432-138",
            "country_name": "Peru",
            "connectivity": false
        },
        {
            "lon": -69.8037,
            "lat": -12.7228,
            "school_name": "439",
            "country_name": "Peru",
            "connectivity": false
        },
        {
            "lon": -73.137,
            "lat": -3.58744,
            "school_name": "464",
            "country_name": "Peru",
            "connectivity": false
        },
        {
            "lon": -73.3798,
            "lat": -4.02714,
            "school_name": "482",
            "country_name": "Peru",
            "connectivity": false
        },
        {
            "lon": -70.5228,
            "lat": -3.9161,
            "school_name": "500",
            "country_name": "Peru",
            "connectivity": false
        },
        {
            "lon": -71.5588,
            "lat": -13.3401,
            "school_name": "51050",
            "country_name": "Peru",
            "connectivity": false
        },
        {
            "lon": -71.5021,
            "lat": -14.1777,
            "school_name": "56358",
            "country_name": "Peru",
            "connectivity": false
        },
        {
            "lon": -73.1694,
            "lat": -3.60704,
            "school_name": "60064",
            "country_name": "Peru",
            "connectivity": false
        },
        {
            "lon": -71.7127,
            "lat": -3.48818,
            "school_name": "60243 - ISLA ZANCUDO",
            "country_name": "Peru",
            "connectivity": false
        },
        {
            "lon": -74.3599,
            "lat": -5.33665,
            "school_name": "60632 CORINA CABRERA BURGA",
            "country_name": "Peru",
            "connectivity": false
        },
        {
            "lon": -73.8286,
            "lat": -4.558,
            "school_name": "60687",
            "country_name": "Peru",
            "connectivity": false
        },
        {
            "lon": -76.9849,
            "lat": -12.1507,
            "school_name": "6082 LOS PROCERES",
            "country_name": "Peru",
            "connectivity": false
        },
        {
            "lon": -77.229,
            "lat": -3.98246,
            "school_name": "62222",
            "country_name": "Peru",
            "connectivity": false
        },
        {
            "lon": -76.107,
            "lat": -5.90897,
            "school_name": "62588",
            "country_name": "Peru",
            "connectivity": false
        },
        {
            "lon": -74.9945,
            "lat": -8.69969,
            "school_name": "64037",
            "country_name": "Peru",
            "connectivity": false
        },
        {
            "lon": -73.6729,
            "lat": -9.04503,
            "school_name": "64628",
            "country_name": "Peru",
            "connectivity": false
        },
        {
            "lon": -78.468,
            "lat": -6.73888,
            "school_name": "683",
            "country_name": "Peru",
            "connectivity": false
        },
        {
            "lon": -70.2777,
            "lat": -15.0558,
            "school_name": "72012",
            "country_name": "Peru",
            "connectivity": false
        },
        {
            "lon": -70.5236,
            "lat": -14.3334,
            "school_name": "72605",
            "country_name": "Peru",
            "connectivity": false
        },
        {
            "lon": -74.5817,
            "lat": -12.3041,
            "school_name": "799",
            "country_name": "Peru",
            "connectivity": false
        },
        {
            "lon": -77.9399,
            "lat": -7.84338,
            "school_name": "80967",
            "country_name": "Peru",
            "connectivity": false
        },
        {
            "lon": -77.7126,
            "lat": -7.46908,
            "school_name": "80968 GASPAR QUEVEDO RENGIFO",
            "country_name": "Peru",
            "connectivity": false
        },
        {
            "lon": 7.7541,
            "lat": 6.389443333,
            "school_name": "Name unknown",
            "country_name": "Nigeria",
            "connectivity": false
        },
        {
            "lon": -78.7147,
            "lat": -7.8039,
            "school_name": "82046",
            "country_name": "Peru",
            "connectivity": false
        },
        {
            "lon": -77.1802,
            "lat": -10.2212,
            "school_name": "86241 TUPAC AMARU",
            "country_name": "Peru",
            "connectivity": false
        },
        {
            "lon": -77.7384,
            "lat": -9.54041,
            "school_name": "86704 SE\u00d1OR DE LOS MILAGROS",
            "country_name": "Peru",
            "connectivity": false
        },
        {
            "lon": -76.933,
            "lat": -9.20049,
            "school_name": "86928",
            "country_name": "Peru",
            "connectivity": false
        },
        {
            "lon": -77.6421,
            "lat": -9.1927,
            "school_name": "86985",
            "country_name": "Peru",
            "connectivity": false
        },
        {
            "lon": -79.8318,
            "lat": -6.77276,
            "school_name": "CAMINO DE FE",
            "country_name": "Peru",
            "connectivity": false
        },
        {
            "lon": -79.9047,
            "lat": -6.68748,
            "school_name": "CARRUSEL DE NI\u00d1OS",
            "country_name": "Peru",
            "connectivity": false
        },
        {
            "lon": -79.8392,
            "lat": -6.77797,
            "school_name": "CAYETANO HEREDIA",
            "country_name": "Peru",
            "connectivity": false
        },
        {
            "lon": -71.5746,
            "lat": -14.7511,
            "school_name": "CHULLO",
            "country_name": "Peru",
            "connectivity": false
        },
        {
            "lon": -74.8716,
            "lat": -12.2589,
            "school_name": "CORAZON DE JESUS",
            "country_name": "Peru",
            "connectivity": false
        },
        {
            "lon": -72.5324,
            "lat": -12.6492,
            "school_name": "CRFA MOSOQ ILLARY WAYNA",
            "country_name": "Peru",
            "connectivity": false
        },
        {
            "lon": -80.4497,
            "lat": -3.56929,
            "school_name": "DIVINO NI\u00d1O",
            "country_name": "Peru",
            "connectivity": false
        },
        {
            "lon": -75.2667,
            "lat": -12.0584,
            "school_name": "EDUCART COLLEGE",
            "country_name": "Peru",
            "connectivity": false
        },
        {
            "lon": -71.515,
            "lat": -16.405,
            "school_name": "EDWIN ALEXANDER",
            "country_name": "Peru",
            "connectivity": false
        },
        {
            "lon": -75.2195,
            "lat": -12.0719,
            "school_name": "EL CARMELO",
            "country_name": "Peru",
            "connectivity": false
        },
        {
            "lon": -74.225,
            "lat": -13.1398,
            "school_name": "EL PARAISO DEL SABER",
            "country_name": "Peru",
            "connectivity": false
        },
        {
            "lon": -71.5484,
            "lat": -16.3847,
            "school_name": "GARABATOS",
            "country_name": "Peru",
            "connectivity": false
        },
        {
            "lon": -79.2979,
            "lat": -6.01737,
            "school_name": "HIJOS DE MARIA",
            "country_name": "Peru",
            "connectivity": false
        },
        {
            "lon": -74.987,
            "lat": -14.6379,
            "school_name": "INMACULADA CONCEPCION",
            "country_name": "Peru",
            "connectivity": false
        },
        {
            "lon": -76.7502,
            "lat": -11.9708,
            "school_name": "INNOVA SCHOOLS - CHACLACAYO",
            "country_name": "Peru",
            "connectivity": false
        },
        {
            "lon": -78.9766,
            "lat": -5.52403,
            "school_name": "LA PALMA",
            "country_name": "Peru",
            "connectivity": false
        },
        {
            "lon": -69.2137,
            "lat": -12.5848,
            "school_name": "LA PASTORA",
            "country_name": "Peru",
            "connectivity": false
        },
        {
            "lon": -75.1881,
            "lat": -12.0535,
            "school_name": "LOS PIONEROS DEL SABER",
            "country_name": "Peru",
            "connectivity": false
        },
        {
            "lon": -78.5662,
            "lat": -5.57833,
            "school_name": "LUSCESITAS",
            "country_name": "Peru",
            "connectivity": false
        },
        {
            "lon": -76.7216,
            "lat": -12.5421,
            "school_name": "MADRE DEL AMOR HERMOSO",
            "country_name": "Peru",
            "connectivity": false
        },
        {
            "lon": -77.1317,
            "lat": -11.9404,
            "school_name": "MANITAS PINTADAS",
            "country_name": "Peru",
            "connectivity": false
        },
        {
            "lon": -77.089,
            "lat": -12.0364,
            "school_name": "MARIA MONTESSORI STOPPANI",
            "country_name": "Peru",
            "connectivity": false
        },
        {
            "lon": -77.0265,
            "lat": -12.1045,
            "school_name": "MI PEQUE\u00d1A CASITA",
            "country_name": "Peru",
            "connectivity": false
        },
        {
            "lon": -74.2499,
            "lat": -13.8891,
            "school_name": "PALLCCA",
            "country_name": "Peru",
            "connectivity": false
        },
        {
            "lon": -78.6259,
            "lat": -7.69869,
            "school_name": "REGALOS DE DIOS",
            "country_name": "Peru",
            "connectivity": false
        },
        {
            "lon": -77.0411,
            "lat": -12.0614,
            "school_name": "RICARDO PALMA SORIANO",
            "country_name": "Peru",
            "connectivity": false
        },
        {
            "lon": -71.5438,
            "lat": -16.3568,
            "school_name": "SAN FERNANDO",
            "country_name": "Peru",
            "connectivity": false
        },
        {
            "lon": -76.9643,
            "lat": -12.1443,
            "school_name": "SANTA RITA DE PAMPLONA",
            "country_name": "Peru",
            "connectivity": false
        },
        {
            "lon": -77.0943,
            "lat": -12.062,
            "school_name": "SANTA TERESA DE COUDERC",
            "country_name": "Peru",
            "connectivity": false
        },
        {
            "lon": -77.0906,
            "lat": -11.8413,
            "school_name": "SANTISIMA VIRGEN DEL CARMEN",
            "country_name": "Peru",
            "connectivity": false
        },
        {
            "lon": -76.771,
            "lat": -10.67,
            "school_name": "SEMBRANDO VALORES",
            "country_name": "Peru",
            "connectivity": false
        },
        {
            "lon": -70.243,
            "lat": -17.9841,
            "school_name": "SONRISAS",
            "country_name": "Peru",
            "connectivity": false
        },
        {
            "lon": -71.8882,
            "lat": -13.5867,
            "school_name": "SUNCCO",
            "country_name": "Peru",
            "connectivity": false
        },
        {
            "lon": -69.5271,
            "lat": -15.1319,
            "school_name": "TISNACOLLO",
            "country_name": "Peru",
            "connectivity": false
        },
        {
            "lon": 6.186091304,
            "lat": 10.4589361,
            "school_name": "Name unknown",
            "country_name": "Nigeria",
            "connectivity": false
        },
        {
            "lon": 7.24329828,
            "lat": 11.13301106,
            "school_name": "Name unknown",
            "country_name": "Nigeria",
            "connectivity": false
        },
        {
            "lon": 7.41862348,
            "lat": 10.54961949,
            "school_name": "Name unknown",
            "country_name": "Nigeria",
            "connectivity": false
        },
        {
            "lon": 7.968070507,
            "lat": 11.42953634,
            "school_name": "Name unknown",
            "country_name": "Nigeria",
            "connectivity": false
        },
        {
            "lon": 8.18923283,
            "lat": 9.887360501,
            "school_name": "Name unknown",
            "country_name": "Nigeria",
            "connectivity": false
        },
        {
            "lon": 8.238316,
            "lat": 11.98483,
            "school_name": "Name unknown",
            "country_name": "Nigeria",
            "connectivity": false
        },
        {
            "lon": 8.796417,
            "lat": 11.55385,
            "school_name": "Name unknown",
            "country_name": "Nigeria",
            "connectivity": false
        },
        {
            "lon": 8.863617,
            "lat": 12.13846,
            "school_name": "Name unknown",
            "country_name": "Nigeria",
            "connectivity": false
        },
        {
            "lon": 12.782399,
            "lat": 9.615848,
            "school_name": "Name unknown",
            "country_name": "Nigeria",
            "connectivity": false
        },
        {
            "lon": 8.589623,
            "lat": 10.73393,
            "school_name": "Name unknown",
            "country_name": "Nigeria",
            "connectivity": false
        },
        {
            "lon": 8.157624,
            "lat": 11.82024,
            "school_name": "Name unknown",
            "country_name": "Nigeria",
            "connectivity": false
        },
        {
            "lon": 8.80457,
            "lat": 11.77623,
            "school_name": "Name unknown",
            "country_name": "Nigeria",
            "connectivity": false
        },
        {
            "lon": 8.346328,
            "lat": 12.26932,
            "school_name": "Name unknown",
            "country_name": "Nigeria",
            "connectivity": false
        },
        {
            "lon": 8.679896,
            "lat": 11.5516,
            "school_name": "Name unknown",
            "country_name": "Nigeria",
            "connectivity": false
        },
        {
            "lon": 13.105144,
            "lat": 10.357626,
            "school_name": "Name unknown",
            "country_name": "Nigeria",
            "connectivity": false
        },
        {
            "lon": 12.326786,
            "lat": 9.806443,
            "school_name": "Name unknown",
            "country_name": "Nigeria",
            "connectivity": false
        },
        {
            "lon": 4.602163,
            "lat": 8.415119,
            "school_name": "Name unknown",
            "country_name": "Nigeria",
            "connectivity": false
        },
        {
            "lon": 3.34572,
            "lat": 6.448884,
            "school_name": "Name unknown",
            "country_name": "Nigeria",
            "connectivity": false
        },
        {
            "lon": 3.355292,
            "lat": 6.470235,
            "school_name": "Name unknown",
            "country_name": "Nigeria",
            "connectivity": false
        },
        {
            "lon": 3.343427,
            "lat": 6.47334,
            "school_name": "Name unknown",
            "country_name": "Nigeria",
            "connectivity": false
        },
        {
            "lon": 7.09231,
            "lat": 4.754383,
            "school_name": "Name unknown",
            "country_name": "Nigeria",
            "connectivity": false
        },
        {
            "lon": 3.319903,
            "lat": 6.636318,
            "school_name": "Name unknown",
            "country_name": "Nigeria",
            "connectivity": false
        },
        {
            "lon": 3.656972537,
            "lat": 6.591360851,
            "school_name": "Name unknown",
            "country_name": "Nigeria",
            "connectivity": false
        },
        {
            "lon": 3.57401,
            "lat": 6.64355,
            "school_name": "Name unknown",
            "country_name": "Nigeria",
            "connectivity": false
        },
        {
            "lon": 3.393345,
            "lat": 6.571238,
            "school_name": "Name unknown",
            "country_name": "Nigeria",
            "connectivity": false
        },
        {
            "lon": 3.21108,
            "lat": 6.45715,
            "school_name": "Name unknown",
            "country_name": "Nigeria",
            "connectivity": false
        },
        {
            "lon": 3.12577,
            "lat": 6.46492,
            "school_name": "Name unknown",
            "country_name": "Nigeria",
            "connectivity": false
        },
        {
            "lon": 3.130082,
            "lat": 6.469485,
            "school_name": "Name unknown",
            "country_name": "Nigeria",
            "connectivity": false
        },
        {
            "lon": 3.31364,
            "lat": 6.51822,
            "school_name": "Name unknown",
            "country_name": "Nigeria",
            "connectivity": false
        },
        {
            "lon": 3.3901,
            "lat": 6.53145,
            "school_name": "Name unknown",
            "country_name": "Nigeria",
            "connectivity": false
        },
        {
            "lon": 3.37118,
            "lat": 6.51925,
            "school_name": "Name unknown",
            "country_name": "Nigeria",
            "connectivity": false
        },
        {
            "lon": 6.115479469,
            "lat": 9.297502041,
            "school_name": "Name unknown",
            "country_name": "Nigeria",
            "connectivity": false
        },