{
    "name": "Patchwork Kingdom #495 | Papholos",
    "description": "The twin kingdoms of Papholos, separated by a digital divide. A bustling kingdom of 182 schools on top that are all connected to the internet, and 138 schools, not connected, hidden in the upside down kingdom | Created for Giga (GigaConnect.org) \u2014 connecting every school in the world \u2014 in celebration of UNICEF's 75th birthday, by Nadieh Bremer",
    "external_url": "https://dummyURL.com/patchwork_kingdoms_495",
    "image": "https://dummy-storage-url.com/patchwork_kingdoms_495.png",
    "attributes": [
        {
            "trait_type": "Color palette",
            "value": "fruit loops"
        },
        {
            "display_type": "number",
            "trait_type": "Schools",
            "value": 341,
            "max_value": 460
        },
        {
            "display_type": "number",
            "trait_type": "Ratio - Connected",
            "value": 0.53,
            "max_value": 1
        },
        {
            "display_type": "number",
            "trait_type": "Ratio - Unconnected",
            "value": 0.4,
            "max_value": 1
        },
        {
            "display_type": "number",
            "trait_type": "Ratio - Data unavailable",
            "value": 0.06,
            "max_value": 1
        },
        {
            "trait_type": "Countries",
            "value": "BJ-BR-CO-CR-GD-HN-KG-KZ-NA-PH-PS-RW-SL-ZW"
        },
        {
            "display_type": "number",
            "trait_type": "Symbols",
            "value": 44,
            "max_value": 51
        }
    ],
    "cluster_id": 495,
    "num_schools": 341,
    "num_schools_connected": 182,
    "num_schools_unconnected": 138,
    "num_schools_unknown": 21,
    "schools": [
        {
            "lon": -88.51968,
            "lat": 14.02592,
            "school_name": "MINERVA",
            "country_name": "Honduras",
            "connectivity": true
        },
        {
            "lon": -86.09897,
            "lat": 14.8021,
            "school_name": "NORMA CARIDAD MEJIA",
            "country_name": "Honduras",
            "connectivity": true
        },
        {
            "lon": -88.49268,
            "lat": 14.92741,
            "school_name": "CRISTINO TROCHEZ BARAHONA",
            "country_name": "Honduras",
            "connectivity": true
        },
        {
            "lon": -87.7116,
            "lat": 13.72407,
            "school_name": "ANGEL G. HERNANDEZ",
            "country_name": "Honduras",
            "connectivity": true
        },
        {
            "lon": -87.40242,
            "lat": 15.43102,
            "school_name": "JACOBO SANTOS ALVARADO",
            "country_name": "Honduras",
            "connectivity": true
        },
        {
            "lon": -86.92156,
            "lat": 15.15318,
            "school_name": "JAIRO MIGUEL HERNANDEZ",
            "country_name": "Honduras",
            "connectivity": true
        },
        {
            "lon": -45.5631,
            "lat": -23.0106,
            "school_name": "DOLORES BARRETO COELHO EMEI",
            "country_name": "Brazil",
            "connectivity": true
        },
        {
            "lon": -87.73045,
            "lat": 15.09428,
            "school_name": "FLORENCIO MOLINA",
            "country_name": "Honduras",
            "connectivity": true
        },
        {
            "lon": -86.12141,
            "lat": 15.68768,
            "school_name": "EL TRIUNFO",
            "country_name": "Honduras",
            "connectivity": true
        },
        {
            "lon": -43.3276,
            "lat": -22.7498,
            "school_name": "E M EULINA PINTO DE BARROS",
            "country_name": "Brazil",
            "connectivity": true
        },
        {
            "lon": -43.4623,
            "lat": -22.9836,
            "school_name": "0724017 ESCOLA MUNICIPAL PROFESSOR OLEGARIO DOMINGUES",
            "country_name": "Brazil",
            "connectivity": true
        },
        {
            "lon": -87.50633,
            "lat": 14.84709,
            "school_name": "FROYLAN MEDINA",
            "country_name": "Honduras",
            "connectivity": true
        },
        {
            "lon": -87.61142,
            "lat": 14.67331,
            "school_name": "PROHECO REPUBLICA DE HONDURAS",
            "country_name": "Honduras",
            "connectivity": true
        },
        {
            "lon": -89.06983,
            "lat": 15.01009,
            "school_name": "ANIBAL MAURICIO MURCIA",
            "country_name": "Honduras",
            "connectivity": true
        },
        {
            "lon": -74.56734549,
            "lat": 6.227946736,
            "school_name": "Name unknown",
            "country_name": "Colombia",
            "connectivity": false
        },
        {
            "lon": -87.97886,
            "lat": 15.5067,
            "school_name": "ESCUELA BRISAS DEL CACAO",
            "country_name": "Honduras",
            "connectivity": true
        },
        {
            "lon": -86.11749,
            "lat": 14.21776,
            "school_name": "CARITAS ALEGRES",
            "country_name": "Honduras",
            "connectivity": true
        },
        {
            "lon": -86.03553,
            "lat": 14.14939,
            "school_name": "CARLOS ROBERTO FLORES",
            "country_name": "Honduras",
            "connectivity": true
        },
        {
            "lon": -87.02945,
            "lat": 13.95285,
            "school_name": "FRANCISCO MORAZAN",
            "country_name": "Honduras",
            "connectivity": true
        },
        {
            "lon": -84.46375,
            "lat": 15.43218,
            "school_name": "CESAR AUGUSTO CALDERON",
            "country_name": "Honduras",
            "connectivity": true
        },
        {
            "lon": -84.42722,
            "lat": 15.44641,
            "school_name": "RUBEN MORALES WALTER",
            "country_name": "Honduras",
            "connectivity": true
        },
        {
            "lon": 32.42386,
            "lat": -19.77889,
            "school_name": "DIRIKWE",
            "country_name": "Zimbabwe",
            "connectivity": true
        },
        {
            "lon": 32.37598,
            "lat": -18.91032,
            "school_name": "GANDIDZANWA",
            "country_name": "Zimbabwe",
            "connectivity": true
        },
        {
            "lon": 29.55053,
            "lat": -2.08597,
            "school_name": "GITANGA",
            "country_name": "Rwanda",
            "connectivity": false
        },
        {
            "lon": -84.50685129,
            "lat": 9.94726305,
            "school_name": "DESAMPARADOS",
            "country_name": "Costa Rica",
            "connectivity": true
        },
        {
            "lon": -84.17150823,
            "lat": 9.98059131,
            "school_name": "MANUEL DEL PILAR ZUMBADO GONZALEZ",
            "country_name": "Costa Rica",
            "connectivity": true
        },
        {
            "lon": -84.10527448,
            "lat": 10.00819803,
            "school_name": "SANTIAGO",
            "country_name": "Costa Rica",
            "connectivity": true
        },
        {
            "lon": -85.33025732,
            "lat": 9.83559625,
            "school_name": "PUEBLO NUEVO",
            "country_name": "Costa Rica",
            "connectivity": true
        },
        {
            "lon": 31.12851,
            "lat": -17.56815,
            "school_name": "POTE",
            "country_name": "Zimbabwe",
            "connectivity": true
        },
        {
            "lon": -82.9610115,
            "lat": 8.26705703,
            "school_name": "GUAYMI",
            "country_name": "Costa Rica",
            "connectivity": true
        },
        {
            "lon": -82.98242604,
            "lat": 9.67339842,
            "school_name": "PUEBLO NUEVO",
            "country_name": "Costa Rica",
            "connectivity": true
        },
        {
            "lon": -84.20113988,
            "lat": 9.53595515,
            "school_name": "SAN ANTONIO",
            "country_name": "Costa Rica",
            "connectivity": true
        },
        {
            "lon": 35.205647,
            "lat": 32.130962,
            "school_name": "jamaeen basic girlls",
            "country_name": "Palestine",
            "connectivity": true
        },
        {
            "lon": 35.28364,
            "lat": 31.75965,
            "school_name": "Name unknown",
            "country_name": "Palestine",
            "connectivity": false
        },
        {
            "lon": 35.464548,
            "lat": 31.857584,
            "school_name": "BANAT ASASYA",
            "country_name": "Palestine",
            "connectivity": true
        },
        {
            "lon": -84.04644431,
            "lat": 9.96634333,
            "school_name": "LICEO DE MORAVIA",
            "country_name": "Costa Rica",
            "connectivity": true
        },
        {
            "lon": -74.21369797,
            "lat": 4.183849327,
            "school_name": "Name unknown",
            "country_name": "Colombia",
            "connectivity": false
        },
        {
            "lon": -75.6347722,
            "lat": 7.693097584,
            "school_name": "Name unknown",
            "country_name": "Colombia",
            "connectivity": false
        },
        {
            "lon": -47.8731,
            "lat": -0.7142,
            "school_name": "EEEM PROFA RAIMUNDA SENA DA SILVA",
            "country_name": "Brazil",
            "connectivity": true
        },
        {
            "lon": -10.97507,
            "lat": 8.658116,
            "school_name": "KONO CHILDREN INTERNATIONAL  ACADEMY",
            "country_name": "Sierra Leone",
            "connectivity": true
        },
        {
            "lon": -73.32096621,
            "lat": 8.373097457,
            "school_name": "Name unknown",
            "country_name": "Colombia",
            "connectivity": false
        },
        {
            "lon": -77.61969487,
            "lat": 1.82267611,
            "school_name": "Name unknown",
            "country_name": "Colombia",
            "connectivity": false
        },
        {
            "lon": -76.2975,
            "lat": 3.850555556,
            "school_name": "Name unknown",
            "country_name": "Colombia",
            "connectivity": false
        },
        {
            "lon": -74.1000818,
            "lat": 4.713593995,
            "school_name": "Name unknown",
            "country_name": "Colombia",
            "connectivity": false
        },
        {
            "lon": 16.47332,
            "lat": -17.626825,
            "school_name": "Eshakeno JP",
            "country_name": "Namibia",
            "connectivity": false
        },
        {
            "lon": 120.933311,
            "lat": 12.530424,
            "school_name": "Lumintao ES",
            "country_name": "Philippines",
            "connectivity": true
        },
        {
            "lon": 122.0675243,
            "lat": 12.5575184,
            "school_name": "Marigondon Norte ES",
            "country_name": "Philippines",
            "connectivity": true
        },
        {
            "lon": 120.683144,
            "lat": 13.145652,
            "school_name": "Talabaan ES Proper",
            "country_name": "Philippines",
            "connectivity": true
        },
        {
            "lon": 122.5404304,
            "lat": 12.5011759,
            "school_name": "Tomas & Maria T. Maglaya Memorial School",
            "country_name": "Philippines",
            "connectivity": true
        },
        {
            "lon": 121.342445,
            "lat": 12.411388,
            "school_name": "Yunot ES (Hanunuo)",
            "country_name": "Philippines",
            "connectivity": true
        },
        {
            "lon": 123.169907,
            "lat": 13.591307,
            "school_name": "Bal-Flor ES",
            "country_name": "Philippines",
            "connectivity": true
        },
        {
            "lon": 123.329189,
            "lat": 12.3922449,
            "school_name": "Bancil ES",
            "country_name": "Philippines",
            "connectivity": true
        },
        {
            "lon": 123.860678,
            "lat": 12.784614,
            "school_name": "Salvacion ES",
            "country_name": "Philippines",
            "connectivity": true
        },
        {
            "lon": 123.654706,
            "lat": 13.138775,
            "school_name": "Taladong ES",
            "country_name": "Philippines",
            "connectivity": true
        },
        {
            "lon": 122.883988,
            "lat": 13.589586,
            "school_name": "Tinalmud ES",
            "country_name": "Philippines",
            "connectivity": true
        },
        {
            "lon": 124.193431,
            "lat": 13.584998,
            "school_name": "Valencia ES",
            "country_name": "Philippines",
            "connectivity": true
        },
        {
            "lon": 124.8469557,
            "lat": 10.65735704,
            "school_name": "Buenavista ES",
            "country_name": "Philippines",
            "connectivity": true
        },
        {
            "lon": 124.4024038,
            "lat": 11.34310029,
            "school_name": "Gimarco ES",
            "country_name": "Philippines",
            "connectivity": true
        },
        {
            "lon": 123.835955,
            "lat": 8.352169,
            "school_name": "Luzaran ES",
            "country_name": "Philippines",
            "connectivity": true
        },
        {
            "lon": 124.860992,
            "lat": 7.607553,
            "school_name": "Malipayon ES",
            "country_name": "Philippines",
            "connectivity": true
        },
        {
            "lon": 125.250061,
            "lat": 8.038791,
            "school_name": "Miglamin ES",
            "country_name": "Philippines",
            "connectivity": true
        },
        {
            "lon": 126.3636082,
            "lat": 8.175862148,
            "school_name": "Paler-Lumayog ES",
            "country_name": "Philippines",
            "connectivity": true
        },
        {
            "lon": 124.26667,
            "lat": 8.033333,
            "school_name": "Pagalamatan ES",
            "country_name": "Philippines",
            "connectivity": true
        },
        {
            "lon": 120.6431409,
            "lat": 16.71227365,
            "school_name": "Es-Esa Soblino Alodos ES (Tacadang)",
            "country_name": "Philippines",
            "connectivity": true
        },
        {
            "lon": -43.226177,
            "lat": -19.685251,
            "school_name": "EM ANTONIO CAMILO ALVIM",
            "country_name": "Brazil",
            "connectivity": true
        },
        {
            "lon": -42.06,
            "lat": -19.98829,
            "school_name": "PEM MANOEL BANDEIRA",
            "country_name": "Brazil",
            "connectivity": true
        },
        {
            "lon": -88.77069,
            "lat": 14.48406,
            "school_name": "PROF. EMILIO MEJIA LOPEZ",
            "country_name": "Honduras",
            "connectivity": true
        },
        {
            "lon": -88.63217,
            "lat": 15.12134,
            "school_name": "MANUEL BONILLA",
            "country_name": "Honduras",
            "connectivity": true
        },
        {
            "lon": -72.088169,
            "lat": 5.457441,
            "school_name": "LA REDENCION",
            "country_name": "Colombia",
            "connectivity": true
        },
        {
            "lon": -72.5092293,
            "lat": 7.665924312,
            "school_name": "SEDE PALOGORDO SUR",
            "country_name": "Colombia",
            "connectivity": true
        },
        {
            "lon": -72.21555556,
            "lat": 5.349444444,
            "school_name": "SAN PASCUAL",
            "country_name": "Colombia",
            "connectivity": true
        },
        {
            "lon": -72.080556,
            "lat": 5.970556,
            "school_name": "SANTA ANA",
            "country_name": "Colombia",
            "connectivity": true
        },
        {
            "lon": -72.93430556,
            "lat": 5.72752777,
            "school_name": "ESCUELA CERRITO",
            "country_name": "Colombia",
            "connectivity": true
        },
        {
            "lon": -73.0115,
            "lat": 5.47625,
            "school_name": "ESC RANCHERIA",
            "country_name": "Colombia",
            "connectivity": true
        },
        {
            "lon": -73.144167,
            "lat": 5.163611,
            "school_name": "I.E. SERGIO CAMARGO - SEDE PRINCIPAL",
            "country_name": "Colombia",
            "connectivity": true
        },
        {
            "lon": -73.37018981,
            "lat": 6.452749349,
            "school_name": "ESCUELA RURAL EL SALTO",
            "country_name": "Colombia",
            "connectivity": true
        },
        {
            "lon": -73.47438889,
            "lat": 5.18713888,
            "school_name": "ESC PALOCAIDO",
            "country_name": "Colombia",
            "connectivity": true
        },
        {
            "lon": -73.560441,
            "lat": 7.886629,
            "school_name": "ESC RUR MIX EL BARRO",
            "country_name": "Colombia",
            "connectivity": true
        },
        {
            "lon": -73.789722,
            "lat": 5.919444,
            "school_name": "ESCUELA RURAL CARARITO",
            "country_name": "Colombia",
            "connectivity": true
        },
        {
            "lon": -74.21292596,
            "lat": 7.003326939,
            "school_name": "I. E. R. ALTO CIMITARRA",
            "country_name": "Colombia",
            "connectivity": true
        },
        {
            "lon": -75.28472658,
            "lat": 2.977845191,
            "school_name": "HUMBERTO TAFUR CHARRY",
            "country_name": "Colombia",
            "connectivity": true
        },
        {
            "lon": -75.2926847,
            "lat": 1.518302087,
            "school_name": "EL VERGEL",
            "country_name": "Colombia",
            "connectivity": true
        },
        {
            "lon": -75.301389,
            "lat": 6.477222,
            "school_name": "C. E. R. EL GUAYABO",
            "country_name": "Colombia",
            "connectivity": true
        },
        {
            "lon": -75.915,
            "lat": 5.213055556,
            "school_name": "SE SANTA EMILIA - SEDE PRINCIPAL",
            "country_name": "Colombia",
            "connectivity": true
        },
        {
            "lon": -75.939248,
            "lat": 3.930373,
            "school_name": "SEDE NO. 40 SAN FRANCISCO",
            "country_name": "Colombia",
            "connectivity": true
        },
        {
            "lon": -75.975,
            "lat": 2.339166667,
            "school_name": "EL CEDRO",
            "country_name": "Colombia",
            "connectivity": true
        },
        {
            "lon": -76.09440769,
            "lat": 8.049259499,
            "school_name": "CENT EDUC TUIS  TUIS ARRIBA",
            "country_name": "Colombia",
            "connectivity": true
        },
        {
            "lon": -76.20535385,
            "lat": 1.932919746,
            "school_name": "CANASTOS",
            "country_name": "Colombia",
            "connectivity": true
        },
        {
            "lon": -76.30362131,
            "lat": 3.678674858,
            "school_name": "GUILLERMO LEON VALENCIA",
            "country_name": "Colombia",
            "connectivity": true
        },
        {
            "lon": -76.621111,
            "lat": 0.544444,
            "school_name": "ESC RUR MIX PUERTO GALLO",
            "country_name": "Colombia",
            "connectivity": true
        },
        {
            "lon": -76.51631699,
            "lat": 3.457087478,
            "school_name": "JORGE ISAACS",
            "country_name": "Colombia",
            "connectivity": true
        },
        {
            "lon": -76.51830423,
            "lat": 3.431725877,
            "school_name": "INSTITUCI\u00d3N EDUCATIVA T\u00c9CNICO INDUSTRIAL DIEZ DE MAYO - SEDE PRINCIPAL",
            "country_name": "Colombia",
            "connectivity": true
        },
        {
            "lon": -76.59581616,
            "lat": 3.688449776,
            "school_name": "POLICARPA SALAVARRIETA",
            "country_name": "Colombia",
            "connectivity": true
        },
        {
            "lon": -76.66,
            "lat": 2.01,
            "school_name": "ESCUELA RURAL MIXTA RIO NEGRO",
            "country_name": "Colombia",
            "connectivity": true
        },
        {
            "lon": -76.70017833,
            "lat": 4.623913695,
            "school_name": "SEDE SANTA ROSA DE GARRAPATAS",
            "country_name": "Colombia",
            "connectivity": true
        },
        {
            "lon": -76.87967027,
            "lat": 2.342467931,
            "school_name": "LA PEDREGOSA",
            "country_name": "Colombia",
            "connectivity": true
        },
        {
            "lon": -77.29260593,
            "lat": 1.211096655,
            "school_name": "COL NUESTRA SE\u00d1ORA DE LAS LAJAS - SEDE PRINCIPAL",
            "country_name": "Colombia",
            "connectivity": true
        },
        {
            "lon": -68.4118,
            "lat": -3.3758,
            "school_name": "ESC MUN GUARANI",
            "country_name": "Brazil",
            "connectivity": false
        },
        {
            "lon": -58.7941,
            "lat": -3.9178,
            "school_name": "ESCOLA MUNICIPAL SAO JOSE",
            "country_name": "Brazil",
            "connectivity": true
        },
        {
            "lon": -52.3744,
            "lat": -2.0518,
            "school_name": "E M E F NSRA DO PERPETUO SOCORRO",
            "country_name": "Brazil",
            "connectivity": false
        },
        {
            "lon": -49.2122,
            "lat": -1.1192,
            "school_name": "E M E F DOMINGOS BRABO",
            "country_name": "Brazil",
            "connectivity": false
        },
        {
            "lon": -47.8805,
            "lat": -0.7797,
            "school_name": "E M E F JOANA DOS SANTOS GOMES",
            "country_name": "Brazil",
            "connectivity": false
        },
        {
            "lon": -47.5216,
            "lat": -1.3745,
            "school_name": "EEEF DR ARMANDO CORREA",
            "country_name": "Brazil",
            "connectivity": false
        },
        {
            "lon": -47.601,
            "lat": -1.3875,
            "school_name": "E M E F LEONCIO ALVES DE SOUSA",
            "country_name": "Brazil",
            "connectivity": false
        },
        {
            "lon": -47.2342,
            "lat": -2.0438,
            "school_name": "EEEF BOCA NOVA",
            "country_name": "Brazil",
            "connectivity": false
        },
        {
            "lon": -47.4384,
            "lat": -1.77,
            "school_name": "E M E I F SAO FRANCISCO DO MARACAXETA",
            "country_name": "Brazil",
            "connectivity": false
        },
        {
            "lon": -49.0906,
            "lat": -5.3232,
            "school_name": "E M E F ODILIO DA ROCHA MAIA",
            "country_name": "Brazil",
            "connectivity": true
        },
        {
            "lon": -57.4497,
            "lat": -6.4792,
            "school_name": "E M E F NSRA DE LOURDES",
            "country_name": "Brazil",
            "connectivity": false
        },
        {
            "lon": -50.6386,
            "lat": -17.5619,
            "school_name": "ESCOLA MUNICIPAL ANTONIO GOUVEIA DE MORAIS",
            "country_name": "Brazil",
            "connectivity": true
        },
        {
            "lon": -44.7707,
            "lat": -1.9526,
            "school_name": "UEB SANTA TEREZINHA",
            "country_name": "Brazil",
            "connectivity": false
        },
        {
            "lon": -45.0873,
            "lat": -3.2033,
            "school_name": "EM ALFREDO MENDES CUTRIM",
            "country_name": "Brazil",
            "connectivity": true
        },
        {
            "lon": -44.5536,
            "lat": -7.2207,
            "school_name": "EM PROFESSOR RAIMUNDO ALVES FEITOZA",
            "country_name": "Brazil",
            "connectivity": true
        },
        {
            "lon": -47.4561,
            "lat": -4.9597,
            "school_name": "EM DARIO BRITO DA CRUZ",
            "country_name": "Brazil",
            "connectivity": true
        },
        {
            "lon": -47.4021,
            "lat": -5.5348,
            "school_name": "EM CAMINHO SUAVE",
            "country_name": "Brazil",
            "connectivity": false
        },
        {
            "lon": -45.4943,
            "lat": -5.666,
            "school_name": "UNIDADE INTEGRADA ANTONIO VIRIATO GUAJAJARA - ALDEIA TRES IRMAOS",
            "country_name": "Brazil",
            "connectivity": false
        },
        {
            "lon": -43.508,
            "lat": -3.1615,
            "school_name": "CENTRO DE ENSINO DESEMBARGADOR EMESIO ARAUJO - ANEXO II - POVOADO SAGRADO CORACAO",
            "country_name": "Brazil",
            "connectivity": false
        },
        {
            "lon": -42.2662,
            "lat": -4.9803,
            "school_name": "ESC MUN ANTONIO VASCONCELOS",
            "country_name": "Brazil",
            "connectivity": true
        },
        {
            "lon": -46.8786,
            "lat": -22.7416,
            "school_name": "HENRIQUETA BROGLIO GANZAROLLI CIMEI",
            "country_name": "Brazil",
            "connectivity": true
        },
        {
            "lon": -42.2348,
            "lat": -5.3984,
            "school_name": "ESC MUL HILARIO PEREIRA DE SOUSA",
            "country_name": "Brazil",
            "connectivity": false
        },
        {
            "lon": -40.6177,
            "lat": -7.0891,
            "school_name": "UNIDADE ESCOLAR MUNICIPAL NOSSA SENHORA DE FATIMA",
            "country_name": "Brazil",
            "connectivity": true
        },
        {
            "lon": -42.2494,
            "lat": -7.8254,
            "school_name": "ESCOLA FAMILIA AGRICOLA DOM EDILBERTO - DONA MORENA - EFADE VI",
            "country_name": "Brazil",
            "connectivity": true
        },
        {
            "lon": -42.3576,
            "lat": -3.7015,
            "school_name": "CRECHE TIA FLORENCIA",
            "country_name": "Brazil",
            "connectivity": false
        },
        {
            "lon": -41.7831,
            "lat": -2.9039,
            "school_name": "ESCOLA MUNICIPAL HERMILA MILOCA FRANCO RAMOS",
            "country_name": "Brazil",
            "connectivity": false
        },
        {
            "lon": -40.2948,
            "lat": -5.991,
            "school_name": "CENTRO EDUCACIONAL BETESDA DE TAUA",
            "country_name": "Brazil",
            "connectivity": true
        },
        {
            "lon": -40.7226,
            "lat": -4.535,
            "school_name": "EEEP DARIO CATUNDA FONTENELE",
            "country_name": "Brazil",
            "connectivity": true
        },
        {
            "lon": -38.3624,
            "lat": -6.3932,
            "school_name": "ESCOLA ESTADUAL MARIANA CAVALCANTI",
            "country_name": "Brazil",
            "connectivity": true
        },
        {
            "lon": -36.5883,
            "lat": -6.1094,
            "school_name": "ESCOLA MUNICIPAL DOM JOSE DELGADO",
            "country_name": "Brazil",
            "connectivity": true
        },
        {
            "lon": -37.1859,
            "lat": -6.3789,
            "school_name": "ESC MUL SIMPLICIA P DE LIMA",
            "country_name": "Brazil",
            "connectivity": false
        },
        {
            "lon": -35.4485,
            "lat": -5.8171,
            "school_name": "ESC MUN DAMIAO JANUARIO",
            "country_name": "Brazil",
            "connectivity": false
        },
        {
            "lon": -35.2394,
            "lat": -6.1696,
            "school_name": "ESCOLA MUNICIPAL ANTONIO FELIPE FERREIRA DA SILVA",
            "country_name": "Brazil",
            "connectivity": true
        },
        {
            "lon": -35.3065,
            "lat": -7.0381,
            "school_name": "EMEIEF DOMINGOS PEDRO FRANCO",
            "country_name": "Brazil",
            "connectivity": true
        },
        {
            "lon": -47.559,
            "lat": -4.2881,
            "school_name": "E M E F DOM ELISEU COROLLI",
            "country_name": "Brazil",
            "connectivity": true
        },
        {
            "lon": -35.9792,
            "lat": -7.359,
            "school_name": "EMEIF VALENTIM BARBOSA",
            "country_name": "Brazil",
            "connectivity": true
        },
        {
            "lon": -35.8357,
            "lat": -8.3491,
            "school_name": "GRUPO MUNICIPAL JOAQUIM PATRICIO DA SILVA",
            "country_name": "Brazil",
            "connectivity": true
        },
        {
            "lon": -40.4868,
            "lat": -9.3971,
            "school_name": "ESCOLA MUNICIPAL RUBEM AMORIM ARAUJO",
            "country_name": "Brazil",
            "connectivity": true
        },
        {
            "lon": -35.4535,
            "lat": -7.5573,
            "school_name": "ESCOLA MUNICIPAL TEREZINHA CAVALCANTI DE MELO",
            "country_name": "Brazil",
            "connectivity": true
        },
        {
            "lon": -35.7811,
            "lat": -8.8033,
            "school_name": "ESCOLA MUNICIPAL LAGOA DANTAS",
            "country_name": "Brazil",
            "connectivity": false
        },
        {
            "lon": -36.5087,
            "lat": -9.8657,
            "school_name": "ESCOLA MUNICIPAL DE EDUCACAO BASICA D PEDRO I",
            "country_name": "Brazil",
            "connectivity": false
        },
        {
            "lon": -36.2414,
            "lat": -9.3709,
            "school_name": "IFAL - CAMPUS VICOSA",
            "country_name": "Brazil",
            "connectivity": true
        },
        {
            "lon": -36.3046,
            "lat": -9.6839,
            "school_name": "ESCOLA MUNICIPAL JOSE JOAQUIM DOS SANTOS",
            "country_name": "Brazil",
            "connectivity": false
        },
        {
            "lon": -36.9954,
            "lat": -10.0409,
            "school_name": "ESCOLA MUNICIPAL JONAS FERREIRA ARAUJO",
            "country_name": "Brazil",
            "connectivity": false
        },
        {
            "lon": -37.1848,
            "lat": -10.9285,
            "school_name": "ESCOLA RURAL POVOADO FEIJAO",
            "country_name": "Brazil",
            "connectivity": true
        },
        {
            "lon": -37.0578,
            "lat": -10.8705,
            "school_name": "CENTRO DE EXCELENCIA PROFESSORA MARIA DAS GRACAS AZEVEDO MELO",
            "country_name": "Brazil",
            "connectivity": true
        },
        {
            "lon": -43.9004,
            "lat": -11.4613,
            "school_name": "ESCOLA MUNICIPAL MANOEL RAMOS DE OLIVEIRA",
            "country_name": "Brazil",
            "connectivity": false
        },
        {
            "lon": -38.4742,
            "lat": -12.0883,
            "school_name": "ESCOLA NOSSA SENHORA DA GUIA",
            "country_name": "Brazil",
            "connectivity": true
        },
        {
            "lon": -40.3889,
            "lat": -14.7183,
            "school_name": "ESCOLA MUNICIPAL JOSE FRANCISCO DOS SANTOS",
            "country_name": "Brazil",
            "connectivity": true
        },
        {
            "lon": -39.3491,
            "lat": -11.479,
            "school_name": "ESCOLA MUNICIPAL MARIA MADALENA",
            "country_name": "Brazil",
            "connectivity": true
        },
        {
            "lon": -43.8496,
            "lat": -21.3562,
            "school_name": "EM ANTONIO MIZAEL",
            "country_name": "Brazil",
            "connectivity": true
        },
        {
            "lon": -44.04,
            "lat": -18.4755,
            "school_name": "EM TIRADENTES",
            "country_name": "Brazil",
            "connectivity": false
        },
        {
            "lon": -44.8869,
            "lat": -20.1186,
            "school_name": "EE PATRONATO BOM PASTOR",
            "country_name": "Brazil",
            "connectivity": true
        },
        {
            "lon": -47.6466,
            "lat": -22.7467,
            "school_name": "DARIO BRASIL DOUTOR",
            "country_name": "Brazil",
            "connectivity": true
        },
        {
            "lon": -46.4201,
            "lat": -21.1234,
            "school_name": "EM PADRE LUIZ MORENO",
            "country_name": "Brazil",
            "connectivity": true
        },
        {
            "lon": -41.506,
            "lat": -16.8072,
            "school_name": "EM CONEGO CARLOS",
            "country_name": "Brazil",
            "connectivity": true
        },
        {
            "lon": -43.203,
            "lat": -21.1434,
            "school_name": "EM GERALDO HOMEM DE FARIA",
            "country_name": "Brazil",
            "connectivity": true
        },
        {
            "lon": -45.2517,
            "lat": -21.6928,
            "school_name": "EE PROFESSOR FRANCO DA ROSA",
            "country_name": "Brazil",
            "connectivity": true
        },
        {
            "lon": -43.3014,
            "lat": -15.817,
            "school_name": "EM ENSINO ESPECIAL PROFESSORA MARINA CORDEIRO",
            "country_name": "Brazil",
            "connectivity": true
        },
        {
            "lon": -44.9207,
            "lat": -17.3351,
            "school_name": "PEM DA CRECHE NOVA PIRAPORA",
            "country_name": "Brazil",
            "connectivity": true
        },
        {
            "lon": -42.7522,
            "lat": -3.6833,
            "school_name": "CENTRO DE ENSINO CANDIDO MENDES",
            "country_name": "Brazil",
            "connectivity": true
        },
        {
            "lon": -45.4185,
            "lat": -23.6199,
            "school_name": "SANTINA NARDI MARQUES CEI EMEI",
            "country_name": "Brazil",
            "connectivity": true
        },
        {
            "lon": -35.9549,
            "lat": -8.4481,
            "school_name": "CRECHE MUNICIPAL VOVO MARIA",
            "country_name": "Brazil",
            "connectivity": true
        },
        {
            "lon": -45.4298,
            "lat": -20.4723,
            "school_name": "C MUN EDUC INF NELSON ALVARENGA",
            "country_name": "Brazil",
            "connectivity": true
        },
        {
            "lon": -48.9255,
            "lat": -20.0312,
            "school_name": "EE PROFESSOR BANDEIRA",
            "country_name": "Brazil",
            "connectivity": true
        },
        {
            "lon": -42.0252,
            "lat": -19.6647,
            "school_name": "CEIM MERCEZ CORREA DE SOUZA",
            "country_name": "Brazil",
            "connectivity": false
        },
        {
            "lon": -46.1591,
            "lat": -22.7629,
            "school_name": "CEMEI LUIZ CHIARADIA",
            "country_name": "Brazil",
            "connectivity": true
        },
        {
            "lon": -44.045,
            "lat": -19.9488,
            "school_name": "EE ROBERTO FERNANDES",
            "country_name": "Brazil",
            "connectivity": true
        },
        {
            "lon": -45.7579,
            "lat": -22.1631,
            "school_name": "CEMEI VEREADOR PAULO FRANCO RIBEIRO",
            "country_name": "Brazil",
            "connectivity": true
        },
        {
            "lon": -40.27,
            "lat": -19.8331,
            "school_name": "EMEF JOSE MARCOS RAMPINELLI",
            "country_name": "Brazil",
            "connectivity": true
        },
        {
            "lon": -40.4269,
            "lat": -20.2605,
            "school_name": "CMEI ELISA LEAL BEZERRA",
            "country_name": "Brazil",
            "connectivity": true
        },
        {
            "lon": -40.313,
            "lat": -20.1261,
            "school_name": "EMEF SERRANA",
            "country_name": "Brazil",
            "connectivity": true
        },
        {
            "lon": -72.6767,
            "lat": -7.6239,
            "school_name": "ESC JARDIM DE INFANCIA SAO FRANCISCO",
            "country_name": "Brazil",
            "connectivity": true
        },
        {
            "lon": -40.3653,
            "lat": -20.302,
            "school_name": "CMEI SILVINO DE PAULA RAMOS",
            "country_name": "Brazil",
            "connectivity": true
        },
        {
            "lon": -40.6563,
            "lat": -20.146,
            "school_name": "EMUEF RIO DAS PEDRAS",
            "country_name": "Brazil",
            "connectivity": false
        },
        {
            "lon": -42.0236,
            "lat": -21.3141,
            "school_name": "E M HERMENEGILDO TORRES PESSOA",
            "country_name": "Brazil",
            "connectivity": true
        },
        {
            "lon": -44.4801,
            "lat": -23.0056,
            "school_name": "CE ROBERTO MONTENEGRO",
            "country_name": "Brazil",
            "connectivity": true
        },
        {
            "lon": -43.7887,
            "lat": -22.759,
            "school_name": "E M ALEXANDRE IGNACIO",
            "country_name": "Brazil",
            "connectivity": true
        },
        {
            "lon": -35.9767,
            "lat": -8.2721,
            "school_name": "ESCOLA EM TEMPO INTEGRAL ALVARO LINS",
            "country_name": "Brazil",
            "connectivity": true
        },
        {
            "lon": -43.2705,
            "lat": -22.8803,
            "school_name": "0312807 EDI DEL CASTILHO",
            "country_name": "Brazil",
            "connectivity": true
        },
        {
            "lon": -42.0839,
            "lat": -9.6264,
            "school_name": "EE - COLEGIO ESTADUAL REITOR EDGARD SANTOS",
            "country_name": "Brazil",
            "connectivity": true
        },
        {
            "lon": -43.3524,
            "lat": -22.8198,
            "school_name": "0625023 ESCOLA MUNICIPAL THOMAS JEFFERSON",
            "country_name": "Brazil",
            "connectivity": true
        },
        {
            "lon": -43.4566,
            "lat": -22.4498,
            "school_name": "CIEP 494 ALEXANDRE CARVALHO",
            "country_name": "Brazil",
            "connectivity": false
        },
        {
            "lon": -42.7904,
            "lat": -22.8745,
            "school_name": "IFF - CAMPUS AVANCADO MARICA",
            "country_name": "Brazil",
            "connectivity": true
        },
        {
            "lon": -46.6679,
            "lat": -23.6421,
            "school_name": "EMEF BERNARDO O HIGGINS",
            "country_name": "Brazil",
            "connectivity": true
        },
        {
            "lon": -47.347,
            "lat": -22.7468,
            "school_name": "TANGARA EMEI",
            "country_name": "Brazil",
            "connectivity": true
        },
        {
            "lon": -46.3384,
            "lat": -23.5692,
            "school_name": "MERCIA AMARAL ANDRADE DE BRITO PROFA EM",
            "country_name": "Brazil",
            "connectivity": false
        },
        {
            "lon": -46.5123,
            "lat": -22.9029,
            "school_name": "ARLINE MENIN ANDRADE PROFA EM",
            "country_name": "Brazil",
            "connectivity": true
        },
        {
            "lon": -46.7246,
            "lat": -22.6366,
            "school_name": "ARACY SODRE MARCHI PROFA EMEB",
            "country_name": "Brazil",
            "connectivity": true
        },
        {
            "lon": -48.9067,
            "lat": -22.0307,
            "school_name": "JOAO PEREIRA DE SOUZA LEAO EMEF",
            "country_name": "Brazil",
            "connectivity": true
        },
        {
            "lon": -49.0362,
            "lat": -22.0486,
            "school_name": "ABILIO FRANCISCO DE SALLES EMEFEI",
            "country_name": "Brazil",
            "connectivity": true
        },
        {
            "lon": -46.6139,
            "lat": -23.6577,
            "school_name": "EMEF ROBERTO PLINIO COLACIOPPO PROF",
            "country_name": "Brazil",
            "connectivity": true
        },
        {
            "lon": -48.2905,
            "lat": -24.5179,
            "school_name": "BAIRRO PEDRO CUBAS CLASSE MUNICIPAL EDUCACAO INFANTIL",
            "country_name": "Brazil",
            "connectivity": false
        },
        {
            "lon": -45.3762,
            "lat": -22.9008,
            "school_name": "ESCOLA MUNICIPAL PROF LAURO VICENTE DE AZEVEDO",
            "country_name": "Brazil",
            "connectivity": true
        },
        {
            "lon": -47.9931,
            "lat": -20.4913,
            "school_name": "FERNANDO ROMUALDO CRECHE",
            "country_name": "Brazil",
            "connectivity": true
        },
        {
            "lon": -46.7765,
            "lat": -23.556,
            "school_name": "GIUSEPPA BERSANI MICHELIN CRECHE",
            "country_name": "Brazil",
            "connectivity": true
        },
        {
            "lon": -39.4139,
            "lat": -14.7704,
            "school_name": "EE - COLEGIO ESTADUAL LOMANTO JUNIOR - BARRO PRETO",
            "country_name": "Brazil",
            "connectivity": true
        },
        {
            "lon": -47.3358,
            "lat": -22.3618,
            "school_name": "PAULO ROLAND LORDELLO PROFESSOR EMEI",
            "country_name": "Brazil",
            "connectivity": true
        },
        {
            "lon": -51.3681,
            "lat": -30.1352,
            "school_name": "ESC EST ENS MED OTERO PAIVA GUIMARAES",
            "country_name": "Brazil",
            "connectivity": true
        },
        {
            "lon": -48.3895,
            "lat": -21.5323,
            "school_name": "CLEIDE APARECIDA PALMA PAULI PROFA CEMEI",
            "country_name": "Brazil",
            "connectivity": true
        },
        {
            "lon": -46.7376,
            "lat": -23.4725,
            "school_name": "CENTRO ATEND SOCIOEDUC ADOLESCENTE PIRITUBA CI",
            "country_name": "Brazil",
            "connectivity": false
        },
        {
            "lon": -44.4386,
            "lat": -22.6729,
            "school_name": "MARIA ARLETTE DA SILVA FARIA EMEF",
            "country_name": "Brazil",
            "connectivity": false
        },
        {
            "lon": -38.1606,
            "lat": -12.7144,
            "school_name": "CENTRO EDUCACIONAL SENHOR DOS PASSOS",
            "country_name": "Brazil",
            "connectivity": true
        },
        {
            "lon": -49.2642,
            "lat": -25.1974,
            "school_name": "PERNAMBUCO E R M DE EI EF",
            "country_name": "Brazil",
            "connectivity": false
        },
        {
            "lon": -51.8478,
            "lat": -24.7742,
            "school_name": "ANGELO SEGURO E M C EI EF",
            "country_name": "Brazil",
            "connectivity": true
        },
        {
            "lon": -51.4422,
            "lat": -23.3918,
            "school_name": "PRIMEIROS PASSOS C M E I",
            "country_name": "Brazil",
            "connectivity": true
        },
        {
            "lon": -51.45,
            "lat": -25.3742,
            "school_name": "JOAO PAULO II C M E I",
            "country_name": "Brazil",
            "connectivity": true
        },
        {
            "lon": -53.5987,
            "lat": -26.4423,
            "school_name": "JI NS MEDIANEIRA",
            "country_name": "Brazil",
            "connectivity": true
        },
        {
            "lon": -54.2398,
            "lat": -27.7831,
            "school_name": "INST EST EDUC CARDEAL PACELLI",
            "country_name": "Brazil",
            "connectivity": true
        },
        {
            "lon": -52.044,
            "lat": -26.5598,
            "school_name": "EIM INDIANOPOLIS",
            "country_name": "Brazil",
            "connectivity": false
        },
        {
            "lon": -49.165,
            "lat": -28.2641,
            "school_name": "CEI EDITH DELLA GIUSTINA GESSER",
            "country_name": "Brazil",
            "connectivity": true
        },
        {
            "lon": -49.343,
            "lat": -28.6737,
            "school_name": "CEIM PROF",
            "country_name": "Brazil",
            "connectivity": true
        },
        {
            "lon": -55.5355,
            "lat": -30.877,
            "school_name": "EMEF PREFEITO CAMILO ALVES GISLER",
            "country_name": "Brazil",
            "connectivity": true
        },
        {
            "lon": -44.5936,
            "lat": -20.1037,
            "school_name": "E M ARTUR CONTAGEM VILACA",
            "country_name": "Brazil",
            "connectivity": true
        },
        {
            "lon": -54.2937,
            "lat": -23.9294,
            "school_name": "CEI - ELMO JORGE DE SOUZA",
            "country_name": "Brazil",
            "connectivity": true
        },
        {
            "lon": -45.5953,
            "lat": -23.5477,
            "school_name": "BAIRRO DO CEDRO",
            "country_name": "Brazil",
            "connectivity": true
        },
        {
            "lon": -49.9387,
            "lat": -15.4674,
            "school_name": "ESC MUN BETEL",
            "country_name": "Brazil",
            "connectivity": true
        },
        {
            "lon": -42.649,
            "lat": -22.2398,
            "school_name": "CMEI OTHELINA DE SA MARTINS ALMEIDA CONDACK",
            "country_name": "Brazil",
            "connectivity": true
        },
        {
            "lon": -38.5866,
            "lat": -3.7237,
            "school_name": "EEFM DEPUTADO FRANCISCO DE ALMEIDA MONTE",
            "country_name": "Brazil",
            "connectivity": true
        },
        {
            "lon": -49.8257,
            "lat": -15.7202,
            "school_name": "CENTRO EDUCACIONAL BENEDITO PEREIRA DE SOUZA",
            "country_name": "Brazil",
            "connectivity": true
        },
        {
            "lon": -47.1646,
            "lat": -22.5532,
            "school_name": "SEVERINO TAGLIARI",
            "country_name": "Brazil",
            "connectivity": true
        },
        {
            "lon": -43.2652,
            "lat": -22.9298,
            "school_name": "0209804 EDI PROFESSORA LUCIA MARIA QUITETE DE CARVALHO AMARAL",
            "country_name": "Brazil",
            "connectivity": true
        },
        {
            "lon": -39.3654,
            "lat": -5.5805,
            "school_name": "EEEP PROFESSOR JOSE AUGUSTO TORRES",
            "country_name": "Brazil",
            "connectivity": true
        },
        {
            "lon": -50.4882,
            "lat": -6.8102,
            "school_name": "EEEM JOSE LUIZ MARTINS",
            "country_name": "Brazil",
            "connectivity": true
        },
        {
            "lon": -46.7433,
            "lat": -23.3473,
            "school_name": "DR NELSON MANZANARES",
            "country_name": "Brazil",
            "connectivity": true
        },
        {
            "lon": -48.2378,
            "lat": -18.8961,
            "school_name": "EMEI MONTEIRO LOBATO",
            "country_name": "Brazil",
            "connectivity": true
        },
        {
            "lon": -43.8102,
            "lat": -20.2608,
            "school_name": "EM ANA AMELIA QUEIROZ",
            "country_name": "Brazil",
            "connectivity": true
        },
        {
            "lon": -36.1469,
            "lat": -6.1939,
            "school_name": "EM SEBASTIAO COSME DE ASSUNCAO",
            "country_name": "Brazil",
            "connectivity": true
        },
        {
            "lon": -38.2626,
            "lat": -7.4271,
            "school_name": "EEEF JOANA ABILIO PEGADO",
            "country_name": "Brazil",
            "connectivity": true
        }
    ],
    "num_countries": 14,
    "countries": [
        "Benin",
        "Brazil",
        "Colombia",
        "Costa Rica",
        "Grenada",
        "Honduras",
        "Kazakhstan",
        "Kyrgyzstan",
        "Namibia",
        "Palestine",
        "Philippines",
        "Rwanda",
        "Sierra Leone",
        "Zimbabwe"
    ],
    "schools_no_data": [
        {
            "lon": 3.6609172,
            "lat": 12.762267,
            "school_name": "Abdouladji",
            "country_name": "Niger",
            "connectivity": false
        },
        {
            "lon": 8.9839327,
            "lat": 13.8227233,
            "school_name": "CES Zengou",
            "country_name": "Niger",
            "connectivity": false
        },
        {
            "lon": -58.28018832,
            "lat": -34.80551251,
            "school_name": "INSTITUTO NTRA. SRA.DEL SGDO.CORAZON",
            "country_name": "Argentina",
            "connectivity": false
        },
        {
            "lon": -9.724547,
            "lat": 5.881574,
            "school_name": "New Era Public",
            "country_name": "Liberia",
            "connectivity": false
        },
        {
            "lon": -10.276688,
            "lat": 6.382162,
            "school_name": "Division #41 Elementary  School",
            "country_name": "Liberia",
            "connectivity": false
        },
        {
            "lon": -8.842881,
            "lat": 6.960668,
            "school_name": "Saclepea Red Cross",
            "country_name": "Liberia",
            "connectivity": false
        },
        {
            "lon": 21.37885172,
            "lat": -3.492172401,
            "school_name": "INST YOSO",
            "country_name": "Democratic Republic of the Congo",
            "connectivity": false
        },
        {
            "lon": 0.5950027,
            "lat": 5.9966511,
            "school_name": "Name unknown",
            "country_name": "Ghana",
            "connectivity": false
        },
        {
            "lon": -0.2018045,
            "lat": 5.5673665,
            "school_name": "Name unknown",
            "country_name": "Ghana",
            "connectivity": false
        },
        {
            "lon": 32.58303253,
            "lat": 19.16290165,
            "school_name": "Name unknown",
            "country_name": "Sudan",
            "connectivity": false
        },
        {
            "lon": 32.35790463,
            "lat": 18.96394447,
            "school_name": "Name unknown",
            "country_name": "Sudan",
            "connectivity": false
        },
        {
            "lon": 35.85293477,
            "lat": 14.39814625,
            "school_name": "Name unknown",
            "country_name": "Sudan",
            "connectivity": false
        },
        {
            "lon": 32.7844396333333,
            "lat": 15.3371167666667,
            "school_name": "Name unknown",
            "country_name": "Sudan",
            "connectivity": false
        },
        {
            "lon": 34.37299262,
            "lat": 12.34816038,
            "school_name": "Name unknown",
            "country_name": "Sudan",
            "connectivity": false
        },
        {
            "lon": 28.43747348,
            "lat": 12.6833587,
            "school_name": "Name unknown",
            "country_name": "Sudan",
            "connectivity": false
        },
        {
            "lon": 26.1089609,
            "lat": 11.45903803,
            "school_name": "Name unknown",
            "country_name": "Sudan",
            "connectivity": false
        },
        {
            "lon": -1.850238,
            "lat": 9.251119,
            "school_name": "Name unknown",
            "country_name": "Ghana",
            "connectivity": false
        },
        {
            "lon": -1.8503404,
            "lat": 9.2526512,
            "school_name": "Name unknown",
            "country_name": "Ghana",
            "connectivity": false
        },
        {
            "lon": -2.3508127,
            "lat": 7.3354368,
            "school_name": "Name unknown",
            "country_name": "Ghana",
            "connectivity": false
        },
        {
            "lon": -0.2520177,
            "lat": 5.5714836,
            "school_name": "Name unknown",
            "country_name": "Ghana",
            "connectivity": false
        },
        {
            "lon": 34.5499222,
            "lat": 0.813121,
            "school_name": "Mateka Nursery School",
            "country_name": "Kenya",
            "connectivity": false
        },
        {
            "lon": -1.6788375,
            "lat": 6.4402116,
            "school_name": "Name unknown",
            "country_name": "Ghana",
            "connectivity": false
        },
        {
            "lon": 0.5034989,
            "lat": 6.8383813,
            "school_name": "Name unknown",
            "country_name": "Ghana",
            "connectivity": false
        },
        {
            "lon": 33.00472,
            "lat": -2.67855,
            "school_name": "NGASSECO",
            "country_name": "United Republic of Tanzania",
            "connectivity": false
        },
        {
            "lon": 37.60358,
            "lat": -3.75854,
            "school_name": "M-BAMBUA",
            "country_name": "United Republic of Tanzania",
            "connectivity": false
        },
        {
            "lon": 33.46308,
            "lat": -8.835,
            "school_name": "ITAGANO",
            "country_name": "United Republic of Tanzania",
            "connectivity": false
        },
        {
            "lon": 32.62216,
            "lat": -5.44162,
            "school_name": "MWAKAPANDE",
            "country_name": "United Republic of Tanzania",
            "connectivity": false
        },
        {
            "lon": 39.10633,
            "lat": -6.78709,
            "school_name": "GREENBELT",
            "country_name": "United Republic of Tanzania",
            "connectivity": false
        },
        {
            "lon": 38.36102,
            "lat": -4.86087,
            "school_name": "FRONTEVER",
            "country_name": "United Republic of Tanzania",
            "connectivity": false
        },
        {
            "lon": 37.58936,
            "lat": -5.66323,
            "school_name": "KIKWAZU",
            "country_name": "United Republic of Tanzania",
            "connectivity": false
        },
        {
            "lon": 39.22151,
            "lat": -6.95857,
            "school_name": "LILIES",
            "country_name": "United Republic of Tanzania",
            "connectivity": false
        },
        {
            "lon": 37.21048,
            "lat": -3.24079,
            "school_name": "USWAA",
            "country_name": "United Republic of Tanzania",
            "connectivity": false
        },
        {
            "lon": 35.60575,
            "lat": -4.22654,
            "school_name": "ARRI",
            "country_name": "United Republic of Tanzania",
            "connectivity": false
        },
        {
            "lon": 33.70389,
            "lat": -4.56004,
            "school_name": "MWAJINJAMA",
            "country_name": "United Republic of Tanzania",
            "connectivity": false
        },
        {
            "lon": 37.54596,
            "lat": -6.27024,
            "school_name": "DIHOMBO",
            "country_name": "United Republic of Tanzania",
            "connectivity": false
        },
        {
            "lon": 1.002011667,
            "lat": 6.823861667,
            "school_name": "JEDIL KOTSOKOPE",
            "country_name": "Togo",
            "connectivity": false
        },
        {
            "lon": 1.261133,
            "lat": 6.275614,
            "school_name": "JEPL RABBI",
            "country_name": "Togo",
            "connectivity": false
        },
        {
            "lon": 1.293537,
            "lat": 9.920507,
            "school_name": "JEP ATAMA",
            "country_name": "Togo",
            "connectivity": false
        },
        {
            "lon": 0.769154,
            "lat": 9.915321,
            "school_name": "JEP HELOTA",
            "country_name": "Togo",
            "connectivity": false
        },
        {
            "lon": 1.646096,
            "lat": 6.511299,
            "school_name": "EPP DJAKPATA KONDJI",
            "country_name": "Togo",
            "connectivity": false
        },
        {
            "lon": 0.910838,
            "lat": 6.634302,
            "school_name": "EPP DIDRIVE",
            "country_name": "Togo",
            "connectivity": false
        },
        {
            "lon": 1.61153,
            "lat": 6.34805,
            "school_name": "EPP KOUTIGBE",
            "country_name": "Togo",
            "connectivity": false
        },
        {
            "lon": 1.180511,
            "lat": 6.556346,
            "school_name": "EPP LILIKOPE",
            "country_name": "Togo",
            "connectivity": false
        },
        {
            "lon": 0.64497,
            "lat": 7.40444,
            "school_name": "EPP GOBE EGBO G/B",
            "country_name": "Togo",
            "connectivity": false
        },
        {
            "lon": 0.623047,
            "lat": 10.10733,
            "school_name": "EPP KOUNTOIRE",
            "country_name": "Togo",
            "connectivity": false
        },
        {
            "lon": 6.539425,
            "lat": 6.025049,
            "school_name": "Name unknown",
            "country_name": "Nigeria",
            "connectivity": false
        },
        {
            "lon": 33.63012,
            "lat": -3.33012,
            "school_name": "MASELA",
            "country_name": "United Republic of Tanzania",
            "connectivity": false
        },
        {
            "lon": 33.06539,
            "lat": -4.96256,
            "school_name": "IMALAMPAKA",
            "country_name": "United Republic of Tanzania",
            "connectivity": false
        },
        {
            "lon": 32.32696,
            "lat": -4.10793,
            "school_name": "BUKOMELA",
            "country_name": "United Republic of Tanzania",
            "connectivity": false
        },
        {
            "lon": 38.93069,
            "lat": -10.0659,
            "school_name": "RUANGWA",
            "country_name": "United Republic of Tanzania",
            "connectivity": false
        },
        {
            "lon": 1.179419,
            "lat": 6.25865,
            "school_name": "LYCEE SOGBOSSITO",
            "country_name": "Togo",
            "connectivity": false
        },
        {
            "lon": 33.59814958,
            "lat": -12.59813263,
            "school_name": "Emfeni",
            "country_name": "Malawi",
            "connectivity": false
        },
        {
            "lon": 34.12817552,
            "lat": -12.53779703,
            "school_name": "Majiga F.P School",
            "country_name": "Malawi",
            "connectivity": false
        },
        {
            "lon": 34.13400727,
            "lat": -13.22530804,
            "school_name": "Tadwe J.P School",
            "country_name": "Malawi",
            "connectivity": false
        },
        {
            "lon": 34.11209239,
            "lat": -12.50206381,
            "school_name": "Archimedes Pvt Secondary School",
            "country_name": "Malawi",
            "connectivity": false
        },
        {
            "lon": 34.66813781,
            "lat": -15.03883751,
            "school_name": "Kandoma Primary School",
            "country_name": "Malawi",
            "connectivity": false
        },
        {
            "lon": 35.70651386,
            "lat": -14.80755249,
            "school_name": "Nanjoka",
            "country_name": "Malawi",
            "connectivity": false
        },
        {
            "lon": 34.1769959,
            "lat": -11.42703872,
            "school_name": "Kangoyi",
            "country_name": "Malawi",
            "connectivity": false
        },
        {
            "lon": 23.16229239,
            "lat": 1.641578163,
            "school_name": "INST LOLINGO",
            "country_name": "Democratic Republic of the Congo",
            "connectivity": false
        },
        {
            "lon": 16.24959544,
            "lat": -2.279128706,
            "school_name": "EP BALI",
            "country_name": "Democratic Republic of the Congo",
            "connectivity": false
        },
        {
            "lon": 18.8636961,
            "lat": -2.704458671,
            "school_name": "EP LONYIKA",
            "country_name": "Democratic Republic of the Congo",
            "connectivity": false
        },
        {
            "lon": 19.40717041,
            "lat": 1.786876599,
            "school_name": "INST EKWALANGA",
            "country_name": "Democratic Republic of the Congo",
            "connectivity": false
        },
        {
            "lon": 24.49064943,
            "lat": -3.762354831,
            "school_name": "EP LONGIYA/LOWELA",
            "country_name": "Democratic Republic of the Congo",
            "connectivity": false
        },
        {
            "lon": 23.05028522,
            "lat": -7.511770016,
            "school_name": "EP  TSHILOBO",
            "country_name": "Democratic Republic of the Congo",
            "connectivity": false
        },
        {
            "lon": 22.73014955,
            "lat": -6.41734028,
            "school_name": "INST KAPUILA",
            "country_name": "Democratic Republic of the Congo",
            "connectivity": false
        },
        {
            "lon": 27.47997893,
            "lat": -11.67803064,
            "school_name": "CS BON BERGER",
            "country_name": "Democratic Republic of the Congo",
            "connectivity": false
        },
        {
            "lon": 17.33744098,
            "lat": -6.331904513,
            "school_name": "INST MFUMU KANDA",
            "country_name": "Democratic Republic of the Congo",
            "connectivity": false
        },
        {
            "lon": 29.20964468,
            "lat": -1.651229681,
            "school_name": "CS EMMANUEL 1",
            "country_name": "Democratic Republic of the Congo",
            "connectivity": false
        },
        {
            "lon": 29.03638889,
            "lat": -3.112777778,
            "school_name": "EP KIHINGA",
            "country_name": "Democratic Republic of the Congo",
            "connectivity": false
        },
        {
            "lon": 28.19821151,
            "lat": -3.052119578,
            "school_name": "INST TANGILA",
            "country_name": "Democratic Republic of the Congo",
            "connectivity": false
        },
        {
            "lon": 13.00307078,
            "lat": -5.507428422,
            "school_name": "LYCEE KIMBANGU",
            "country_name": "Democratic Republic of the Congo",
            "connectivity": false
        },
        {
            "lon": 23.713,
            "lat": -6.138,
            "school_name": "EP TSHIMVULUILA",
            "country_name": "Democratic Republic of the Congo",
            "connectivity": false
        },
        {
            "lon": -95.247859,
            "lat": 17.473648,
            "school_name": "PLANTEL NUM. 59 EL PORVENIR",
            "country_name": "Mexico",
            "connectivity": false
        },
        {
            "lon": -96.90351,
            "lat": 19.60705,
            "school_name": "TELEBACHILLERATO LA CONCEPCION",
            "country_name": "Mexico",
            "connectivity": false
        },
        {
            "lon": -11.75748,
            "lat": 15.56647,
            "school_name": "weidjeride",
            "country_name": "Mauritania",
            "connectivity": false
        },
        {
            "lon": 33.83638,
            "lat": 0.77341,
            "school_name": "BUNAWALE P/SCHOOL",
            "country_name": "Uganda",
            "connectivity": false
        },
        {
            "lon": 33.23954,
            "lat": 0.38868,
            "school_name": "BUKAMUNYE PRI. SCHOOL",
            "country_name": "Uganda",
            "connectivity": false
        },
        {
            "lon": 30.12298,
            "lat": 0.51375,
            "school_name": "Kateebwa Adventist",
            "country_name": "Uganda",
            "connectivity": false
        },
        {
            "lon": -58.0899696,
            "lat": -34.9443117,
            "school_name": "ESC. SECUNDARIA BASICA N\u00ba40",
            "country_name": "Argentina",
            "connectivity": false
        },
        {
            "lon": 30.52759,
            "lat": 0.05203,
            "school_name": "Bukama P.S.",
            "country_name": "Uganda",
            "connectivity": false
        },
        {
            "lon": 32.39713,
            "lat": 0.34058,
            "school_name": "Kisammula C/S P.S.",
            "country_name": "Uganda",
            "connectivity": false
        },
        {
            "lon": 32.96113,
            "lat": 0.29872,
            "school_name": "Kyanja Public",
            "country_name": "Uganda",
            "connectivity": false
        },
        {
            "lon": 30.84174,
            "lat": -24.93659,
            "school_name": "Glory Hill Primary School",
            "country_name": "South Africa",
            "connectivity": false
        },
        {
            "lon": 30.95832,
            "lat": -25.4785,
            "school_name": "Nursery School",
            "country_name": "South Africa",
            "connectivity": false
        },
        {
            "lon": 29.49086,
            "lat": -26.44028,
            "school_name": "La?\u0192?\u00abrskool Marietjie Van Niekerk",
            "country_name": "South Africa",
            "connectivity": false
        },
        {
            "lon": 25.61512,
            "lat": -27.64463,
            "school_name": "Mommy's Daycare",
            "country_name": "South Africa",
            "connectivity": false
        },
        {
            "lon": 18.44215,
            "lat": -33.93734,
            "school_name": "Walmer Estate Prep",
            "country_name": "South Africa",
            "connectivity": false
        },
        {
            "lon": 18.46104,
            "lat": -33.97012,
            "school_name": "South African College Junior School",
            "country_name": "South Africa",
            "connectivity": false
        },
        {
            "lon": 18.85009,
            "lat": -34.0817,
            "school_name": "Bio Sculpture Gel",
            "country_name": "South Africa",
            "connectivity": false
        },
        {
            "lon": 29.82321,
            "lat": -23.12107,
            "school_name": "Maluta Junior Secondary",
            "country_name": "South Africa",
            "connectivity": false
        },
        {
            "lon": 18.67799,
            "lat": -33.94026,
            "school_name": "Western Cape Sport School",
            "country_name": "South Africa",
            "connectivity": false
        },
        {
            "lon": 20.03503,
            "lat": -34.78046,
            "school_name": "Struisbaai Primary School",
            "country_name": "South Africa",
            "connectivity": false
        },
        {
            "lon": 30.17722,
            "lat": -27.74382,
            "school_name": "Enkululekweni Primary School",
            "country_name": "South Africa",
            "connectivity": false
        },
        {
            "lon": 30.82324,
            "lat": -30.09429,
            "school_name": "Illovo Primary School",
            "country_name": "South Africa",
            "connectivity": false
        },
        {
            "lon": 27.68722,
            "lat": -23.68301,
            "school_name": "Kings College",
            "country_name": "South Africa",
            "connectivity": false
        },
        {
            "lon": 28.07517,
            "lat": -23.24687,
            "school_name": "Segale Primary",
            "country_name": "South Africa",
            "connectivity": false
        },
        {
            "lon": 30.65538,
            "lat": -29.82262,
            "school_name": "KwaMyeza Combined School",
            "country_name": "South Africa",
            "connectivity": false
        },
        {
            "lon": 30.48592,
            "lat": -23.73554,
            "school_name": "Vhulakanjhani Lower Primary School",
            "country_name": "South Africa",
            "connectivity": false
        },
        {
            "lon": 28.42906,
            "lat": -30.91096,
            "school_name": "Mhlontlo Junior Secondary School",
            "country_name": "South Africa",
            "connectivity": false
        },
        {
            "lon": 28.1073,
            "lat": -26.20112,
            "school_name": "Malvern Primary School",
            "country_name": "South Africa",
            "connectivity": false
        },
        {
            "lon": 27.86923,
            "lat": -26.49796,
            "school_name": "Raphela Secondary School",
            "country_name": "South Africa",
            "connectivity": false
        },
        {
            "lon": 27.15119,
            "lat": -33.32675,
            "school_name": "Mhlanganiso Primary School",
            "country_name": "South Africa",
            "connectivity": false
        },
        {
            "lon": 27.23705,
            "lat": -32.93044,
            "school_name": "Ntsikizi Junior Secondary School",
            "country_name": "South Africa",
            "connectivity": false
        },
        {
            "lon": 25.58933,
            "lat": -33.95051,
            "school_name": "Collegiate Girls High School",
            "country_name": "South Africa",
            "connectivity": false
        },
        {
            "lon": 27.89952,
            "lat": -32.09872,
            "school_name": "Zitulele Combined School",
            "country_name": "South Africa",
            "connectivity": false
        },
        {
            "lon": 24.75568,
            "lat": -34.02508,
            "school_name": "Saint Patrick's EC Primary School",
            "country_name": "South Africa",
            "connectivity": false
        },
        {
            "lon": 28.53626,
            "lat": -31.22613,
            "school_name": "Lower Ngxaza Junior Primary School",
            "country_name": "South Africa",
            "connectivity": false
        },
        {
            "lon": 28.58533,
            "lat": -31.3065,
            "school_name": "Mcheni Junior Primary School",
            "country_name": "South Africa",
            "connectivity": false
        },
        {
            "lon": 29.46037,
            "lat": -30.97325,
            "school_name": "Tobintetho Senior Primary School",
            "country_name": "South Africa",
            "connectivity": false
        },
        {
            "lon": 29.47495,
            "lat": -30.69824,
            "school_name": "Valipatwa Junior Primary School",
            "country_name": "South Africa",
            "connectivity": false
        },
        {
            "lon": -57.51230751,
            "lat": -35.08007128,
            "school_name": "EXTENSION DEL ISFDyT N\u00ba58",
            "country_name": "Argentina",
            "connectivity": false
        },
        {
            "lon": -60.4881604,
            "lat": -37.4347777,
            "school_name": "ESCUELA PRIMARIA N\u00ba13 JOSE MANUEL ESTRADA",
            "country_name": "Argentina",
            "connectivity": false
        },
        {
            "lon": -61.89263392,
            "lat": -35.8108686,
            "school_name": "INSTITUTO SUPERIOR DE FORMACION DOCENTE N\u00ba147",
            "country_name": "Argentina",
            "connectivity": false
        },
        {
            "lon": -58.26962002,
            "lat": -34.76588796,
            "school_name": "ESCUELA PRIMARIA N\u00ba66 JUAN BAUTISTA AZOPARDO",
            "country_name": "Argentina",
            "connectivity": false
        },
        {
            "lon": 6.977444,
            "lat": 5.823899,
            "school_name": "Name unknown",
            "country_name": "Nigeria",
            "connectivity": false
        },
        {
            "lon": -58.80431774,
            "lat": -34.72376421,
            "school_name": "ESCUELA PRIMARIA N\u00ba54 PROVINCIA DE MENDOZA",
            "country_name": "Argentina",
            "connectivity": false
        },
        {
            "lon": -58.80023139,
            "lat": -34.60204239,
            "school_name": "ESCUELA PRIMARIA N\u00ba50 PABLO PIZZURNO",
            "country_name": "Argentina",
            "connectivity": false
        },
        {
            "lon": -62.22475756,
            "lat": -38.10182488,
            "school_name": "ESCUELA PRIMARIA N\u00ba28",
            "country_name": "Argentina",
            "connectivity": false
        },
        {
            "lon": -58.423588,
            "lat": -34.7215204,
            "school_name": "RINCON FELIZ N\u00ba5",
            "country_name": "Argentina",
            "connectivity": false
        },
        {
            "lon": -59.01826091,
            "lat": -27.45907907,
            "school_name": "JARDIN DE INFANTES N\u00ba 30-MTRA.MARIA L.VARGAS DE HONNORAT",
            "country_name": "Argentina",
            "connectivity": false
        },
        {
            "lon": -60.61418438,
            "lat": -25.9472385,
            "school_name": "E.E.P. N\u00ba 255-FELIPE BOERO",
            "country_name": "Argentina",
            "connectivity": false
        },
        {
            "lon": -59.84340494,
            "lat": -27.0014982,
            "school_name": "E.E.S. N\u00ba 176(C.E.P. N\u00ba 73LIB.GRAL.JOSE DE S.MARTIN)",
            "country_name": "Argentina",
            "connectivity": false
        },
        {
            "lon": -65.73410026,
            "lat": -26.95450245,
            "school_name": "ESC. N\u00b0 374 TTE. GRAL. PEDRO E. ARAMBURU",
            "country_name": "Argentina",
            "connectivity": false
        },
        {
            "lon": -63.68706153,
            "lat": -31.91282902,
            "school_name": "INST. DE ED. ESP. FRAY MAMERTO ESQUIU",
            "country_name": "Argentina",
            "connectivity": false
        },
        {
            "lon": -64.23843122,
            "lat": -31.40318199,
            "school_name": "J.DE INF. MANUEL ESTEBAN PIZARRO",
            "country_name": "Argentina",
            "connectivity": false
        },
        {
            "lon": -64.09668595,
            "lat": -32.1694403,
            "school_name": "I.P.E.T. N\u00ba 98 LUIS DE TEJEDA",
            "country_name": "Argentina",
            "connectivity": false
        },
        {
            "lon": -62.0871,
            "lat": -31.4336,
            "school_name": "INST. DE ED. ESP. A.P.A.D.I.M. SAN FRANCISCO",
            "country_name": "Argentina",
            "connectivity": false
        },
        {
            "lon": -58.62417736,
            "lat": -28.00311474,
            "school_name": "ESCUELA N\u00ba 52 JUAN TORRES DE VERA Y ARAGON",
            "country_name": "Argentina",
            "connectivity": false
        },
        {
            "lon": -59.02702757,
            "lat": -31.86889091,
            "school_name": "PRIV. INSTITUTO SUPERIOR DE EDUCACION ARTISTICA D137",
            "country_name": "Argentina",
            "connectivity": false
        },
        {
            "lon": -59.65162336,
            "lat": -32.31602909,
            "school_name": "CENTRO FORMACION PROFESIONAL 243",
            "country_name": "Argentina",
            "connectivity": false
        },
        {
            "lon": -60.51973253,
            "lat": -31.74014218,
            "school_name": "CENTRO EDUCATIVO TERAPEUTICO 1",
            "country_name": "Argentina",
            "connectivity": false
        },
        {
            "lon": -54.68933224,
            "lat": -27.02575862,
            "school_name": "ESC. N\u00b0 270 PRIMEROS COLONOS",
            "country_name": "Argentina",
            "connectivity": false
        },
        {
            "lon": -55.07773966,
            "lat": -27.25785307,
            "school_name": "ESC. N\u00b0 509 PEDRO DE MENDOZA",
            "country_name": "Argentina",
            "connectivity": false
        },
        {
            "lon": -63.80944968,
            "lat": -22.58853522,
            "school_name": "CORONEL JORGE ENRIQUE VIDT EX N\u00b0231",
            "country_name": "Argentina",
            "connectivity": false
        },
        {
            "lon": -65.39416813,
            "lat": -24.83972933,
            "school_name": "CENTRO EDUCATIVO FE Y ALEGRIA",
            "country_name": "Argentina",
            "connectivity": false
        },
        {
            "lon": -61.4675934,
            "lat": -31.25249505,
            "school_name": "JARDIN DE INFANTES NRO 152 ALFONSINA STORNI",
            "country_name": "Argentina",
            "connectivity": false
        },
        {
            "lon": -70.3747,
            "lat": -16.8852,
            "school_name": "42113 JOSE ANTONIO ENCINAS FRANCO",
            "country_name": "Peru",
            "connectivity": false
        },
        {
            "lon": -61.1539549,
            "lat": -31.4028867,
            "school_name": "NUCLEO II - JARDIN DE INFANTES NRO 275",
            "country_name": "Argentina",
            "connectivity": false
        },
        {
            "lon": -64.81205423,
            "lat": -27.45919086,
            "school_name": "ESCUELA N\u00ba 81 PRIMERA JUNTA",
            "country_name": "Argentina",
            "connectivity": false
        },
        {
            "lon": -63.90047,
            "lat": -28.93093,
            "school_name": "ESCUELA N\u00b0 175 VICENTE FIDEL LOPEZ",
            "country_name": "Argentina",
            "connectivity": false
        },
        {
            "lon": 5.915161,
            "lat": 5.367009,
            "school_name": "Name unknown",
            "country_name": "Nigeria",
            "connectivity": false
        },
        {
            "lon": 5.761599,
            "lat": 5.53387,
            "school_name": "Name unknown",
            "country_name": "Nigeria",
            "connectivity": false
        },
        {
            "lon": 7.889021,
            "lat": 5.385079,
            "school_name": "Name unknown",
            "country_name": "Nigeria",
            "connectivity": false
        },
        {
            "lon": 7.677453333,
            "lat": 5.50784,
            "school_name": "Name unknown",
            "country_name": "Nigeria",
            "connectivity": false
        },
        {
            "lon": 12.20089428,
            "lat": 10.77112333,
            "school_name": "Name unknown",
            "country_name": "Nigeria",
            "connectivity": false
        },
        {
            "lon": 8.11735,
            "lat": 6.421609,
            "school_name": "Name unknown",
            "country_name": "Nigeria",
            "connectivity": false
        },
        {
            "lon": 5.617951313,
            "lat": 6.371322841,
            "school_name": "Name unknown",
            "country_name": "Nigeria",
            "connectivity": false
        },
        {
            "lon": 14.14739,
            "lat": 12.76308,
            "school_name": "Name unknown",
            "country_name": "Nigeria",
            "connectivity": false
        },
        {
            "lon": 5.47351,
            "lat": 7.30323,
            "school_name": "Name unknown",
            "country_name": "Nigeria",
            "connectivity": false
        },
        {
            "lon": 5.242415,
            "lat": 7.490855,
            "school_name": "Name unknown",
            "country_name": "Nigeria",
            "connectivity": false
        },
        {
            "lon": 5.434018333,
            "lat": 7.457056667,
            "school_name": "Name unknown",
            "country_name": "Nigeria",
            "connectivity": false
        },
        {
            "lon": 7.4676898,
            "lat": 6.2081665,
            "school_name": "Name unknown",
            "country_name": "Nigeria",
            "connectivity": false
        },
        {
            "lon": 7.501286,
            "lat": 6.439207,
            "school_name": "Name unknown",
            "country_name": "Nigeria",
            "connectivity": false
        },
        {
            "lon": 7.313344,
            "lat": 6.598573,
            "school_name": "Name unknown",
            "country_name": "Nigeria",
            "connectivity": false
        },
        {
            "lon": 11.2949,
            "lat": 10.46841333,
            "school_name": "Name unknown",
            "country_name": "Nigeria",
            "connectivity": false
        },
        {
            "lon": 11.20057,
            "lat": 11.04449,
            "school_name": "Name unknown",
            "country_name": "Nigeria",
            "connectivity": false
        },
        {
            "lon": 11.30682167,
            "lat": 10.24760167,
            "school_name": "Name unknown",
            "country_name": "Nigeria",
            "connectivity": false
        },
        {
            "lon": 7.239674,
            "lat": 5.499156,
            "school_name": "Name unknown",
            "country_name": "Nigeria",
            "connectivity": false
        },
        {
            "lon": 7.267576667,
            "lat": 5.534161667,
            "school_name": "Name unknown",
            "country_name": "Nigeria",
            "connectivity": false
        },
        {
            "lon": -77.2993,
            "lat": -5.9604,
            "school_name": "903",
            "country_name": "Peru",
            "connectivity": false
        },
        {
            "lon": -80.4677,
            "lat": -3.624,
            "school_name": "021 WILFREDO A. RICARDI CARRASCO",
            "country_name": "Peru",
            "connectivity": false
        },
        {
            "lon": -76.4783,
            "lat": -7.59628,
            "school_name": "0678 JUAN PINCHI URQUIA",
            "country_name": "Peru",
            "connectivity": false
        },
        {
            "lon": -73.1011,
            "lat": -14.0351,
            "school_name": "54313 APU WAYLLAWITE",
            "country_name": "Peru",
            "connectivity": false
        },
        {
            "lon": -79.8945,
            "lat": -6.51616,
            "school_name": "10137",
            "country_name": "Peru",
            "connectivity": false
        },
        {
            "lon": -77.0637,
            "lat": -12.0644,
            "school_name": "1021 REPUBLICA FEDERAL DE ALEMANIA",
            "country_name": "Peru",
            "connectivity": false
        },
        {
            "lon": -77.1023,
            "lat": -12.0241,
            "school_name": "103 EDUARDO MARQUEZ TALLEDO",
            "country_name": "Peru",
            "connectivity": false
        },
        {
            "lon": -78.6542,
            "lat": -6.23227,
            "school_name": "10752",
            "country_name": "Peru",
            "connectivity": false
        },
        {
            "lon": -74.5817,
            "lat": -12.8773,
            "school_name": "1086",
            "country_name": "Peru",
            "connectivity": false
        },
        {
            "lon": -79.1444,
            "lat": -6.13346,
            "school_name": "10870",
            "country_name": "Peru",
            "connectivity": false
        },
        {
            "lon": -76.5878,
            "lat": -4.652,
            "school_name": "109",
            "country_name": "Peru",
            "connectivity": false
        },
        {
            "lon": -76.555,
            "lat": -8.19734,
            "school_name": "1350",
            "country_name": "Peru",
            "connectivity": false
        },
        {
            "lon": -78.4628,
            "lat": -7.07258,
            "school_name": "1477",
            "country_name": "Peru",
            "connectivity": false
        },
        {
            "lon": -70.4842,
            "lat": -14.5401,
            "school_name": "1550",
            "country_name": "Peru",
            "connectivity": false
        },
        {
            "lon": -78.88,
            "lat": -5.05627,
            "school_name": "17950",
            "country_name": "Peru",
            "connectivity": false
        },
        {
            "lon": -74.7981,
            "lat": -11.5757,
            "school_name": "1798",
            "country_name": "Peru",
            "connectivity": false
        },
        {
            "lon": -77.9508,
            "lat": -6.139,
            "school_name": "201",
            "country_name": "Peru",
            "connectivity": false
        },
        {
            "lon": -76.1301,
            "lat": -13.4051,
            "school_name": "22256 SAN ANTONIO DE PADUA",
            "country_name": "Peru",
            "connectivity": false
        },
        {
            "lon": -71.1999,
            "lat": -16.6337,
            "school_name": "237",
            "country_name": "Peru",
            "connectivity": false
        },
        {
            "lon": -74.5956,
            "lat": -11.2017,
            "school_name": "30001-178",
            "country_name": "Peru",
            "connectivity": false
        },
        {
            "lon": -74.9235,
            "lat": -10.9828,
            "school_name": "30286",
            "country_name": "Peru",
            "connectivity": false
        },
        {
            "lon": -77.0194,
            "lat": -9.43574,
            "school_name": "305",
            "country_name": "Peru",
            "connectivity": false
        },
        {
            "lon": -74.4963,
            "lat": -12.6947,
            "school_name": "31212 JOSE MARIA ARGUEDAS",
            "country_name": "Peru",
            "connectivity": false
        },
        {
            "lon": -79.1052,
            "lat": -7.25178,
            "school_name": "326",
            "country_name": "Peru",
            "connectivity": false
        },
        {
            "lon": -77.7967,
            "lat": -8.9661,
            "school_name": "341",
            "country_name": "Peru",
            "connectivity": false
        },
        {
            "lon": -74.6855,
            "lat": -12.8752,
            "school_name": "36299",
            "country_name": "Peru",
            "connectivity": false
        },
        {
            "lon": -73.8801,
            "lat": -12.4628,
            "school_name": "38688",
            "country_name": "Peru",
            "connectivity": false
        },
        {
            "lon": -73.5327,
            "lat": -12.932,
            "school_name": "38834",
            "country_name": "Peru",
            "connectivity": false
        },
        {
            "lon": -71.9555,
            "lat": -15.5839,
            "school_name": "40394",
            "country_name": "Peru",
            "connectivity": false
        },
        {
            "lon": -77.1242,
            "lat": -11.8302,
            "school_name": "5077 JOSE FAUSTINO SANCHEZ CARRION",
            "country_name": "Peru",
            "connectivity": false
        },
        {
            "lon": -72.8221,
            "lat": -14.4084,
            "school_name": "54255",
            "country_name": "Peru",
            "connectivity": false
        },
        {
            "lon": -73.3034,
            "lat": -14.142,
            "school_name": "54305 SAN JUAN",
            "country_name": "Peru",
            "connectivity": false
        },
        {
            "lon": -76.2097,
            "lat": -5.81699,
            "school_name": "62425",
            "country_name": "Peru",
            "connectivity": false
        },
        {
            "lon": -71.5245,
            "lat": -16.378,
            "school_name": "CHARLES PERRAULT",
            "country_name": "Peru",
            "connectivity": false
        },
        {
            "lon": -71.9924,
            "lat": -3.22549,
            "school_name": "64473 BILINGUE INTERCULTURAL",
            "country_name": "Peru",
            "connectivity": false
        },
        {
            "lon": -72.5684,
            "lat": -13.8351,
            "school_name": "668 VIRGEN DEL ROSARIO",
            "country_name": "Peru",
            "connectivity": false
        },
        {
            "lon": -77.9358,
            "lat": -8.13812,
            "school_name": "80864",
            "country_name": "Peru",
            "connectivity": false
        },
        {
            "lon": -78.3797,
            "lat": -7.88594,
            "school_name": "80910",
            "country_name": "Peru",
            "connectivity": false
        },
        {
            "lon": -78.7165,
            "lat": -7.85976,
            "school_name": "82088",
            "country_name": "Peru",
            "connectivity": false
        },
        {
            "lon": -78.0681,
            "lat": -7.38361,
            "school_name": "82179",
            "country_name": "Peru",
            "connectivity": false
        },
        {
            "lon": -77.2988,
            "lat": -8.8067,
            "school_name": "84268",
            "country_name": "Peru",
            "connectivity": false
        },
        {
            "lon": -74.6804,
            "lat": -13.0548,
            "school_name": "866",
            "country_name": "Peru",
            "connectivity": false
        },
        {
            "lon": -77.8761,
            "lat": -9.4486,
            "school_name": "88300",
            "country_name": "Peru",
            "connectivity": false
        },
        {
            "lon": -74.5322,
            "lat": -8.38324,
            "school_name": "ALEXANDER VON HUMBOLDT",
            "country_name": "Peru",
            "connectivity": false
        },
        {
            "lon": -73.771,
            "lat": -13.1689,
            "school_name": "AMARUPAMPA",
            "country_name": "Peru",
            "connectivity": false
        },
        {
            "lon": -79.8341,
            "lat": -6.76945,
            "school_name": "MUCHIK",
            "country_name": "Peru",
            "connectivity": false
        },
        {
            "lon": -70.8592,
            "lat": -14.7178,
            "school_name": "BUENAVISTA",
            "country_name": "Peru",
            "connectivity": false
        },
        {
            "lon": -69.4552,
            "lat": -15.32,
            "school_name": "CAJRAMARCA",
            "country_name": "Peru",
            "connectivity": false
        },
        {
            "lon": -78.3997,
            "lat": -8.22399,
            "school_name": "CARITAS FELICES",
            "country_name": "Peru",
            "connectivity": false
        },
        {
            "lon": -79.818,
            "lat": -6.74988,
            "school_name": "CASITA DE SONRISAS",
            "country_name": "Peru",
            "connectivity": false
        },
        {
            "lon": -74.2062,
            "lat": -13.2772,
            "school_name": "CRNL. JUAN VALER SANDOVAL",
            "country_name": "Peru",
            "connectivity": false
        },
        {
            "lon": -76.1264,
            "lat": -13.3969,
            "school_name": "DONALD SCARROW",
            "country_name": "Peru",
            "connectivity": false
        },
        {
            "lon": -76.5134,
            "lat": -10.5775,
            "school_name": "ESMERALDA",
            "country_name": "Peru",
            "connectivity": false
        },
        {
            "lon": -75.283,
            "lat": -12.0668,
            "school_name": "FEDERICO ENGELS",
            "country_name": "Peru",
            "connectivity": false
        },
        {
            "lon": -77.0763,
            "lat": -11.9471,
            "school_name": "JOSE MARIA ARGUEDAS",
            "country_name": "Peru",
            "connectivity": false
        },
        {
            "lon": -76.983,
            "lat": -11.9462,
            "school_name": "LICEO BERNHALD BOLZANO",
            "country_name": "Peru",
            "connectivity": false
        },
        {
            "lon": 7.86981,
            "lat": 8.855448,
            "school_name": "Name unknown",
            "country_name": "Nigeria",
            "connectivity": false
        },
        {
            "lon": -78.135,
            "lat": -7.36376,
            "school_name": "LOS DIBUJANTES",
            "country_name": "Peru",
            "connectivity": false
        },
        {
            "lon": -71.786,
            "lat": -14.1268,
            "school_name": "LOS GIRASOLES",
            "country_name": "Peru",
            "connectivity": false
        },
        {
            "lon": -79.368,
            "lat": -5.90374,
            "school_name": "MI ARCO IRIS",
            "country_name": "Peru",
            "connectivity": false
        },
        {
            "lon": -77.095,
            "lat": -11.9475,
            "school_name": "NUEVO AMANECER",
            "country_name": "Peru",
            "connectivity": false
        },
        {
            "lon": -72.9218,
            "lat": -13.6782,
            "school_name": "PACHACHACA BAJA",
            "country_name": "Peru",
            "connectivity": false
        },
        {
            "lon": -76.2572,
            "lat": -10.6686,
            "school_name": "PITAGORAS",
            "country_name": "Peru",
            "connectivity": false
        },
        {
            "lon": -76.5988,
            "lat": -10.5309,
            "school_name": "RABI",
            "country_name": "Peru",
            "connectivity": false
        },
        {
            "lon": -79.0183,
            "lat": -8.09733,
            "school_name": "SAN LUIS",
            "country_name": "Peru",
            "connectivity": false
        },
        {
            "lon": -69.6404,
            "lat": -16.0897,
            "school_name": "SAN MIGUEL",
            "country_name": "Peru",
            "connectivity": false
        },
        {
            "lon": -76.9718,
            "lat": -12.1568,
            "school_name": "SAN MIGUEL ARCANGEL DEL CIELO",
            "country_name": "Peru",
            "connectivity": false
        },
        {
            "lon": -71.0917,
            "lat": -13.5717,
            "school_name": "SAN ROLANDO",
            "country_name": "Peru",
            "connectivity": false
        },
        {
            "lon": -71.6241,
            "lat": -16.4404,
            "school_name": "SANTA MARIA DEL VALLE",
            "country_name": "Peru",
            "connectivity": false
        },
        {
            "lon": -78.155,
            "lat": -10.0678,
            "school_name": "SANTA ROSA DE LIMA S.R.L.",
            "country_name": "Peru",
            "connectivity": false
        },
        {
            "lon": -71.6037,
            "lat": -16.335,
            "school_name": "SE\u00d1OR DE LA CA\u00d1A",
            "country_name": "Peru",
            "connectivity": false
        },
        {
            "lon": -74.9074,
            "lat": -9.15794,
            "school_name": "SHEBONYA",
            "country_name": "Peru",
            "connectivity": false
        },
        {
            "lon": -77.0022,
            "lat": -12.2096,
            "school_name": "ST. GEORGE'S COLLEGE II",
            "country_name": "Peru",
            "connectivity": false
        },
        {
            "lon": -78.518,
            "lat": -6.67842,
            "school_name": "TALENTOS",
            "country_name": "Peru",
            "connectivity": false
        },
        {
            "lon": -69.2763,
            "lat": -15.4105,
            "school_name": "VILUYO",
            "country_name": "Peru",
            "connectivity": false
        },
        {
            "lon": 9.4822378,
            "lat": 11.4504623,
            "school_name": "Name unknown",
            "country_name": "Nigeria",
            "connectivity": false
        },
        {
            "lon": 8.58545419,
            "lat": 9.486144291,
            "school_name": "Name unknown",
            "country_name": "Nigeria",
            "connectivity": false
        },
        {
            "lon": 7.692151666,
            "lat": 11.05539501,
            "school_name": "Name unknown",
            "country_name": "Nigeria",
            "connectivity": false
        },
        {
            "lon": 12.07521,
            "lat": 9.457984,
            "school_name": "Name unknown",
            "country_name": "Nigeria",
            "connectivity": false
        },
        {
            "lon": 8.736282,
            "lat": 12.10218,
            "school_name": "Name unknown",
            "country_name": "Nigeria",
            "connectivity": false
        },
        {
            "lon": 8.972326,
            "lat": 11.48527,
            "school_name": "Name unknown",
            "country_name": "Nigeria",
            "connectivity": false
        },
        {
            "lon": 12.876419,
            "lat": 9.065656,
            "school_name": "Name unknown",
            "country_name": "Nigeria",
            "connectivity": false
        },
        {
            "lon": 7.828490255,
            "lat": 11.49491809,
            "school_name": "Name unknown",
            "country_name": "Nigeria",
            "connectivity": false
        },
        {
            "lon": 8.472933,
            "lat": 11.95269,
            "school_name": "Name unknown",
            "country_name": "Nigeria",
            "connectivity": false
        },
        {
            "lon": 13.349338,
            "lat": 10.488957,
            "school_name": "Name unknown",
            "country_name": "Nigeria",
            "connectivity": false
        },
        {
            "lon": 13.232342,
            "lat": 10.150762,
            "school_name": "Name unknown",
            "country_name": "Nigeria",
            "connectivity": false
        },
        {
            "lon": 12.21444636,
            "lat": 9.82185922,
            "school_name": "Name unknown",
            "country_name": "Nigeria",
            "connectivity": false
        },
        {
            "lon": 7.175829,
            "lat": 7.513571,
            "school_name": "Name unknown",
            "country_name": "Nigeria",
            "connectivity": false
        },
        {
            "lon": 7.051988,
            "lat": 7.680297,
            "school_name": "Name unknown",
            "country_name": "Nigeria",
            "connectivity": false
        },