{
    "name": "Patchwork Kingdom #53 | Laxcindal",
    "description": "The twin kingdoms of Laxcindal, separated by a digital divide. A bustling kingdom of 92 schools on top that are all connected to the internet, and 55 schools, not connected, hidden in the upside down kingdom | Created for Giga (GigaConnect.org) \u2014 connecting every school in the world \u2014 in celebration of UNICEF's 75th birthday, by Nadieh Bremer",
    "external_url": "https://dummyURL.com/patchwork_kingdoms_53",
    "image": "https://dummy-storage-url.com/patchwork_kingdoms_53.png",
    "attributes": [
        {
            "trait_type": "Color palette",
            "value": "slime"
        },
        {
            "display_type": "number",
            "trait_type": "Schools",
            "value": 164,
            "max_value": 460
        },
        {
            "display_type": "number",
            "trait_type": "Ratio - Connected",
            "value": 0.56,
            "max_value": 1
        },
        {
            "display_type": "number",
            "trait_type": "Ratio - Unconnected",
            "value": 0.34,
            "max_value": 1
        },
        {
            "display_type": "number",
            "trait_type": "Ratio - Data unavailable",
            "value": 0.1,
            "max_value": 1
        },
        {
            "trait_type": "Countries",
            "value": "BR-CO-CR-HN-KG-KZ-NA-PH-PS-RW-SL-VC-ZW"
        },
        {
            "display_type": "number",
            "trait_type": "Symbols",
            "value": 38,
            "max_value": 51
        }
    ],
    "cluster_id": 53,
    "num_schools": 164,
    "num_schools_connected": 92,
    "num_schools_unconnected": 55,
    "num_schools_unknown": 17,
    "schools": [
        {
            "lon": -48.8444,
            "lat": -26.337,
            "school_name": "EEB DOM PIO DE FREITAS",
            "country_name": "Brazil",
            "connectivity": true
        },
        {
            "lon": -86.6495,
            "lat": 14.59205,
            "school_name": "JOSE TRINIDAD CABA\u00c3\u2018AS",
            "country_name": "Honduras",
            "connectivity": true
        },
        {
            "lon": -87.71944,
            "lat": 13.71803,
            "school_name": "MARCELO RIVERA",
            "country_name": "Honduras",
            "connectivity": true
        },
        {
            "lon": -87.70671,
            "lat": 15.38649,
            "school_name": "ING. GONZALO MALDONADO",
            "country_name": "Honduras",
            "connectivity": true
        },
        {
            "lon": -86.66656,
            "lat": 15.45262,
            "school_name": "SAN MARTIN DE PORRES",
            "country_name": "Honduras",
            "connectivity": true
        },
        {
            "lon": -42.964,
            "lat": -22.9312,
            "school_name": "E M RITA SAMPAIO CARTAXO",
            "country_name": "Brazil",
            "connectivity": true
        },
        {
            "lon": -58.7451,
            "lat": -11.4157,
            "school_name": "CEI ARCO-IRIS",
            "country_name": "Brazil",
            "connectivity": true
        },
        {
            "lon": -88.08697,
            "lat": 15.351,
            "school_name": "JOSE MARIA GONZALES",
            "country_name": "Honduras",
            "connectivity": true
        },
        {
            "lon": -85.9606,
            "lat": 14.11527,
            "school_name": "JOSE TRINIDAD REYES",
            "country_name": "Honduras",
            "connectivity": true
        },
        {
            "lon": 30.98851,
            "lat": -17.89817,
            "school_name": "NYANDORO",
            "country_name": "Zimbabwe",
            "connectivity": true
        },
        {
            "lon": 32.41281,
            "lat": -18.61094,
            "school_name": "ST KILLIAN'S",
            "country_name": "Zimbabwe",
            "connectivity": true
        },
        {
            "lon": -83.54590061,
            "lat": 9.30583741,
            "school_name": "LAGUNA",
            "country_name": "Costa Rica",
            "connectivity": true
        },
        {
            "lon": 35.280175,
            "lat": 32.464093,
            "school_name": "Al bashaer basic co",
            "country_name": "Palestine",
            "connectivity": true
        },
        {
            "lon": -56.0924,
            "lat": -15.599,
            "school_name": "EE NOVA CHANCE",
            "country_name": "Brazil",
            "connectivity": true
        },
        {
            "lon": -72.68519828,
            "lat": 6.973198794,
            "school_name": "Name unknown",
            "country_name": "Colombia",
            "connectivity": false
        },
        {
            "lon": -76.40029725,
            "lat": 4.125572105,
            "school_name": "Name unknown",
            "country_name": "Colombia",
            "connectivity": false
        },
        {
            "lon": -75.59091608,
            "lat": 6.234377333,
            "school_name": "Name unknown",
            "country_name": "Colombia",
            "connectivity": false
        },
        {
            "lon": 17.969722,
            "lat": -24.635833,
            "school_name": "D.D. Guibeb PS",
            "country_name": "Namibia",
            "connectivity": true
        },
        {
            "lon": 19.57056,
            "lat": -17.88694,
            "school_name": "Kapako PS",
            "country_name": "Namibia",
            "connectivity": false
        },
        {
            "lon": 120.725662,
            "lat": 13.138757,
            "school_name": "Sanog-lakol Min. Sch.",
            "country_name": "Philippines",
            "connectivity": true
        },
        {
            "lon": 123.5728124,
            "lat": 12.17052765,
            "school_name": "Punta Tigbao ES",
            "country_name": "Philippines",
            "connectivity": true
        },
        {
            "lon": 123.296844,
            "lat": 10.935767,
            "school_name": "Manuel J. Escalante ES",
            "country_name": "Philippines",
            "connectivity": true
        },
        {
            "lon": 123.148994,
            "lat": 10.292288,
            "school_name": "Tiguisan PS",
            "country_name": "Philippines",
            "connectivity": true
        },
        {
            "lon": 122.934176,
            "lat": 9.540221774,
            "school_name": "Alangilan PS",
            "country_name": "Philippines",
            "connectivity": true
        },
        {
            "lon": 125.091176,
            "lat": 11.630716,
            "school_name": "Daligan PS",
            "country_name": "Philippines",
            "connectivity": true
        },
        {
            "lon": 123.499519,
            "lat": 8.103078,
            "school_name": "Lower Dimalinao ES",
            "country_name": "Philippines",
            "connectivity": true
        },
        {
            "lon": 125.6165,
            "lat": 7.561014,
            "school_name": "San Isidro ES",
            "country_name": "Philippines",
            "connectivity": true
        },
        {
            "lon": 124.66861,
            "lat": 7.525915319,
            "school_name": "Sabang PS",
            "country_name": "Philippines",
            "connectivity": true
        },
        {
            "lon": 126.3134868,
            "lat": 8.314908143,
            "school_name": "Tidman ES",
            "country_name": "Philippines",
            "connectivity": true
        },
        {
            "lon": -43.987656,
            "lat": -19.934341,
            "school_name": "COLEGIO TIRADENTES PMMG GAMELEIRA",
            "country_name": "Brazil",
            "connectivity": true
        },
        {
            "lon": -44.021122,
            "lat": -19.86415,
            "school_name": "EM SONIA BRAGA DA CRUZ RIBEIRO SILVA",
            "country_name": "Brazil",
            "connectivity": true
        },
        {
            "lon": -40.33962,
            "lat": -20.440516,
            "school_name": "UMEF DEOLINDO PERIM",
            "country_name": "Brazil",
            "connectivity": true
        },
        {
            "lon": -86.57016,
            "lat": 15.48858,
            "school_name": "SAN JORGE",
            "country_name": "Honduras",
            "connectivity": true
        },
        {
            "lon": -73.070339,
            "lat": 5.518346,
            "school_name": "IE EL HATO - SEDE PRINCIPAL",
            "country_name": "Colombia",
            "connectivity": true
        },
        {
            "lon": -73.01722222,
            "lat": 7.322222222,
            "school_name": "ESCUELA RURAL BACHIGA",
            "country_name": "Colombia",
            "connectivity": true
        },
        {
            "lon": -73.13191254,
            "lat": 8.52306405,
            "school_name": "SEDE EL CARACOL",
            "country_name": "Colombia",
            "connectivity": true
        },
        {
            "lon": -73.12853371,
            "lat": 8.457414721,
            "school_name": "SEDE SAN LUIS",
            "country_name": "Colombia",
            "connectivity": true
        },
        {
            "lon": -73.13277778,
            "lat": 8.36138888,
            "school_name": "SEDE BUENOS AIRES",
            "country_name": "Colombia",
            "connectivity": true
        },
        {
            "lon": -73.41850946,
            "lat": 10.73052942,
            "school_name": "ESCUELA INDIGENA AHUYAMAL - SEDE PRINCIPAL",
            "country_name": "Colombia",
            "connectivity": true
        },
        {
            "lon": -73.76208038,
            "lat": 5.880334819,
            "school_name": "ESCUELA RURAL ALTO GRANDE",
            "country_name": "Colombia",
            "connectivity": true
        },
        {
            "lon": -75.301667,
            "lat": 1.211389,
            "school_name": "LA ESMERALDA",
            "country_name": "Colombia",
            "connectivity": true
        },
        {
            "lon": -75.293611,
            "lat": 2.576389,
            "school_name": "LA ARENOSA",
            "country_name": "Colombia",
            "connectivity": true
        },
        {
            "lon": -76.2,
            "lat": 4.31,
            "school_name": "SATELITE RICAURTE",
            "country_name": "Colombia",
            "connectivity": true
        },
        {
            "lon": -76.22381484,
            "lat": 3.412047405,
            "school_name": "ANTONIO NARI\u00d1O",
            "country_name": "Colombia",
            "connectivity": true
        },
        {
            "lon": -76.647218,
            "lat": 2.37262,
            "school_name": "EL PLATANILLAL",
            "country_name": "Colombia",
            "connectivity": true
        },
        {
            "lon": -76.6281425,
            "lat": 3.11923075,
            "school_name": "TIMBA (sede principal)",
            "country_name": "Colombia",
            "connectivity": true
        },
        {
            "lon": -77.53663999,
            "lat": 0.796142024,
            "school_name": "CENTRO EDUCATIVO LOMA DEL MEDIO",
            "country_name": "Colombia",
            "connectivity": true
        },
        {
            "lon": -78.19061622,
            "lat": 2.399497591,
            "school_name": "COLEGIO DIOMEDES PORTILLA NOCTURNO",
            "country_name": "Colombia",
            "connectivity": true
        },
        {
            "lon": -78.43851918,
            "lat": 1.61185925,
            "school_name": "SEDE # 4 BRISAS DEL CARMEN",
            "country_name": "Colombia",
            "connectivity": true
        },
        {
            "lon": -48.7614,
            "lat": -1.8853,
            "school_name": "E M E F TEOFILO FERREIRA DOS SANTOS",
            "country_name": "Brazil",
            "connectivity": true
        },
        {
            "lon": -48.9428,
            "lat": -5.4168,
            "school_name": "E M E F EDUCAR PARA CRESCER",
            "country_name": "Brazil",
            "connectivity": true
        },
        {
            "lon": -51.0016,
            "lat": -0.7765,
            "school_name": "E M E F NOSSA SENHORA SANTANA RIO MARIAI GRANDE",
            "country_name": "Brazil",
            "connectivity": false
        },
        {
            "lon": -50.8964,
            "lat": 1.2262,
            "school_name": "ESC MUL FAZENDA MODELO",
            "country_name": "Brazil",
            "connectivity": false
        },
        {
            "lon": -52.509,
            "lat": -29.7148,
            "school_name": "ESC EST ENS MED VERA CRUZ",
            "country_name": "Brazil",
            "connectivity": true
        },
        {
            "lon": -45.0389,
            "lat": -4.6778,
            "school_name": "UE ANTONIO PEREIRA NEVES",
            "country_name": "Brazil",
            "connectivity": false
        },
        {
            "lon": -44.5885,
            "lat": -5.3601,
            "school_name": "EM RAIMUNDO ALEXANDRE COSTA",
            "country_name": "Brazil",
            "connectivity": false
        },
        {
            "lon": -46.3841,
            "lat": -21.9248,
            "school_name": "EE SOUZA NOVAIS",
            "country_name": "Brazil",
            "connectivity": true
        },
        {
            "lon": -45.3624,
            "lat": -3.1337,
            "school_name": "EM SAO JOSE",
            "country_name": "Brazil",
            "connectivity": false
        },
        {
            "lon": -43.5966,
            "lat": -2.9696,
            "school_name": "EM SANTA CRUZ",
            "country_name": "Brazil",
            "connectivity": false
        },
        {
            "lon": -44.3593,
            "lat": -3.3923,
            "school_name": "CENTRO DE ENSINO PROFESSOR NEWTON NEVES - ANEXO I - PICOS 1",
            "country_name": "Brazil",
            "connectivity": false
        },
        {
            "lon": -45.1528,
            "lat": -2.2209,
            "school_name": "CEF SINHA PAVAO",
            "country_name": "Brazil",
            "connectivity": false
        },
        {
            "lon": -43.4906,
            "lat": -22.4688,
            "school_name": "E M CEL EDMUNDO MACEDO SOARES SILVA",
            "country_name": "Brazil",
            "connectivity": true
        },
        {
            "lon": -40.6121,
            "lat": -4.0908,
            "school_name": "HERMINIO ALVES EEIF",
            "country_name": "Brazil",
            "connectivity": true
        },
        {
            "lon": -38.592,
            "lat": -3.7243,
            "school_name": "ESCOLA MUNICIPAL QUINTINO CUNHA",
            "country_name": "Brazil",
            "connectivity": true
        },
        {
            "lon": -40.8231,
            "lat": -5.0905,
            "school_name": "SAO JOSE ESC CID",
            "country_name": "Brazil",
            "connectivity": true
        },
        {
            "lon": -39.7381,
            "lat": -3.0417,
            "school_name": "FRANCISCO MARTINS ALVES EEB",
            "country_name": "Brazil",
            "connectivity": true
        },
        {
            "lon": -38.6538,
            "lat": -4.2873,
            "school_name": "NAYRA LUCIA GONZAGA SALDANHA CEI",
            "country_name": "Brazil",
            "connectivity": false
        },
        {
            "lon": -39.7532,
            "lat": -3.0257,
            "school_name": "EEM FRANCISCO ARAUJO BARROS",
            "country_name": "Brazil",
            "connectivity": false
        },
        {
            "lon": -35.7647,
            "lat": -7.0161,
            "school_name": "EMEF MARIA EMILIA MARACAJA",
            "country_name": "Brazil",
            "connectivity": true
        },
        {
            "lon": -35.2412,
            "lat": -8.1609,
            "school_name": "ESCOLA MUNICIPAL SANTA TEREZINHA",
            "country_name": "Brazil",
            "connectivity": false
        },
        {
            "lon": -35.8161,
            "lat": -8.7606,
            "school_name": "ESC MUL MARIA ELZA COSTA SILVEIRA BARROS",
            "country_name": "Brazil",
            "connectivity": false
        },
        {
            "lon": -40.2511,
            "lat": -12.0548,
            "school_name": "ESCOLA JOAO PAMPONET",
            "country_name": "Brazil",
            "connectivity": false
        },
        {
            "lon": -43.0232,
            "lat": -6.7714,
            "school_name": "CETI BUCAR NETO",
            "country_name": "Brazil",
            "connectivity": true
        },
        {
            "lon": -44.4743,
            "lat": -21.6671,
            "school_name": "EE FAZ JOAQUIM ARAUJO",
            "country_name": "Brazil",
            "connectivity": true
        },
        {
            "lon": -41.8625,
            "lat": -19.1705,
            "school_name": "EE HUMBERTO DE CAMPOS",
            "country_name": "Brazil",
            "connectivity": true
        },
        {
            "lon": -41.5327,
            "lat": -17.6153,
            "school_name": "EM LETICE PASSOS DE MATOS",
            "country_name": "Brazil",
            "connectivity": true
        },
        {
            "lon": -42.2026,
            "lat": -15.4947,
            "school_name": "EM FRANCISCO XAVIER DE BARROS",
            "country_name": "Brazil",
            "connectivity": true
        },
        {
            "lon": -50.0032,
            "lat": -23.8827,
            "school_name": "HUMBERTO F DE FRANCA E E C PROF EF",
            "country_name": "Brazil",
            "connectivity": true
        },
        {
            "lon": -40.8894,
            "lat": -20.0596,
            "school_name": "EMPEIEF BARRACAO DO RIO POSSMOSER",
            "country_name": "Brazil",
            "connectivity": false
        },
        {
            "lon": -37.0721,
            "lat": -10.9727,
            "school_name": "COLEGIO ESTADUAL PROFESSORA OFENISIA SOARES FREIRE",
            "country_name": "Brazil",
            "connectivity": true
        },
        {
            "lon": -40.5424,
            "lat": -19.4094,
            "school_name": "CRECHE MUNICIPAL MARIA DALVA BONA PASSAMANI",
            "country_name": "Brazil",
            "connectivity": true
        },
        {
            "lon": -46.3001,
            "lat": -23.9505,
            "school_name": "SARA BOZOGLIAN NUCLEO DE EDUCACAO INFANTIL",
            "country_name": "Brazil",
            "connectivity": true
        },
        {
            "lon": -47.7037,
            "lat": -22.6693,
            "school_name": "MARCIA REGINA MODESTO DE PAULA DA ROCHA PROFESSORA",
            "country_name": "Brazil",
            "connectivity": true
        },
        {
            "lon": -46.6691,
            "lat": -24.1054,
            "school_name": "OCEANOPOLIS CRECHE MUNICIPAL",
            "country_name": "Brazil",
            "connectivity": true
        },
        {
            "lon": -38.3483,
            "lat": -12.8925,
            "school_name": "INSTITUTO DE EDUCACAO PROFISSIONALIZANTE EURIDES SANTANNA",
            "country_name": "Brazil",
            "connectivity": true
        },
        {
            "lon": -38.4078,
            "lat": -12.9097,
            "school_name": "EE - COLEGIO ESTADUAL BATISTA NEVES",
            "country_name": "Brazil",
            "connectivity": true
        },
        {
            "lon": -46.9016,
            "lat": -23.5383,
            "school_name": "THAMARA CORREA DE MATOS EMEB",
            "country_name": "Brazil",
            "connectivity": true
        },
        {
            "lon": -60.0173,
            "lat": -3.0197,
            "school_name": "EM VINICIUS DE MORAES",
            "country_name": "Brazil",
            "connectivity": true
        },
        {
            "lon": -46.806,
            "lat": -23.6498,
            "school_name": "JOSE RAMOS JORNALISTA EM",
            "country_name": "Brazil",
            "connectivity": true
        },
        {
            "lon": -51.0213,
            "lat": -21.7142,
            "school_name": "INAH MAGOSSO MARTINELLI PROFA EMEI",
            "country_name": "Brazil",
            "connectivity": true
        },
        {
            "lon": -47.8672,
            "lat": -22.0308,
            "school_name": "BRUNO PANHOCA CEMEI",
            "country_name": "Brazil",
            "connectivity": true
        },
        {
            "lon": -51.3959,
            "lat": -21.8536,
            "school_name": "JOSE GILMAR MAZINI EM",
            "country_name": "Brazil",
            "connectivity": true
        },
        {
            "lon": -47.0743,
            "lat": -22.9176,
            "school_name": "PENITENCIARIA FEMININA DE CAMPINAS",
            "country_name": "Brazil",
            "connectivity": false
        },
        {
            "lon": -47.6247,
            "lat": -22.7461,
            "school_name": "OLIVIA DE ALMEIDA CARVALHO FERES PROFESSORA EM",
            "country_name": "Brazil",
            "connectivity": true
        },
        {
            "lon": -56.427,
            "lat": -15.8005,
            "school_name": "ESCOLA MUNICIPAL JOSE DESIDERIO DE PINHO",
            "country_name": "Brazil",
            "connectivity": true
        },
        {
            "lon": -49.2518,
            "lat": -25.5594,
            "school_name": "GANCHINHO SAO LUIZ C M E I",
            "country_name": "Brazil",
            "connectivity": true
        },
        {
            "lon": -54.0828,
            "lat": -31.3364,
            "school_name": "EMEF GENERAL EMILIO LUIZ MALLET",
            "country_name": "Brazil",
            "connectivity": true
        },
        {
            "lon": -43.7559,
            "lat": -21.6091,
            "school_name": "EM JUSCELINO MANSO",
            "country_name": "Brazil",
            "connectivity": true
        },
        {
            "lon": -53.4348,
            "lat": -27.4806,
            "school_name": "EMEF JOSE CIOTTI",
            "country_name": "Brazil",
            "connectivity": false
        },
        {
            "lon": -49.0635,
            "lat": -25.4597,
            "school_name": "IZAAK VICTOR PEREIRA E M EF",
            "country_name": "Brazil",
            "connectivity": true
        },
        {
            "lon": -45.9852,
            "lat": -23.3113,
            "school_name": "POMPILIO MERCADANTE DR",
            "country_name": "Brazil",
            "connectivity": true
        },
        {
            "lon": -51.6859,
            "lat": -29.8262,
            "school_name": "EMEI PINGO DE GENTE",
            "country_name": "Brazil",
            "connectivity": true
        },
        {
            "lon": -34.9314,
            "lat": -8.0416,
            "school_name": "ESCOLA JOAQUIM XAVIER DE BRITO",
            "country_name": "Brazil",
            "connectivity": true
        },
        {
            "lon": -45.4671,
            "lat": -23.0989,
            "school_name": "MADRE CECILIA CEMTE",
            "country_name": "Brazil",
            "connectivity": true
        },
        {
            "lon": -46.7359,
            "lat": -23.4856,
            "school_name": "CEI DIRET RAQUEL ZUMBANO ALTMAN",
            "country_name": "Brazil",
            "connectivity": true
        },
        {
            "lon": -39.267,
            "lat": -6.2643,
            "school_name": "JOAO VICENTE ALVES EEF",
            "country_name": "Brazil",
            "connectivity": true
        },
        {
            "lon": -48.4682,
            "lat": -1.4537,
            "school_name": "EEEF DR ANIBAL DUARTE",
            "country_name": "Brazil",
            "connectivity": true
        },
        {
            "lon": -41.5645,
            "lat": -19.725,
            "school_name": "EM JOAQUIM DE ABREU",
            "country_name": "Brazil",
            "connectivity": true
        }
    ],
    "num_countries": 13,
    "countries": [
        "Brazil",
        "Colombia",
        "Costa Rica",
        "Honduras",
        "Kazakhstan",
        "Kyrgyzstan",
        "Namibia",
        "Palestine",
        "Philippines",
        "Rwanda",
        "Saint Vincent and the Grenadines",
        "Sierra Leone",
        "Zimbabwe"
    ],
    "schools_no_data": [
        {
            "lon": 27.3925746,
            "lat": -20.5610513,
            "school_name": "Gambule \u2a02",
            "country_name": "Botswana",
            "connectivity": false
        },
        {
            "lon": 28.819,
            "lat": -2.39,
            "school_name": "INST KIGOMA",
            "country_name": "Democratic Republic of the Congo",
            "connectivity": false
        },
        {
            "lon": 33.17736955,
            "lat": 16.62458907,
            "school_name": "Name unknown",
            "country_name": "Sudan",
            "connectivity": false
        },
        {
            "lon": 33.19050285,
            "lat": 14.5737292,
            "school_name": "Name unknown",
            "country_name": "Sudan",
            "connectivity": false
        },
        {
            "lon": 32.8113165833333,
            "lat": 14.7176144833333,
            "school_name": "Name unknown",
            "country_name": "Sudan",
            "connectivity": false
        },
        {
            "lon": 32.80422173,
            "lat": 12.62616532,
            "school_name": "Name unknown",
            "country_name": "Sudan",
            "connectivity": false
        },
        {
            "lon": -0.2172884,
            "lat": 5.5993359,
            "school_name": "Name unknown",
            "country_name": "Ghana",
            "connectivity": false
        },
        {
            "lon": 25.30710097,
            "lat": 11.52889688,
            "school_name": "Name unknown",
            "country_name": "Sudan",
            "connectivity": false
        },
        {
            "lon": -0.2353072,
            "lat": 5.6124993,
            "school_name": "Name unknown",
            "country_name": "Ghana",
            "connectivity": false
        },
        {
            "lon": -0.1263133,
            "lat": 10.8589245,
            "school_name": "Name unknown",
            "country_name": "Ghana",
            "connectivity": false
        },
        {
            "lon": -1.9489467,
            "lat": 7.3943549,
            "school_name": "Name unknown",
            "country_name": "Ghana",
            "connectivity": false
        },
        {
            "lon": -1.636159,
            "lat": 6.6990664,
            "school_name": "Name unknown",
            "country_name": "Ghana",
            "connectivity": false
        },
        {
            "lon": -1.4806169,
            "lat": 6.5413037,
            "school_name": "Name unknown",
            "country_name": "Ghana",
            "connectivity": false
        },
        {
            "lon": -1.5485224,
            "lat": 6.694158,
            "school_name": "Name unknown",
            "country_name": "Ghana",
            "connectivity": false
        },
        {
            "lon": 37.21624,
            "lat": -3.34509,
            "school_name": "MBATAKERO",
            "country_name": "United Republic of Tanzania",
            "connectivity": false
        },
        {
            "lon": 35.5155,
            "lat": -8.52562,
            "school_name": "MLEVELWA",
            "country_name": "United Republic of Tanzania",
            "connectivity": false
        },
        {
            "lon": 33.48285,
            "lat": -2.1495,
            "school_name": "MUUNGANO",
            "country_name": "United Republic of Tanzania",
            "connectivity": false
        },
        {
            "lon": 39.17151,
            "lat": -4.70423,
            "school_name": "MAHANDAKINI",
            "country_name": "United Republic of Tanzania",
            "connectivity": false
        },
        {
            "lon": 31.79211,
            "lat": -2.14013,
            "school_name": "NYAMAHANJU",
            "country_name": "United Republic of Tanzania",
            "connectivity": false
        },
        {
            "lon": 36.24224,
            "lat": -6.12627,
            "school_name": "KIEGEA",
            "country_name": "United Republic of Tanzania",
            "connectivity": false
        },
        {
            "lon": 37.10692,
            "lat": -4.05518,
            "school_name": "LOSOKONOI",
            "country_name": "United Republic of Tanzania",
            "connectivity": false
        },
        {
            "lon": -2.8242293,
            "lat": 5.8116575,
            "school_name": "Name unknown",
            "country_name": "Ghana",
            "connectivity": false
        },
        {
            "lon": -2.3356247,
            "lat": 7.0849758,
            "school_name": "Name unknown",
            "country_name": "Ghana",
            "connectivity": false
        },
        {
            "lon": 39.4878071,
            "lat": 2.9437575,
            "school_name": "Beramu Primary School",
            "country_name": "Kenya",
            "connectivity": false
        },
        {
            "lon": 0.495367,
            "lat": 9.146988,
            "school_name": "JEP WAMANE",
            "country_name": "Togo",
            "connectivity": false
        },
        {
            "lon": 0.536238333,
            "lat": 10.91713667,
            "school_name": "JEP DIELO",
            "country_name": "Togo",
            "connectivity": false
        },
        {
            "lon": 1.61048,
            "lat": 6.3323,
            "school_name": "EPC ANFOIN G/B",
            "country_name": "Togo",
            "connectivity": false
        },
        {
            "lon": 0.8055,
            "lat": 7.7928,
            "school_name": "EDIL AYAGBA ADOUDOPE",
            "country_name": "Togo",
            "connectivity": false
        },
        {
            "lon": 0.753208,
            "lat": 10.348485,
            "school_name": "EPP DJE BOURI G/B",
            "country_name": "Togo",
            "connectivity": false
        },
        {
            "lon": 0.474477,
            "lat": 10.177348,
            "school_name": "EPP NANDIKI",
            "country_name": "Togo",
            "connectivity": false
        },
        {
            "lon": 1.17456,
            "lat": 6.261742,
            "school_name": "CPL LA PERCEE",
            "country_name": "Togo",
            "connectivity": false
        },
        {
            "lon": 30.45272,
            "lat": -3.80523,
            "school_name": "MIKONKO",
            "country_name": "United Republic of Tanzania",
            "connectivity": false
        },
        {
            "lon": 39.30873,
            "lat": -10.32276,
            "school_name": "NG'AWA",
            "country_name": "United Republic of Tanzania",
            "connectivity": false
        },
        {
            "lon": 0.300843,
            "lat": 10.548466,
            "school_name": "CPL LA REFERENCE",
            "country_name": "Togo",
            "connectivity": false
        },
        {
            "lon": 33.39217977,
            "lat": -12.16761559,
            "school_name": "Matikija",
            "country_name": "Malawi",
            "connectivity": false
        },
        {
            "lon": 33.83151568,
            "lat": -12.67617685,
            "school_name": "Mgoza",
            "country_name": "Malawi",
            "connectivity": false
        },
        {
            "lon": 33.54652081,
            "lat": -14.00517446,
            "school_name": "Mwatalika CDSS",
            "country_name": "Malawi",
            "connectivity": false
        },
        {
            "lon": 25.18454708,
            "lat": 0.515376769,
            "school_name": "CS  OKAPI",
            "country_name": "Democratic Republic of the Congo",
            "connectivity": false
        },
        {
            "lon": 25.29159268,
            "lat": 0.742082717,
            "school_name": "ITA ALIBUKU",
            "country_name": "Democratic Republic of the Congo",
            "connectivity": false
        },
        {
            "lon": 15.23140521,
            "lat": -4.354601857,
            "school_name": "LYCEE LA CLAIRE FONTAINE",
            "country_name": "Democratic Republic of the Congo",
            "connectivity": false
        },
        {
            "lon": 19.80310878,
            "lat": 1.22920844,
            "school_name": "CS COMPAGNONS DE BEEL",
            "country_name": "Democratic Republic of the Congo",
            "connectivity": false
        },
        {
            "lon": 24.44285913,
            "lat": -4.729797736,
            "school_name": "INST EBINGA",
            "country_name": "Democratic Republic of the Congo",
            "connectivity": false
        },
        {
            "lon": 22.04031384,
            "lat": -4.443842563,
            "school_name": "EP DIBINGA",
            "country_name": "Democratic Republic of the Congo",
            "connectivity": false
        },
        {
            "lon": 27.51238643,
            "lat": -11.65396467,
            "school_name": "CS LA  ROSEE DE L'HERMON",
            "country_name": "Democratic Republic of the Congo",
            "connectivity": false
        },
        {
            "lon": 28.876555,
            "lat": -1.654826363,
            "school_name": "EP MUSHEBERI",
            "country_name": "Democratic Republic of the Congo",
            "connectivity": false
        },
        {
            "lon": 22.08750167,
            "lat": 2.025345,
            "school_name": "EP BOSAMBODA",
            "country_name": "Democratic Republic of the Congo",
            "connectivity": false
        },
        {
            "lon": 21.42402333,
            "lat": 2.1977,
            "school_name": "EP YAKATA - RIVE",
            "country_name": "Democratic Republic of the Congo",
            "connectivity": false
        },
        {
            "lon": 29.20796766,
            "lat": -5.89142227,
            "school_name": "INST MWANGAZA",
            "country_name": "Democratic Republic of the Congo",
            "connectivity": false
        },
        {
            "lon": 28.80361275,
            "lat": -2.300516802,
            "school_name": "EDAP/ULPGL",
            "country_name": "Democratic Republic of the Congo",
            "connectivity": false
        },
        {
            "lon": 14.85943755,
            "lat": -5.26267347,
            "school_name": "COLLEGE SACRE COEUR",
            "country_name": "Democratic Republic of the Congo",
            "connectivity": false
        },
        {
            "lon": -99.195233,
            "lat": 18.918225,
            "school_name": "LIC. BERNABE L. DE ELIAS",
            "country_name": "Mexico",
            "connectivity": false
        },
        {
            "lon": -9.8275,
            "lat": 15.9378,
            "school_name": "\u0645\u062f\u0631\u0648\u0645",
            "country_name": "Mauritania",
            "connectivity": false
        },
        {
            "lon": 30.89012,
            "lat": 1.32226,
            "school_name": "Kibale Modern Parents School",
            "country_name": "Uganda",
            "connectivity": false
        },
        {
            "lon": 33.98901,
            "lat": 0.26249,
            "school_name": "Mawero P.S.",
            "country_name": "Uganda",
            "connectivity": false
        },
        {
            "lon": 30.15199,
            "lat": -1.28997,
            "school_name": "Kahondo S.S.",
            "country_name": "Uganda",
            "connectivity": false
        },
        {
            "lon": 32.33525,
            "lat": 2.336,
            "school_name": "Ogali P.S.",
            "country_name": "Uganda",
            "connectivity": false
        },
        {
            "lon": 33.98529,
            "lat": 0.92225,
            "school_name": "Leresi P.S.",
            "country_name": "Uganda",
            "connectivity": false
        },
        {
            "lon": 33.98443,
            "lat": 0.77913,
            "school_name": "Pagoya P.S.",
            "country_name": "Uganda",
            "connectivity": false
        },
        {
            "lon": 34.18842,
            "lat": 1.01282,
            "school_name": "Bubirabi P.S.",
            "country_name": "Uganda",
            "connectivity": false
        },
        {
            "lon": 34.27825,
            "lat": 0.99482,
            "school_name": "Bukari P.S.",
            "country_name": "Uganda",
            "connectivity": false
        },
        {
            "lon": 31.73262,
            "lat": -0.29991,
            "school_name": "Ndegeya C.O U",
            "country_name": "Uganda",
            "connectivity": false
        },
        {
            "lon": 30.82109,
            "lat": -26.04812,
            "school_name": "D and C Comprehensive Primary School",
            "country_name": "South Africa",
            "connectivity": false
        },
        {
            "lon": 26.25451,
            "lat": -27.22651,
            "school_name": "Thusang Intermediate School",
            "country_name": "South Africa",
            "connectivity": false
        },
        {
            "lon": 18.47024,
            "lat": -33.98819,
            "school_name": "Harfield Pre Primary",
            "country_name": "South Africa",
            "connectivity": false
        },
        {
            "lon": 18.56915,
            "lat": -33.93163,
            "school_name": "Range Secondary School",
            "country_name": "South Africa",
            "connectivity": false
        },
        {
            "lon": 30.41087,
            "lat": -30.26251,
            "school_name": "Sizophumelela High School",
            "country_name": "South Africa",
            "connectivity": false
        },
        {
            "lon": 29.77364,
            "lat": -30.27563,
            "school_name": "Nomeva Vukazi Senior Primary School",
            "country_name": "South Africa",
            "connectivity": false
        },
        {
            "lon": 30.21343,
            "lat": -29.94909,
            "school_name": "Mkhobeni High School",
            "country_name": "South Africa",
            "connectivity": false
        },
        {
            "lon": 30.84203,
            "lat": -29.98201,
            "school_name": "Qhosheyiphethe Junior Primary School",
            "country_name": "South Africa",
            "connectivity": false
        },
        {
            "lon": 30.94287,
            "lat": -29.94876,
            "school_name": "Entuthukweni Primary School",
            "country_name": "South Africa",
            "connectivity": false
        },
        {
            "lon": 31.37224,
            "lat": -27.95817,
            "school_name": "Siyangempumelelo High School",
            "country_name": "South Africa",
            "connectivity": false
        },
        {
            "lon": 31.6914,
            "lat": -28.16056,
            "school_name": "Siyaphakama High School",
            "country_name": "South Africa",
            "connectivity": false
        },
        {
            "lon": 30.87949,
            "lat": -29.53438,
            "school_name": "Qili Primary School",
            "country_name": "South Africa",
            "connectivity": false
        },
        {
            "lon": 28.0742,
            "lat": -26.5501,
            "school_name": "Assemblies of God College",
            "country_name": "South Africa",
            "connectivity": false
        },
        {
            "lon": 28.00903,
            "lat": -26.0034,
            "school_name": "Aviation Direct Cc",
            "country_name": "South Africa",
            "connectivity": false
        },
        {
            "lon": 27.49289,
            "lat": -26.49175,
            "school_name": "Stoute Kabouter Kinderonderrig",
            "country_name": "South Africa",
            "connectivity": false
        },
        {
            "lon": 28.0835,
            "lat": -26.14642,
            "school_name": "Highlands North Boys' High School",
            "country_name": "South Africa",
            "connectivity": false
        },
        {
            "lon": 28.23504,
            "lat": -26.00472,
            "school_name": "Tshepisa Primary School",
            "country_name": "South Africa",
            "connectivity": false
        },
        {
            "lon": 27.96533,
            "lat": -26.12243,
            "school_name": "Potter's Nursery School",
            "country_name": "South Africa",
            "connectivity": false
        },
        {
            "lon": 28.0937,
            "lat": -31.93415,
            "school_name": "Ganya Junior Secondary School",
            "country_name": "South Africa",
            "connectivity": false
        },
        {
            "lon": 28.11452,
            "lat": -32.18791,
            "school_name": "Noxhakaza Junior Secondary School",
            "country_name": "South Africa",
            "connectivity": false
        },
        {
            "lon": 28.27987,
            "lat": -31.44728,
            "school_name": "Zabasa Combined School",
            "country_name": "South Africa",
            "connectivity": false
        },
        {
            "lon": 27.54731,
            "lat": -27.93985,
            "school_name": "Matlwangtlwang Secondary School",
            "country_name": "South Africa",
            "connectivity": false
        },
        {
            "lon": 27.11903,
            "lat": -33.3459,
            "school_name": "Ngqowa Primary School",
            "country_name": "South Africa",
            "connectivity": false
        },
        {
            "lon": 28.50798,
            "lat": -32.06288,
            "school_name": "Xobo Junior Secondary School",
            "country_name": "South Africa",
            "connectivity": false
        },
        {
            "lon": 27.96027,
            "lat": -30.79973,
            "school_name": "Rhodes Primary School",
            "country_name": "South Africa",
            "connectivity": false
        },
        {
            "lon": 29.5805,
            "lat": -30.95496,
            "school_name": "Rockville Junior Secondary School",
            "country_name": "South Africa",
            "connectivity": false
        },
        {
            "lon": -59.01093582,
            "lat": -34.11508371,
            "school_name": "INSTITUTO SUPERIOR DE FORMACION DOCENTE N\u00ba120",
            "country_name": "Argentina",
            "connectivity": false
        },
        {
            "lon": -60.26433271,
            "lat": -38.37278022,
            "school_name": "JARDIN DE INFANTES SEMILLITAS",
            "country_name": "Argentina",
            "connectivity": false
        },
        {
            "lon": -58.9135956,
            "lat": -38.1041853,
            "school_name": "ESCUELA PRIMARIA N\u00ba41 COLONIA LAVALLE",
            "country_name": "Argentina",
            "connectivity": false
        },
        {
            "lon": -57.991012,
            "lat": -36.824647,
            "school_name": "ESCUELA PRIMARIA N\u00ba6 GENERAL MANUEL BELGRANO",
            "country_name": "Argentina",
            "connectivity": false
        },
        {
            "lon": -62.2716267,
            "lat": -38.71323223,
            "school_name": "JARDIN DE INFANTES N\u00ba910 CIRIACA PALAU DE LAPUIR",
            "country_name": "Argentina",
            "connectivity": false
        },
        {
            "lon": -58.887908,
            "lat": -34.738147,
            "school_name": "JARDIN DE INFANTES ROSARIO VERA PE\u00d1ALOZA",
            "country_name": "Argentina",
            "connectivity": false
        },
        {
            "lon": -59.84702246,
            "lat": -36.7859808,
            "school_name": "ESCUELA ESPECIAL N\u00ba504 COOPERATIVA ESCOLAR LAS ABEJAS",
            "country_name": "Argentina",
            "connectivity": false
        },
        {
            "lon": -58.82536962,
            "lat": -34.6371033,
            "school_name": "JARDIN DE INFANTES N\u00ba926 VOCECITAS DE BANDONEON",
            "country_name": "Argentina",
            "connectivity": false
        },
        {
            "lon": -57.92192107,
            "lat": -34.85595982,
            "school_name": "CENTRO DE ADULTOS N\u00ba707/01 (ESC. PRIMARIA N\u00ba9)",
            "country_name": "Argentina",
            "connectivity": false
        },
        {
            "lon": -58.54174006,
            "lat": -34.57350886,
            "school_name": "INSTITUTO DE PROFESORADO SANTO TOMAS DE AQUINO",
            "country_name": "Argentina",
            "connectivity": false
        },
        {
            "lon": -60.09790421,
            "lat": -38.03172727,
            "school_name": "INSTITUTO JUAN ELICAGARAY",
            "country_name": "Argentina",
            "connectivity": false
        },
        {
            "lon": -58.74789261,
            "lat": -34.56055066,
            "school_name": "JARDIN DE INFANTES N\u00ba912 LOLA MORA",
            "country_name": "Argentina",
            "connectivity": false
        },
        {
            "lon": -58.36708361,
            "lat": -34.68203946,
            "school_name": "JARDIN DE INFANTES MUNICIPAL SEBASTIAN BICCA",
            "country_name": "Argentina",
            "connectivity": false
        },
        {
            "lon": -58.66146895,
            "lat": -34.46192121,
            "school_name": "ESCUELA PRIMARIA N\u00ba40 BELISARIO ROLDAN",
            "country_name": "Argentina",
            "connectivity": false
        },
        {
            "lon": 7.826262,
            "lat": 5.618727,
            "school_name": "Name unknown",
            "country_name": "Nigeria",
            "connectivity": false
        },
        {
            "lon": -58.55658535,
            "lat": -34.54556779,
            "school_name": "COLEGIO NUESTRA SE\u00d1ORA DE LA MERCED",
            "country_name": "Argentina",
            "connectivity": false
        },
        {
            "lon": -57.59796101,
            "lat": -38.02665707,
            "school_name": "ESCUELA PRIMARIA N\u00ba50 2 DE ABRIL",
            "country_name": "Argentina",
            "connectivity": false
        },
        {
            "lon": -58.56542095,
            "lat": -34.60364973,
            "school_name": "JARDIN DE INFANTES TERNURITAS",
            "country_name": "Argentina",
            "connectivity": false
        },
        {
            "lon": -58.51168466,
            "lat": -34.54113073,
            "school_name": "ESC. SECUNDARIA BASICA N\u00ba15",
            "country_name": "Argentina",
            "connectivity": false
        },
        {
            "lon": -57.92456049,
            "lat": -34.91840479,
            "school_name": "OBISPO ANUNCIADO SERAFINI",
            "country_name": "Argentina",
            "connectivity": false
        },
        {
            "lon": -60.9490425,
            "lat": -34.5935073,
            "school_name": "CENTRO INVESTIGACION EDUCATIVA",
            "country_name": "Argentina",
            "connectivity": false
        },
        {
            "lon": -65.78242434,
            "lat": -28.47978716,
            "school_name": "ESCUELA DE ADULTO NO.38",
            "country_name": "Argentina",
            "connectivity": false
        },
        {
            "lon": -60.74263844,
            "lat": -26.81008031,
            "school_name": "E.E.P. N\u00ba 660",
            "country_name": "Argentina",
            "connectivity": false
        },
        {
            "lon": -61.08521729,
            "lat": -27.0802374,
            "school_name": "PRIM.ADULTOS N\u00ba 51",
            "country_name": "Argentina",
            "connectivity": false
        },
        {
            "lon": -61.3231873,
            "lat": -27.48590319,
            "school_name": "E.E.P. N\u00ba 427",
            "country_name": "Argentina",
            "connectivity": false
        },
        {
            "lon": -59.00586544,
            "lat": -27.46836786,
            "school_name": "E.E.P. N\u00ba 343-COMBATE DE LA VUELTA DE OBLIGADO",
            "country_name": "Argentina",
            "connectivity": false
        },
        {
            "lon": -61.09307829,
            "lat": -27.09244973,
            "school_name": "E.E.T. N\u00ba 5-ING. JUAN COL",
            "country_name": "Argentina",
            "connectivity": false
        },
        {
            "lon": -64.26497636,
            "lat": -27.84126801,
            "school_name": "CENTRO DE EDUCAION BASICA DE ADULTOS N\u00b0 017",
            "country_name": "Argentina",
            "connectivity": false
        },
        {
            "lon": -58.50473262,
            "lat": -34.65180338,
            "school_name": "INSTITUTO SAN VICENTE DE PAUL",
            "country_name": "Argentina",
            "connectivity": false
        },
        {
            "lon": -58.50894784,
            "lat": -34.63052334,
            "school_name": "ESC. DE COM. N\u00ba 30 DR. ESTEBAN A. GASCON DE 18",
            "country_name": "Argentina",
            "connectivity": false
        },
        {
            "lon": -62.25956471,
            "lat": -31.48558841,
            "school_name": "ESCUELA CONSTANCIO C. VIGIL",
            "country_name": "Argentina",
            "connectivity": false
        },
        {
            "lon": -64.3313616,
            "lat": -32.0944427,
            "school_name": "J.DE INF. DR. JUAN MANUEL ALBARENQUE",
            "country_name": "Argentina",
            "connectivity": false
        },
        {
            "lon": -63.23849311,
            "lat": -32.40363203,
            "school_name": "ESCUELA FLORENTINO AMEGHINO",
            "country_name": "Argentina",
            "connectivity": false
        },
        {
            "lon": -58.67346463,
            "lat": -27.74898776,
            "school_name": "ESCUELA PRIMARIA N\u00ba 907",
            "country_name": "Argentina",
            "connectivity": false
        },
        {
            "lon": -59.89132271,
            "lat": -31.58220448,
            "school_name": "ESCUELA SECUNDARIA 53 SAN JULIAN",
            "country_name": "Argentina",
            "connectivity": false
        },
        {
            "lon": -65.02515458,
            "lat": -24.4469141,
            "school_name": "ESCUELA N 386 LATINOAMERICA",
            "country_name": "Argentina",
            "connectivity": false
        },
        {
            "lon": -65.36711055,
            "lat": -24.3884326,
            "school_name": "ESCUELA N 284 ARMADA NACIONAL",
            "country_name": "Argentina",
            "connectivity": false
        },
        {
            "lon": -64.30168289,
            "lat": -23.97095002,
            "school_name": "CENTRO DE CAPACITACION LABORAL",
            "country_name": "Argentina",
            "connectivity": false
        },
        {
            "lon": -67.50625654,
            "lat": -29.16162784,
            "school_name": "ESC.NORMAL SUPERIOR JOAQUIN V.GONZALEZ",
            "country_name": "Argentina",
            "connectivity": false
        },
        {
            "lon": -66.31650478,
            "lat": -31.21112136,
            "school_name": "J.I.N. N\u00b05 EXTENSION 03",
            "country_name": "Argentina",
            "connectivity": false
        },
        {
            "lon": -67.48999243,
            "lat": -34.95635921,
            "school_name": "DARDO ROCHA",
            "country_name": "Argentina",
            "connectivity": false
        },
        {
            "lon": -68.89648788,
            "lat": -32.85452002,
            "school_name": "CHAMPAGNAT",
            "country_name": "Argentina",
            "connectivity": false
        },
        {
            "lon": -68.81528924,
            "lat": -32.86141049,
            "school_name": "PRIMEROS PASITOS (U.V.UJEMVI)",
            "country_name": "Argentina",
            "connectivity": false
        },
        {
            "lon": -69.03170114,
            "lat": -33.55844402,
            "school_name": "ESCUELA N\u00ba 0-150",
            "country_name": "Argentina",
            "connectivity": false
        },
        {
            "lon": -65.7001551,
            "lat": -39.42177954,
            "school_name": "ESCUELA DE EDUCACION BASICA PARA ADULTOS NRO.23 AMIGA DEL ADULTO",
            "country_name": "Argentina",
            "connectivity": false
        },
        {
            "lon": -67.9968374,
            "lat": -38.93202589,
            "school_name": "CENTRO EDUCATIVO DE NIVEL SECUNDARIO NRO.12",
            "country_name": "Argentina",
            "connectivity": false
        },
        {
            "lon": -62.98054319,
            "lat": -40.82629745,
            "school_name": "CENTRO DE EDUCACION BASICA PARA ADULTOS NRO. 6",
            "country_name": "Argentina",
            "connectivity": false
        },
        {
            "lon": -67.82174171,
            "lat": -38.97787339,
            "school_name": "ESCUELA PRIMARIA NRO. 64 LISANDRO DE LA TORRE",
            "country_name": "Argentina",
            "connectivity": false
        },
        {
            "lon": -63.09379837,
            "lat": -23.37305977,
            "school_name": "ESCUELA N\u00b0 4467 EX N\u00b0 670",
            "country_name": "Argentina",
            "connectivity": false
        },
        {
            "lon": -60.41417458,
            "lat": -33.42957671,
            "school_name": "ESCUELA NRO 190 DOMINGO CULLEN",
            "country_name": "Argentina",
            "connectivity": false
        },
        {
            "lon": -60.72417591,
            "lat": -31.65995924,
            "school_name": "ESCUELA NRO 570 PASCUAL ECHAG\u00dcE",
            "country_name": "Argentina",
            "connectivity": false
        },
        {
            "lon": 5.988078,
            "lat": 5.524972,
            "school_name": "Name unknown",
            "country_name": "Nigeria",
            "connectivity": false
        },
        {
            "lon": 5.791595,
            "lat": 5.4173,
            "school_name": "Name unknown",
            "country_name": "Nigeria",
            "connectivity": false
        },
        {
            "lon": 7.43791,
            "lat": 5.159843,
            "school_name": "Name unknown",
            "country_name": "Nigeria",
            "connectivity": false
        },
        {
            "lon": 7.33524,
            "lat": 5.14231,
            "school_name": "Name unknown",
            "country_name": "Nigeria",
            "connectivity": false
        },
        {
            "lon": 8.097401,
            "lat": 6.339814,
            "school_name": "Name unknown",
            "country_name": "Nigeria",
            "connectivity": false
        },
        {
            "lon": 6.23663,
            "lat": 6.7136,
            "school_name": "Name unknown",
            "country_name": "Nigeria",
            "connectivity": false
        },
        {
            "lon": 5.601726,
            "lat": 6.349188,
            "school_name": "Name unknown",
            "country_name": "Nigeria",
            "connectivity": false
        },
        {
            "lon": 5.995992,
            "lat": 6.684129,
            "school_name": "Name unknown",
            "country_name": "Nigeria",
            "connectivity": false
        },
        {
            "lon": 5.306428333,
            "lat": 7.86248,
            "school_name": "Name unknown",
            "country_name": "Nigeria",
            "connectivity": false
        },
        {
            "lon": 11.195105,
            "lat": 10.27538,
            "school_name": "Name unknown",
            "country_name": "Nigeria",
            "connectivity": false
        },
        {
            "lon": 11.224856,
            "lat": 9.833073,
            "school_name": "Name unknown",
            "country_name": "Nigeria",
            "connectivity": false
        },
        {
            "lon": 11.36486667,
            "lat": 10.76363,
            "school_name": "Name unknown",
            "country_name": "Nigeria",
            "connectivity": false
        },
        {
            "lon": 11.15278,
            "lat": 10.28504,
            "school_name": "Name unknown",
            "country_name": "Nigeria",
            "connectivity": false
        },
        {
            "lon": 11.177997,
            "lat": 10.294185,
            "school_name": "Name unknown",
            "country_name": "Nigeria",
            "connectivity": false
        },
        {
            "lon": 11.25578,
            "lat": 9.792981,
            "school_name": "Name unknown",
            "country_name": "Nigeria",
            "connectivity": false
        },
        {
            "lon": 11.42591,
            "lat": 10.35799,
            "school_name": "Name unknown",
            "country_name": "Nigeria",
            "connectivity": false
        },
        {
            "lon": 7.171251704,
            "lat": 5.513844617,
            "school_name": "Name unknown",
            "country_name": "Nigeria",
            "connectivity": false
        },
        {
            "lon": 7.14527,
            "lat": 5.66012,
            "school_name": "Name unknown",
            "country_name": "Nigeria",
            "connectivity": false
        },
        {
            "lon": -77.1623,
            "lat": -6.0152,
            "school_name": "547",
            "country_name": "Peru",
            "connectivity": false
        },
        {
            "lon": -71.6066,
            "lat": -13.5771,
            "school_name": "1071",
            "country_name": "Peru",
            "connectivity": false
        },
        {
            "lon": -79.1027,
            "lat": -6.34015,
            "school_name": "10851",
            "country_name": "Peru",
            "connectivity": false
        },
        {
            "lon": -79.7815,
            "lat": -6.1888,
            "school_name": "11233 CIRO ALEGRIA",
            "country_name": "Peru",
            "connectivity": false
        },
        {
            "lon": -71.4226,
            "lat": -13.8628,
            "school_name": "1300",
            "country_name": "Peru",
            "connectivity": false
        },
        {
            "lon": -70.102,
            "lat": -15.5393,
            "school_name": "1358 VIRGEN DE FATIMA",
            "country_name": "Peru",
            "connectivity": false
        },
        {
            "lon": 1.155473333,
            "lat": 8.974291667,
            "school_name": "EPC EASAA G/C",
            "country_name": "Togo",
            "connectivity": false
        },
        {
            "lon": -78.8466,
            "lat": -5.74303,
            "school_name": "16036",
            "country_name": "Peru",
            "connectivity": false
        },
        {
            "lon": -73.977,
            "lat": -14.2798,
            "school_name": "163",
            "country_name": "Peru",
            "connectivity": false
        },
        {
            "lon": -78.7599,
            "lat": -6.91849,
            "school_name": "167",
            "country_name": "Peru",
            "connectivity": false
        },
        {
            "lon": -77.8191,
            "lat": -7.58065,
            "school_name": "1729",
            "country_name": "Peru",
            "connectivity": false
        },
        {
            "lon": -78.7248,
            "lat": -4.95293,
            "school_name": "17381",
            "country_name": "Peru",
            "connectivity": false
        },
        {
            "lon": -78.4939,
            "lat": -5.5942,
            "school_name": "17757",
            "country_name": "Peru",
            "connectivity": false
        },
        {
            "lon": -78.1493,
            "lat": -8.0314,
            "school_name": "1850",
            "country_name": "Peru",
            "connectivity": false
        },
        {
            "lon": -74.4181,
            "lat": -11.7353,
            "school_name": "2064",
            "country_name": "Peru",
            "connectivity": false
        },
        {
            "lon": -77.2459,
            "lat": -11.6032,
            "school_name": "20803 ROSA DE SANTA MARIA",
            "country_name": "Peru",
            "connectivity": false
        },
        {
            "lon": -75.2632,
            "lat": -13.4909,
            "school_name": "22630",
            "country_name": "Peru",
            "connectivity": false
        },
        {
            "lon": -77.339,
            "lat": -8.9062,
            "school_name": "229 FLOR COPA DE ORO",
            "country_name": "Peru",
            "connectivity": false
        },
        {
            "lon": -73.5757,
            "lat": -14.39,
            "school_name": "24399",
            "country_name": "Peru",
            "connectivity": false
        },
        {
            "lon": -71.9468,
            "lat": -13.9497,
            "school_name": "300",
            "country_name": "Peru",
            "connectivity": false
        },
        {
            "lon": -74.4368,
            "lat": -11.4525,
            "school_name": "30171",
            "country_name": "Peru",
            "connectivity": false
        },
        {
            "lon": -76.1642,
            "lat": -10.2099,
            "school_name": "32135",
            "country_name": "Peru",
            "connectivity": false
        },
        {
            "lon": -71.3302,
            "lat": -17.6455,
            "school_name": "ARCO IRIS",
            "country_name": "Peru",
            "connectivity": false
        },
        {
            "lon": -76.6232,
            "lat": -9.8672,
            "school_name": "32764",
            "country_name": "Peru",
            "connectivity": false
        },
        {
            "lon": -74.5006,
            "lat": -12.5122,
            "school_name": "329 LOS LEONCITOS",
            "country_name": "Peru",
            "connectivity": false
        },
        {
            "lon": -78.1492,
            "lat": -6.50301,
            "school_name": "405",
            "country_name": "Peru",
            "connectivity": false
        },
        {
            "lon": -72.2002,
            "lat": -16.3363,
            "school_name": "40594 JUAN VELASCO A.",
            "country_name": "Peru",
            "connectivity": false
        },
        {
            "lon": -77.7874,
            "lat": -9.78818,
            "school_name": "425",
            "country_name": "Peru",
            "connectivity": false
        },
        {
            "lon": -73.8297,
            "lat": -12.6206,
            "school_name": "425-62",
            "country_name": "Peru",
            "connectivity": false
        },
        {
            "lon": -74.509,
            "lat": -12.3724,
            "school_name": "429-104",
            "country_name": "Peru",
            "connectivity": false
        },
        {
            "lon": -71.1891,
            "lat": -16.6051,
            "school_name": "43065",
            "country_name": "Peru",
            "connectivity": false
        },
        {
            "lon": -73.2172,
            "lat": -4.30678,
            "school_name": "489",
            "country_name": "Peru",
            "connectivity": false
        },
        {
            "lon": -71.664,
            "lat": -13.8929,
            "school_name": "501356",
            "country_name": "Peru",
            "connectivity": false
        },
        {
            "lon": -71.8513,
            "lat": -14.1456,
            "school_name": "50408",
            "country_name": "Peru",
            "connectivity": false
        },
        {
            "lon": -71.6176,
            "lat": -14.6599,
            "school_name": "56605",
            "country_name": "Peru",
            "connectivity": false
        },
        {
            "lon": -73.3751,
            "lat": -3.76571,
            "school_name": "60112",
            "country_name": "Peru",
            "connectivity": false
        },
        {
            "lon": -71.9221,
            "lat": -2.35235,
            "school_name": "60353",
            "country_name": "Peru",
            "connectivity": false
        },
        {
            "lon": -76.588,
            "lat": -4.85587,
            "school_name": "62119",
            "country_name": "Peru",
            "connectivity": false
        },
        {
            "lon": -77.1741,
            "lat": -9.33956,
            "school_name": "640",
            "country_name": "Peru",
            "connectivity": false
        },
        {
            "lon": -73.7189,
            "lat": -8.9201,
            "school_name": "65034-B",
            "country_name": "Peru",
            "connectivity": false
        },
        {
            "lon": -72.9425,
            "lat": -3.4716,
            "school_name": "682",
            "country_name": "Peru",
            "connectivity": false
        },
        {
            "lon": -70.4296,
            "lat": -15.0507,
            "school_name": "70456",
            "country_name": "Peru",
            "connectivity": false
        },
        {
            "lon": -70.272,
            "lat": -15.4895,
            "school_name": "70588",
            "country_name": "Peru",
            "connectivity": false
        },
        {
            "lon": -70.7193,
            "lat": -14.7952,
            "school_name": "70841",
            "country_name": "Peru",
            "connectivity": false
        },
        {
            "lon": -70.4299,
            "lat": -14.0718,
            "school_name": "72164 SARA CHAVEZ",
            "country_name": "Peru",
            "connectivity": false
        },
        {
            "lon": -69.3558,
            "lat": -15.3729,
            "school_name": "72403",
            "country_name": "Peru",
            "connectivity": false
        },
        {
            "lon": -79.2739,
            "lat": -7.79286,
            "school_name": "80023",
            "country_name": "Peru",
            "connectivity": false
        },
        {
            "lon": -77.6759,
            "lat": -7.96751,
            "school_name": "80191",
            "country_name": "Peru",
            "connectivity": false
        },
        {
            "lon": -78.4185,
            "lat": -6.6925,
            "school_name": "82694",
            "country_name": "Peru",
            "connectivity": false
        },
        {
            "lon": -78.7418,
            "lat": -7.03639,
            "school_name": "82973",
            "country_name": "Peru",
            "connectivity": false
        },
        {
            "lon": -80.6021,
            "lat": -5.4806,
            "school_name": "DANIEL ALCIDES CARRION",
            "country_name": "Peru",
            "connectivity": false
        },
        {
            "lon": -78.1019,
            "lat": -8.80348,
            "school_name": "88087",
            "country_name": "Peru",
            "connectivity": false
        },
        {
            "lon": -77.9229,
            "lat": -9.221,
            "school_name": "88301",
            "country_name": "Peru",
            "connectivity": false
        },
        {
            "lon": -78.1405,
            "lat": -8.85585,
            "school_name": "88395",
            "country_name": "Peru",
            "connectivity": false
        },
        {
            "lon": -76.9843,
            "lat": -12.1595,
            "school_name": "DIVINO NI\u00d1O JESUS 1",
            "country_name": "Peru",
            "connectivity": false
        },
        {
            "lon": -80.0484,
            "lat": -4.93281,
            "school_name": "981",
            "country_name": "Peru",
            "connectivity": false
        },
        {
            "lon": -69.073,
            "lat": -13.9505,
            "school_name": "ALTO AZATA",
            "country_name": "Peru",
            "connectivity": false
        },
        {
            "lon": -77.048,
            "lat": -12.097,
            "school_name": "MONTEALTO",
            "country_name": "Peru",
            "connectivity": false
        },
        {
            "lon": -77.0832,
            "lat": -11.9328,
            "school_name": "CASA DE NI\u00d1OS ASUNCION DE MARIA",
            "country_name": "Peru",
            "connectivity": false
        },
        {
            "lon": -78.2659,
            "lat": -6.60388,
            "school_name": "CEBGPC VILLA LA COLPA",
            "country_name": "Peru",
            "connectivity": false
        },
        {
            "lon": -74.4881,
            "lat": -11.4282,
            "school_name": "CESAR'S",
            "country_name": "Peru",
            "connectivity": false
        },
        {
            "lon": -76.2641,
            "lat": -10.1357,
            "school_name": "CORAZON DE JESUS",
            "country_name": "Peru",
            "connectivity": false
        },
        {
            "lon": -76.9169,
            "lat": -12.237,
            "school_name": "CRISTO MILAGROSO",
            "country_name": "Peru",
            "connectivity": false
        },
        {
            "lon": -69.0663,
            "lat": -16.3837,
            "school_name": "CRUZ DEL SUR",
            "country_name": "Peru",
            "connectivity": false
        },
        {
            "lon": -76.6989,
            "lat": -11.9441,
            "school_name": "PLANTELES DE APLICACION DE UNE",
            "country_name": "Peru",
            "connectivity": false
        },
        {
            "lon": -77.7178,
            "lat": -10.7259,
            "school_name": "EL MIRADOR",
            "country_name": "Peru",
            "connectivity": false
        },
        {
            "lon": -79.0314,
            "lat": -8.12518,
            "school_name": "ESTRELLITAS",
            "country_name": "Peru",
            "connectivity": false
        },
        {
            "lon": -71.477,
            "lat": -16.4175,
            "school_name": "GOTITAS DE AMOR",
            "country_name": "Peru",
            "connectivity": false
        },
        {
            "lon": -79.0049,
            "lat": -8.10235,
            "school_name": "INMACULADA VIRGEN DE LA PUERTA",
            "country_name": "Peru",
            "connectivity": false
        },
        {
            "lon": -76.96,
            "lat": -12.179,
            "school_name": "JESUS DE NAZARET",
            "country_name": "Peru",
            "connectivity": false
        },
        {
            "lon": -73.1203,
            "lat": -13.6893,
            "school_name": "JOSE MARIA ARGUEDAS",
            "country_name": "Peru",
            "connectivity": false
        },
        {
            "lon": -71.3445,
            "lat": -17.6498,
            "school_name": "LA CIENTIFICA",
            "country_name": "Peru",
            "connectivity": false
        },
        {
            "lon": -77.6099,
            "lat": -11.1104,
            "school_name": "LICEO MODERNO",
            "country_name": "Peru",
            "connectivity": false
        },
        {
            "lon": -79.9977,
            "lat": -4.75254,
            "school_name": "LOS ANGELES",
            "country_name": "Peru",
            "connectivity": false
        },
        {
            "lon": -75.8131,
            "lat": -13.6938,
            "school_name": "LOS PIONEROS DE AUQUIX",
            "country_name": "Peru",
            "connectivity": false
        },
        {
            "lon": -70.6004,
            "lat": -15.4529,
            "school_name": "MANCO CAPAC",
            "country_name": "Peru",
            "connectivity": false
        },
        {
            "lon": -79.3529,
            "lat": -6.8494,
            "school_name": "MANUEL ASCENCIO SEGURA",
            "country_name": "Peru",
            "connectivity": false
        },
        {
            "lon": -73.1261,
            "lat": -3.88163,
            "school_name": "PAJARITO I - 5",
            "country_name": "Peru",
            "connectivity": false
        },
        {
            "lon": -71.5857,
            "lat": -16.3308,
            "school_name": "PAPA FRANCISCO",
            "country_name": "Peru",
            "connectivity": false
        },
        {
            "lon": -79.6629,
            "lat": -5.68156,
            "school_name": "RAYITOS DEL SABER",
            "country_name": "Peru",
            "connectivity": false
        },
        {
            "lon": -78.8491,
            "lat": -6.96468,
            "school_name": "RIO PAMPA",
            "country_name": "Peru",
            "connectivity": false
        },
        {
            "lon": -70.003,
            "lat": -15.0295,
            "school_name": "ROSARIO CENTRAL",
            "country_name": "Peru",
            "connectivity": false
        },
        {
            "lon": -77.0531,
            "lat": -11.9115,
            "school_name": "ROSARIO DE FATIMA",
            "country_name": "Peru",
            "connectivity": false
        },
        {
            "lon": -77.0734,
            "lat": -11.9259,
            "school_name": "SAN ANDRES",
            "country_name": "Peru",
            "connectivity": false
        },
        {
            "lon": -71.5635,
            "lat": -16.3663,
            "school_name": "SAN ISIDRO DE CAMPO VERDE",
            "country_name": "Peru",
            "connectivity": false
        },
        {
            "lon": -77.0694,
            "lat": -11.9797,
            "school_name": "SAN MARTIN DE PORRES DE LOS OLIVOS",
            "country_name": "Peru",
            "connectivity": false
        },
        {
            "lon": -78.1889,
            "lat": -7.23299,
            "school_name": "SAN PEDRO ILLUCA",
            "country_name": "Peru",
            "connectivity": false
        },
        {
            "lon": -79.5499,
            "lat": -4.78121,
            "school_name": "SAN VICENTE DE PAUL",
            "country_name": "Peru",
            "connectivity": false
        },
        {
            "lon": -77.0627,
            "lat": -12.0393,
            "school_name": "SANTA MARIA DE LIMA",
            "country_name": "Peru",
            "connectivity": false
        },
        {
            "lon": -72.3578,
            "lat": -13.7576,
            "school_name": "SANTA RITA",
            "country_name": "Peru",
            "connectivity": false
        },
        {
            "lon": -78.8589,
            "lat": -6.42759,
            "school_name": "SECTOR FLOR DEL SOL DE CACHACARA",
            "country_name": "Peru",
            "connectivity": false
        },
        {
            "lon": -77.1424,
            "lat": -6.1381,
            "school_name": "WILFREDO EZEQUIEL PONCE CHIRINOS",
            "country_name": "Peru",
            "connectivity": false
        },
        {
            "lon": 9.5194273,
            "lat": 12.7465525,
            "school_name": "Name unknown",
            "country_name": "Nigeria",
            "connectivity": false
        },
        {
            "lon": 9.9584217,
            "lat": 12.2421207,
            "school_name": "Name unknown",
            "country_name": "Nigeria",
            "connectivity": false
        },
        {
            "lon": 9.1837225,
            "lat": 12.7026091,
            "school_name": "Name unknown",
            "country_name": "Nigeria",
            "connectivity": false
        },
        {
            "lon": 7.5488894,
            "lat": 11.16032857,
            "school_name": "Name unknown",
            "country_name": "Nigeria",
            "connectivity": false
        },
        {
            "lon": 7.44318181,
            "lat": 10.57772658,
            "school_name": "Name unknown",
            "country_name": "Nigeria",
            "connectivity": false
        },
        {
            "lon": 7.86617956,
            "lat": 10.18912777,
            "school_name": "Name unknown",
            "country_name": "Nigeria",
            "connectivity": false
        },
        {
            "lon": 8.662392,
            "lat": 9.988321,
            "school_name": "Name unknown",
            "country_name": "Nigeria",
            "connectivity": false
        },
        {
            "lon": 8.012568355,
            "lat": 11.28114581,
            "school_name": "Name unknown",
            "country_name": "Nigeria",
            "connectivity": false
        },
        {
            "lon": 8.14948976,
            "lat": 9.742212297,
            "school_name": "Name unknown",
            "country_name": "Nigeria",
            "connectivity": false
        },
        {
            "lon": 8.480683,
            "lat": 11.99217,
            "school_name": "Name unknown",
            "country_name": "Nigeria",
            "connectivity": false
        },
        {
            "lon": 8.643208,
            "lat": 11.94974,
            "school_name": "Name unknown",
            "country_name": "Nigeria",
            "connectivity": false
        },
        {
            "lon": 12.90626845,
            "lat": 9.25087954,
            "school_name": "Name unknown",
            "country_name": "Nigeria",
            "connectivity": false
        },
        {
            "lon": 8.535894,
            "lat": 11.86773,
            "school_name": "Name unknown",
            "country_name": "Nigeria",
            "connectivity": false
        },
        {
            "lon": 8.386578,
            "lat": 11.56525,
            "school_name": "Name unknown",
            "country_name": "Nigeria",
            "connectivity": false
        },
        {
            "lon": 7.783272,
            "lat": 11.59134,
            "school_name": "Name unknown",
            "country_name": "Nigeria",
            "connectivity": false
        },
        {
            "lon": 12.208695,
            "lat": 9.240068,
            "school_name": "Name unknown",
            "country_name": "Nigeria",
            "connectivity": false
        },
        {
            "lon": 13.250617,
            "lat": 10.266616,
            "school_name": "Name unknown",
            "country_name": "Nigeria",
            "connectivity": false
        },
        {
            "lon": 6.878082,
            "lat": 7.292587,
            "school_name": "Name unknown",
            "country_name": "Nigeria",
            "connectivity": false
        },
        {
            "lon": 6.204217,
            "lat": 7.605061,
            "school_name": "Name unknown",
            "country_name": "Nigeria",
            "connectivity": false
        },
        {
            "lon": 4.747857,
            "lat": 8.332265,
            "school_name": "Name unknown",
            "country_name": "Nigeria",
            "connectivity": false
        },
        {
            "lon": 3.332079,
            "lat": 6.465597,
            "school_name": "Name unknown",
            "country_name": "Nigeria",
            "connectivity": false
        },
        {
            "lon": 3.28893,
            "lat": 6.60962,
            "school_name": "Name unknown",
            "country_name": "Nigeria",
            "connectivity": false
        },
        {
            "lon": 3.36529,
            "lat": 6.41809,
            "school_name": "Name unknown",
            "country_name": "Nigeria",
            "connectivity": false
        },
        {
            "lon": 3.351882,
            "lat": 6.475398,
            "school_name": "Name unknown",
            "country_name": "Nigeria",
            "connectivity": false
        },
        {
            "lon": 3.342092,
            "lat": 6.476061,
            "school_name": "Name unknown",
            "country_name": "Nigeria",
            "connectivity": false
        },
        {
            "lon": 4.085553,
            "lat": 6.655352,
            "school_name": "Name unknown",
            "country_name": "Nigeria",
            "connectivity": false
        },
        {
            "lon": 3.44602,
            "lat": 6.4605,
            "school_name": "Name unknown",
            "country_name": "Nigeria",
            "connectivity": false
        },
        {
            "lon": 3.45559,
            "lat": 6.4458,
            "school_name": "Name unknown",
            "country_name": "Nigeria",
            "connectivity": false
        },
        {
            "lon": 3.395734239,
            "lat": 6.455854972,
            "school_name": "Name unknown",
            "country_name": "Nigeria",
            "connectivity": false
        },
        {
            "lon": 7.879887,
            "lat": 8.855574,
            "school_name": "Name unknown",
            "country_name": "Nigeria",
            "connectivity": false
        },
        {
            "lon": 6.25308,
            "lat": 9.53594,
            "school_name": "Name unknown",
            "country_name": "Nigeria",
            "connectivity": false
        },
        {
            "lon": 6.44953,
            "lat": 9.334546667,
            "school_name": "Name unknown",
            "country_name": "Nigeria",
            "connectivity": false
        },
        {
            "lon": 4.631249582,
            "lat": 9.858969045,
            "school_name": "Name unknown",
            "country_name": "Nigeria",
            "connectivity": false
        },
        {
            "lon": 4.890975952,
            "lat": 9.231010079,
            "school_name": "Name unknown",
            "country_name": "Nigeria",
            "connectivity": false
        },
        {
            "lon": 6.57693,
            "lat": 10.10969,
            "school_name": "Name unknown",
            "country_name": "Nigeria",
            "connectivity": false
        },
        {
            "lon": 3.198174993,
            "lat": 6.844575675,
            "school_name": "Name unknown",
            "country_name": "Nigeria",
            "connectivity": false
        },
        {
            "lon": 3.303881151,
            "lat": 6.728677463,
            "school_name": "Name unknown",
            "country_name": "Nigeria",
            "connectivity": false
        },
        {
            "lon": 4.22509977,
            "lat": 6.75660516,
            "school_name": "Name unknown",
            "country_name": "Nigeria",
            "connectivity": false
        },
        {
            "lon": 4.01403991,
            "lat": 6.95351105,
            "school_name": "Name unknown",
            "country_name": "Nigeria",
            "connectivity": false
        },
        {
            "lon": 2.874215,
            "lat": 6.544061667,
            "school_name": "Name unknown",
            "country_name": "Nigeria",
            "connectivity": false
        },
        {
            "lon": 5.805095,
            "lat": 7.46766,
            "school_name": "Name unknown",
            "country_name": "Nigeria",
            "connectivity": false
        },
        {
            "lon": 5.223548,
            "lat": 7.283934,
            "school_name": "Name unknown",
            "country_name": "Nigeria",
            "connectivity": false
        },
        {
            "lon": 4.870677,
            "lat": 6.018083,
            "school_name": "Name unknown",
            "country_name": "Nigeria",
            "connectivity": false
        },
        {
            "lon": 7.803128,
            "lat": 4.993621,
            "school_name": "Name unknown",
            "country_name": "Nigeria",
            "connectivity": false
        },
        {
            "lon": 4.735701,
            "lat": 7.82359,
            "school_name": "Name unknown",
            "country_name": "Nigeria",
            "connectivity": false
        },
        {
            "lon": 4.881809,
            "lat": 7.679822,
            "school_name": "Name unknown",
            "country_name": "Nigeria",
            "connectivity": false
        },
        {
            "lon": 7.858143,
            "lat": 4.789254,
            "school_name": "Name unknown",
            "country_name": "Nigeria",
            "connectivity": false
        },
        {
            "lon": 7.554715,
            "lat": 4.99607,
            "school_name": "Name unknown",
            "country_name": "Nigeria",
            "connectivity": false
        },
        {
            "lon": 7.570805,
            "lat": 4.872778,
            "school_name": "Name unknown",
            "country_name": "Nigeria",
            "connectivity": false
        },
        {
            "lon": 7.978450577,
            "lat": 5.026424693,
            "school_name": "Name unknown",
            "country_name": "Nigeria",
            "connectivity": false
        },
        {
            "lon": 3.990656,
            "lat": 7.672848,
            "school_name": "Name unknown",
            "country_name": "Nigeria",
            "connectivity": false
        },
        {
            "lon": 3.426565,
            "lat": 7.545214,
            "school_name": "Name unknown",
            "country_name": "Nigeria",
            "connectivity": false
        },
        {
            "lon": 3.718684,
            "lat": 7.478096,
            "school_name": "Name unknown",
            "country_name": "Nigeria",
            "connectivity": false
        },
        {
            "lon": 3.344594,
            "lat": 8.048051,
            "school_name": "Name unknown",
            "country_name": "Nigeria",
            "connectivity": false
        },
        {
            "lon": 3.75085,
            "lat": 8.8505,
            "school_name": "Name unknown",
            "country_name": "Nigeria",
            "connectivity": false
        },
        {
            "lon": 8.91982,
            "lat": 10.01094,
            "school_name": "Name unknown",
            "country_name": "Nigeria",
            "connectivity": false
        },
        {
            "lon": 9.095325,
            "lat": 9.521907,
            "school_name": "Name unknown",
            "country_name": "Nigeria",
            "connectivity": false
        },
        {
            "lon": 9.27501,
            "lat": 9.501417,
            "school_name": "Name unknown",
            "country_name": "Nigeria",
            "connectivity": false
        },
        {
            "lon": 9.66667,
            "lat": 8.7914,
            "school_name": "Name unknown",
            "country_name": "Nigeria",
            "connectivity": false
        },
        {
            "lon": 7.153378,
            "lat": 4.747378,
            "school_name": "Name unknown",
            "country_name": "Nigeria",
            "connectivity": false
        },
        {
            "lon": 10.27098,
            "lat": 7.240363,
            "school_name": "Name unknown",
            "country_name": "Nigeria",
            "connectivity": false
        },
        {
            "lon": 11.20070167,
            "lat": 6.587808333,
            "school_name": "Name unknown",
            "country_name": "Nigeria",
            "connectivity": false
        },
        {
            "lon": 11.4195594,
            "lat": 6.5789402,
            "school_name": "Name unknown",
            "country_name": "Nigeria",
            "connectivity": false
        },
        {
            "lon": 11.31959,
            "lat": 6.927557,
            "school_name": "Name unknown",
            "country_name": "Nigeria",
            "connectivity": false
        },
        {
            "lon": 6.822498,
            "lat": 6.021525,
            "school_name": "Name unknown",
            "country_name": "Nigeria",
            "connectivity": false
        },
        {
            "lon": 7.011133,
            "lat": 6.219886,
            "school_name": "Name unknown",
            "country_name": "Nigeria",
            "connectivity": false
        },
        {
            "lon": 7.61429127,
            "lat": 11.3011676,
            "school_name": "Name unknown",
            "country_name": "Nigeria",
            "connectivity": false
        },
        {
            "lon": 7.03383507,
            "lat": 11.7152345,
            "school_name": "Name unknown",
            "country_name": "Nigeria",
            "connectivity": false
        },
        {
            "lon": 8.014975434,
            "lat": 12.44116588,
            "school_name": "Name unknown",
            "country_name": "Nigeria",
            "connectivity": false
        },
        {
            "lon": 8.4192204,
            "lat": 12.96144854,
            "school_name": "Name unknown",
            "country_name": "Nigeria",
            "connectivity": false
        },
        {
            "lon": 8.56738,
            "lat": 13.01698,
            "school_name": "Name unknown",
            "country_name": "Nigeria",
            "connectivity": false
        },
        {
            "lon": 10.16414765,
            "lat": 11.38234583,
            "school_name": "Name unknown",
            "country_name": "Nigeria",
            "connectivity": false
        },
        {
            "lon": 10.48216403,
            "lat": 11.68152452,
            "school_name": "Name unknown",
            "country_name": "Nigeria",
            "connectivity": false
        },
        {
            "lon": 9.248905,
            "lat": 9.848404,
            "school_name": "Name unknown",
            "country_name": "Nigeria",
            "connectivity": false
        },
        {
            "lon": 5.80882821,
            "lat": 11.31185603,
            "school_name": "Name unknown",
            "country_name": "Nigeria",
            "connectivity": false
        },
        {
            "lon": 5.265296164,
            "lat": 12.93791145,
            "school_name": "Name unknown",
            "country_name": "Nigeria",
            "connectivity": false
        },
        {
            "lon": 5.450663259,
            "lat": 12.59625923,
            "school_name": "Name unknown",
            "country_name": "Nigeria",
            "connectivity": false
        },
        {
            "lon": 8.6117,
            "lat": 7.36548,
            "school_name": "Name unknown",
            "country_name": "Nigeria",
            "connectivity": false
        },
        {
            "lon": 6.103516817,
            "lat": 11.71994448,
            "school_name": "Name unknown",
            "country_name": "Nigeria",
            "connectivity": false
        },
        {
            "lon": 6.39626,
            "lat": 13.10344,
            "school_name": "Name unknown",
            "country_name": "Nigeria",
            "connectivity": false
        },
        {
            "lon": 8.5135467,
            "lat": 4.94114,
            "school_name": "Name unknown",
            "country_name": "Nigeria",
            "connectivity": false
        },
        {
            "lon": 8.5510683,
            "lat": 4.852825,
            "school_name": "Name unknown",
            "country_name": "Nigeria",
            "connectivity": false
        },
        {
            "lon": 8.79176,
            "lat": 6.46861,
            "school_name": "Name unknown",
            "country_name": "Nigeria",
            "connectivity": false
        },
        {
            "lon": 8.657496667,
            "lat": 6.509985,
            "school_name": "Name unknown",
            "country_name": "Nigeria",
            "connectivity": false
        },
        {
            "lon": 27.8948,
            "lat": -26.30342,
            "school_name": "Delrado Primary School",
            "country_name": "South Africa",
            "connectivity": false
        },
        {
            "lon": 28.25461,
            "lat": -26.11559,
            "school_name": "Bonaero Park Primary School",
            "country_name": "South Africa",
            "connectivity": false
        },
        {
            "lon": 29.79126,
            "lat": -30.89697,
            "school_name": "Enyanisweni Junior Secondary School",
            "country_name": "South Africa",
            "connectivity": false
        },
        {
            "lon": -58.73669923,
            "lat": -28.11344743,
            "school_name": "ESCUELA N\u00ba 817",
            "country_name": "Argentina",
            "connectivity": false
        },
        {
            "lon": -64.59417,
            "lat": -23.7453,
            "school_name": "CENTRO EDUCATIVO DE TERMINALIDAD PRIMARIA N 102",
            "country_name": "Argentina",
            "connectivity": false
        },
        {
            "lon": -79.9395,
            "lat": -4.46248,
            "school_name": "956",
            "country_name": "Peru",
            "connectivity": false
        },
        {
            "lon": -76.7554,
            "lat": -12.0722,
            "school_name": "ESTRELLITAS",
            "country_name": "Peru",
            "connectivity": false
        },
        {
            "lon": -76.7624,
            "lat": -12.0765,
            "school_name": "ESTRELLITAS DE DIOS II",
            "country_name": "Peru",
            "connectivity": false
        },
        {
            "lon": 5.359464,
            "lat": 7.800344,
            "school_name": "Name unknown",
            "country_name": "Nigeria",
            "connectivity": false
        },
        {
            "lon": 7.120875,
            "lat": 5.481349,
            "school_name": "Name unknown",
            "country_name": "Nigeria",
            "connectivity": false
        },
        {
            "lon": 8.485285,
            "lat": 10.49277,
            "school_name": "Name unknown",
            "country_name": "Nigeria",
            "connectivity": false
        },
        {
            "lon": 3.85092,
            "lat": 7.633695,
            "school_name": "Name unknown",
            "country_name": "Nigeria",
            "connectivity": false
        },
        {
            "lon": 3.885369,
            "lat": 7.353982,
            "school_name": "Name unknown",
            "country_name": "Nigeria",
            "connectivity": false
        },
        {
            "lon": 4.493356,
            "lat": 8.057913,
            "school_name": "Name unknown",
            "country_name": "Nigeria",
            "connectivity": false
        },
        {
            "lon": 7.456707,
            "lat": 4.836121,
            "school_name": "Name unknown",
            "country_name": "Nigeria",
            "connectivity": false
        },
        {
            "lon": 7.129242,
            "lat": 6.329418,
            "school_name": "Name unknown",
            "country_name": "Nigeria",
            "connectivity": false
        },
        {
            "lon": 7.22609282,
            "lat": 11.59818305,
            "school_name": "Name unknown",
            "country_name": "Nigeria",
            "connectivity": false
        },
        {
            "lon": 67.298461,
            "lat": 37.684749,
            "school_name": "6 -  sonli umumta\u2018lim maktabi",
            "country_name": "Uzbekistan",
            "connectivity": false
        },
        {
            "lon": 67.29005,
            "lat": 37.67665,
            "school_name": "25 -  sonli umumta\u2018lim maktabi",
            "country_name": "Uzbekistan",
            "connectivity": false
        },
        {
            "lon": 66.6154476,
            "lat": 38.98512258,
            "school_name": "10 -  sonli umumta\u2018lim maktabi",
            "country_name": "Uzbekistan",
            "connectivity": false
        },
        {
            "lon": 60.51223,
            "lat": 41.49624,
            "school_name": "7 -  sonli umumta\u2018lim maktabi",
            "country_name": "Uzbekistan",
            "connectivity": false
        },
        {
            "lon": 60.15615,
            "lat": 41.69883,
            "school_name": "17 -  sonli umumta\u2018lim maktabi",
            "country_name": "Uzbekistan",
            "connectivity": false
        },
        {
            "lon": -94.001593,
            "lat": 16.466406,
            "school_name": "ESCUELA SECUNDARIA TECNICA 61",
            "country_name": "Mexico",
            "connectivity": false
        },
        {
            "lon": 63.79409,
            "lat": 39.39817,
            "school_name": "34 -  sonli umumta\u2018lim maktabi",
            "country_name": "Uzbekistan",
            "connectivity": false
        },
        {
            "lon": 72.3437,
            "lat": 40.769256,
            "school_name": "14 -  sonli umumta\u2018lim maktabi",
            "country_name": "Uzbekistan",
            "connectivity": false
        },
        {
            "lon": -100.98495,
            "lat": 20.19609,
            "school_name": "TELESECUNDARIA NUM. 658",
            "country_name": "Mexico",
            "connectivity": false
        },
        {
            "lon": -101.74583,
            "lat": 21.025058,
            "school_name": "TELESECUNDARIA NUM. 1129",
            "country_name": "Mexico",
            "connectivity": false
        },
        {
            "lon": -110.872222,
            "lat": 30.773056,
            "school_name": "TELESECUNDARIA 366",
            "country_name": "Mexico",
            "connectivity": false
        },
        {
            "lon": -111.00644,
            "lat": 29.120982,
            "school_name": "INSTITUTO GLOBAL COGNOS",
            "country_name": "Mexico",
            "connectivity": false
        },
        {
            "lon": 68.5472,
            "lat": 24.8056,
            "school_name": "GBLSS - SUKHIO MAHERI",
            "country_name": "Pakistan",
            "connectivity": false
        },
        {
            "lon": 68.5258,
            "lat": 24.6197,
            "school_name": "GBPS - CHAK NO. 1",
            "country_name": "Pakistan",
            "connectivity": false
        },
        {
            "lon": 68.6017,
            "lat": 24.6489,
            "school_name": "GBPS - SONO KHAN CHANDIO",
            "country_name": "Pakistan",
            "connectivity": false
        },
        {
            "lon": 68.9444,
            "lat": 25.2725,
            "school_name": "GBPS - CHOUDHRY ABDUL SATTAR",
            "country_name": "Pakistan",
            "connectivity": false
        },
        {
            "lon": 69.1106,
            "lat": 24.975,
            "school_name": "GBLSS - ABDULLAH JARWAR",
            "country_name": "Pakistan",
            "connectivity": false
        },
        {
            "lon": 68.9969,
            "lat": 24.9217,
            "school_name": "GBPS - MISSIRI GURGEZ",
            "country_name": "Pakistan",
            "connectivity": false
        },
        {
            "lon": 68.9411,
            "lat": 24.7233,
            "school_name": "GGPS - HAJI TALIB JUNEJO",
            "country_name": "Pakistan",
            "connectivity": false
        },
        {
            "lon": 67.3483,
            "lat": 26.7018,
            "school_name": "GBPS - SHER MUHAMMAD RUSTMANI",
            "country_name": "Pakistan",
            "connectivity": false
        },
        {
            "lon": 67.73,
            "lat": 27.0016,
            "school_name": "GBPS - MIR KHAN N",
            "country_name": "Pakistan",
            "connectivity": false
        },
        {
            "lon": 67.8827,
            "lat": 27.0404,
            "school_name": "GBPS - NIZAM ABAD",
            "country_name": "Pakistan",
            "connectivity": false
        },