{
    "name": "Patchwork Kingdom #547 | Veltilla",
    "description": "The twin kingdoms of Veltilla, separated by a digital divide. A bustling kingdom of 123 schools on top that are all connected to the internet, and 97 schools, not connected, hidden in the upside down kingdom | Created for Giga (GigaConnect.org) \u2014 connecting every school in the world \u2014 in celebration of UNICEF's 75th birthday, by Nadieh Bremer",
    "external_url": "https://dummyURL.com/patchwork_kingdoms_547",
    "image": "https://dummy-storage-url.com/patchwork_kingdoms_547.png",
    "attributes": [
        {
            "trait_type": "Color palette",
            "value": "crystal palace"
        },
        {
            "display_type": "number",
            "trait_type": "Schools",
            "value": 243,
            "max_value": 460
        },
        {
            "display_type": "number",
            "trait_type": "Ratio - Connected",
            "value": 0.51,
            "max_value": 1
        },
        {
            "display_type": "number",
            "trait_type": "Ratio - Unconnected",
            "value": 0.4,
            "max_value": 1
        },
        {
            "display_type": "number",
            "trait_type": "Ratio - Data unavailable",
            "value": 0.09,
            "max_value": 1
        },
        {
            "trait_type": "Countries",
            "value": "BJ-BR-CO-CR-HN-KG-KZ-NA-PH-PS-RW-SL-ZW"
        },
        {
            "display_type": "number",
            "trait_type": "Symbols",
            "value": 41,
            "max_value": 51
        }
    ],
    "cluster_id": 547,
    "num_schools": 243,
    "num_schools_connected": 123,
    "num_schools_unconnected": 97,
    "num_schools_unknown": 23,
    "schools": [
        {
            "lon": 2.00453,
            "lat": 7.06486,
            "school_name": "Name unknown",
            "country_name": "Benin",
            "connectivity": true
        },
        {
            "lon": -88.80581,
            "lat": 14.17432,
            "school_name": "FERNANDO LOPEZ",
            "country_name": "Honduras",
            "connectivity": true
        },
        {
            "lon": -88.36463,
            "lat": 14.66281,
            "school_name": "JUAN ORLANDO HERNANDEZ",
            "country_name": "Honduras",
            "connectivity": true
        },
        {
            "lon": -86.9061,
            "lat": 13.37816,
            "school_name": "NORA GUNERA DE MELGAR",
            "country_name": "Honduras",
            "connectivity": true
        },
        {
            "lon": -44.0836,
            "lat": -19.5576,
            "school_name": "EE BENTO GONCALVES",
            "country_name": "Brazil",
            "connectivity": true
        },
        {
            "lon": -86.87529,
            "lat": 15.13212,
            "school_name": "DIONISIO ANDRADE",
            "country_name": "Honduras",
            "connectivity": true
        },
        {
            "lon": -48.9863,
            "lat": -26.4712,
            "school_name": "CEI MAURITA MARIA ROSA",
            "country_name": "Brazil",
            "connectivity": true
        },
        {
            "lon": -48.2555,
            "lat": -15.9379,
            "school_name": "CMEI SONHO DE CRIANCA",
            "country_name": "Brazil",
            "connectivity": true
        },
        {
            "lon": -87.81766,
            "lat": 14.60429,
            "school_name": "ENMA ROMERO DE CALLEJAS",
            "country_name": "Honduras",
            "connectivity": true
        },
        {
            "lon": -88.94106,
            "lat": 14.89867,
            "school_name": "FRATERNIDAD",
            "country_name": "Honduras",
            "connectivity": true
        },
        {
            "lon": -47.9507,
            "lat": -15.6179,
            "school_name": "CED PROF CARLOS RAMOS MOTA",
            "country_name": "Brazil",
            "connectivity": true
        },
        {
            "lon": -86.55269,
            "lat": 13.87928,
            "school_name": "MANUEL ZELAYA ROSALES",
            "country_name": "Honduras",
            "connectivity": true
        },
        {
            "lon": -87.18066,
            "lat": 14.37433,
            "school_name": "ESCUELA RURAL SAN ANTONIO DE PASTOS",
            "country_name": "Honduras",
            "connectivity": true
        },
        {
            "lon": 32.71523,
            "lat": -20.45011,
            "school_name": "DIMIRE  VALLEY PRIMARY",
            "country_name": "Zimbabwe",
            "connectivity": true
        },
        {
            "lon": -46.3222,
            "lat": -23.4325,
            "school_name": "ROBERTO MARINHO JORNALISTA EM",
            "country_name": "Brazil",
            "connectivity": true
        },
        {
            "lon": 29.85747222,
            "lat": -1.960861111,
            "school_name": "EP NYAKABUYE",
            "country_name": "Rwanda",
            "connectivity": false
        },
        {
            "lon": 30.0558055,
            "lat": -1.9407222,
            "school_name": "APACOPE",
            "country_name": "Rwanda",
            "connectivity": true
        },
        {
            "lon": 29.4847777,
            "lat": -1.6289444,
            "school_name": "CYAMABUYE",
            "country_name": "Rwanda",
            "connectivity": false
        },
        {
            "lon": -84.03617938,
            "lat": 9.96128226,
            "school_name": "ESC. JUAN FLORES UMANA",
            "country_name": "Costa Rica",
            "connectivity": true
        },
        {
            "lon": -85.15507937,
            "lat": 10.18944677,
            "school_name": "SAN BUENAVENTURA",
            "country_name": "Costa Rica",
            "connectivity": true
        },
        {
            "lon": 35.19412,
            "lat": 31.905171,
            "school_name": "hawary basic",
            "country_name": "Palestine",
            "connectivity": true
        },
        {
            "lon": 35.205561,
            "lat": 31.883647,
            "school_name": "alkhateeb basic",
            "country_name": "Palestine",
            "connectivity": true
        },
        {
            "lon": 35.261165,
            "lat": 31.757902,
            "school_name": "Abo dees basic boys higher",
            "country_name": "Palestine",
            "connectivity": true
        },
        {
            "lon": -84.74107125,
            "lat": 10.68522459,
            "school_name": "SAN LUIS",
            "country_name": "Costa Rica",
            "connectivity": true
        },
        {
            "lon": 31.0555,
            "lat": -19.01066,
            "school_name": "SIMUKAI",
            "country_name": "Zimbabwe",
            "connectivity": true
        },
        {
            "lon": 27.58632,
            "lat": -19.59309,
            "school_name": "JOWA",
            "country_name": "Zimbabwe",
            "connectivity": true
        },
        {
            "lon": -49.5787,
            "lat": -14.7654,
            "school_name": "COLEGIO ESTADUAL PILAR DE GOIAS",
            "country_name": "Brazil",
            "connectivity": true
        },
        {
            "lon": -43.7142,
            "lat": -22.7508,
            "school_name": "CE ALVARINA DE CARVALHO JANOTTI",
            "country_name": "Brazil",
            "connectivity": true
        },
        {
            "lon": -53.9994,
            "lat": -28.5141,
            "school_name": "COL ESTADUAL JOSE LANGE",
            "country_name": "Brazil",
            "connectivity": true
        },
        {
            "lon": -45.252,
            "lat": -18.2176,
            "school_name": "EE PRESIDENTE JUSCELINO KUBITSCHEK DE OLIVEIRA",
            "country_name": "Brazil",
            "connectivity": true
        },
        {
            "lon": -74.11669708,
            "lat": 4.717008645,
            "school_name": "Name unknown",
            "country_name": "Colombia",
            "connectivity": false
        },
        {
            "lon": 15.379444,
            "lat": -21.358056,
            "school_name": "W.Borchard PS",
            "country_name": "Namibia",
            "connectivity": false
        },
        {
            "lon": 18.49,
            "lat": -22.422778,
            "school_name": "Nossob CS",
            "country_name": "Namibia",
            "connectivity": false
        },
        {
            "lon": 120.962095,
            "lat": 14.390429,
            "school_name": "Pasong Buaya III ES",
            "country_name": "Philippines",
            "connectivity": true
        },
        {
            "lon": 121.2184113,
            "lat": 14.0469655,
            "school_name": "San Ildefonso ES",
            "country_name": "Philippines",
            "connectivity": true
        },
        {
            "lon": 121.89743,
            "lat": 13.407905,
            "school_name": "Mainit ES",
            "country_name": "Philippines",
            "connectivity": true
        },
        {
            "lon": 121.232292,
            "lat": 13.258049,
            "school_name": "Petra Garis MES",
            "country_name": "Philippines",
            "connectivity": true
        },
        {
            "lon": 124.493923,
            "lat": 12.106466,
            "school_name": "Bante Elementary School",
            "country_name": "Philippines",
            "connectivity": true
        },
        {
            "lon": 124.981284,
            "lat": 11.246461,
            "school_name": "Bayanihan ES",
            "country_name": "Philippines",
            "connectivity": true
        },
        {
            "lon": 124.382877,
            "lat": 11.693726,
            "school_name": "Bulalacao ES",
            "country_name": "Philippines",
            "connectivity": true
        },
        {
            "lon": 124.9008015,
            "lat": 11.06111754,
            "school_name": "Canlingga Elementary School",
            "country_name": "Philippines",
            "connectivity": true
        },
        {
            "lon": 124.9358009,
            "lat": 10.94742532,
            "school_name": "Pusod ES",
            "country_name": "Philippines",
            "connectivity": true
        },
        {
            "lon": 125.4188889,
            "lat": 11.81888889,
            "school_name": "San Juan ES",
            "country_name": "Philippines",
            "connectivity": true
        },
        {
            "lon": 121.883636,
            "lat": 6.536997,
            "school_name": "Camanggaan ES",
            "country_name": "Philippines",
            "connectivity": true
        },
        {
            "lon": 124.3833056,
            "lat": 7.883555556,
            "school_name": "Salaman Central Elementary School",
            "country_name": "Philippines",
            "connectivity": true
        },
        {
            "lon": -43.97174,
            "lat": -19.831806,
            "school_name": "ESCOLA MUNICIPAL PROFESSOR AMILCAR MARTINS",
            "country_name": "Brazil",
            "connectivity": true
        },
        {
            "lon": -43.31854,
            "lat": -15.804779,
            "school_name": "C MUN DE EDUC INF MAE GARIDA",
            "country_name": "Brazil",
            "connectivity": false
        },
        {
            "lon": -86.56361,
            "lat": 15.48655,
            "school_name": "HECTOR DANILO MOYA",
            "country_name": "Honduras",
            "connectivity": true
        },
        {
            "lon": -73.13095624,
            "lat": 7.121493229,
            "school_name": "IE.TECNOLG.SALESIANO ELOY VALENZUELA",
            "country_name": "Colombia",
            "connectivity": true
        },
        {
            "lon": -73.10261417,
            "lat": 7.677340931,
            "school_name": "CENT EDUC RUR EL SILENCIO",
            "country_name": "Colombia",
            "connectivity": true
        },
        {
            "lon": -73.06888889,
            "lat": 6.580833333,
            "school_name": "ESCUELA RURAL ZAMORANO",
            "country_name": "Colombia",
            "connectivity": true
        },
        {
            "lon": -73.37723757,
            "lat": 7.57756238,
            "school_name": "SEDE LA CIENAGA",
            "country_name": "Colombia",
            "connectivity": true
        },
        {
            "lon": -73.681111,
            "lat": 7.253333,
            "school_name": "ESCUELA RURAL  PATURIA",
            "country_name": "Colombia",
            "connectivity": true
        },
        {
            "lon": -73.72323352,
            "lat": 5.862625122,
            "school_name": "ESCUELA RURAL CULEBRILLA",
            "country_name": "Colombia",
            "connectivity": true
        },
        {
            "lon": -74.84584814,
            "lat": 10.76983965,
            "school_name": "INSTITUCION EDUCATIVA SAN PABLO DE POLONUEVO",
            "country_name": "Colombia",
            "connectivity": true
        },
        {
            "lon": -75.30267449,
            "lat": 2.537115885,
            "school_name": "LAGUNILLAS",
            "country_name": "Colombia",
            "connectivity": true
        },
        {
            "lon": -75.90834105,
            "lat": 5.298596393,
            "school_name": "SE BAJO HUMACAS",
            "country_name": "Colombia",
            "connectivity": true
        },
        {
            "lon": -76.00880722,
            "lat": 9.069697797,
            "school_name": "PUEBLO NUEVO",
            "country_name": "Colombia",
            "connectivity": true
        },
        {
            "lon": -76.14849152,
            "lat": 4.383107696,
            "school_name": "MIGUEL ANTONIO CARO",
            "country_name": "Colombia",
            "connectivity": true
        },
        {
            "lon": -76.28813932,
            "lat": 1.836093267,
            "school_name": "ALTO NARANJOS",
            "country_name": "Colombia",
            "connectivity": true
        },
        {
            "lon": -76.274161,
            "lat": 3.273647,
            "school_name": "SAN ANDRES",
            "country_name": "Colombia",
            "connectivity": true
        },
        {
            "lon": -76.497778,
            "lat": 7.8825,
            "school_name": "C.E.R. MULATOS CABECERA",
            "country_name": "Colombia",
            "connectivity": true
        },
        {
            "lon": -76.68137471,
            "lat": 3.013416286,
            "school_name": "CATOTO",
            "country_name": "Colombia",
            "connectivity": true
        },
        {
            "lon": -77.60599595,
            "lat": 1.345683463,
            "school_name": "CENTRO EDUCATIVO LA LAGUNA",
            "country_name": "Colombia",
            "connectivity": true
        },
        {
            "lon": -77.75277778,
            "lat": 0.84866666,
            "school_name": "CENTRO EDUCATIVO EL CARCHI",
            "country_name": "Colombia",
            "connectivity": true
        },
        {
            "lon": -77.88696477,
            "lat": 2.575559811,
            "school_name": "ANEXA NUEVA LA PROVIDENCIA",
            "country_name": "Colombia",
            "connectivity": true
        },
        {
            "lon": -63.0281,
            "lat": -9.9344,
            "school_name": "COLEGIO TIRADENTES DA POLICIA MILITAR - CTPM III",
            "country_name": "Brazil",
            "connectivity": true
        },
        {
            "lon": -67.8433,
            "lat": -9.9799,
            "school_name": "ESC FRANCISCO AUGUSTO BACURAU",
            "country_name": "Brazil",
            "connectivity": true
        },
        {
            "lon": -67.3663,
            "lat": -10.3185,
            "school_name": "ESC DOMINGOS GALDINO DA SILVA",
            "country_name": "Brazil",
            "connectivity": true
        },
        {
            "lon": -60.1095,
            "lat": -2.9249,
            "school_name": "EM PROFESSORA PAULA ALIOMAR RIBEIRO BELTRAO",
            "country_name": "Brazil",
            "connectivity": true
        },
        {
            "lon": -69.3856,
            "lat": -3.5868,
            "school_name": "ESC EST INDIGENA GENESIO CUSTODIO MANUEL",
            "country_name": "Brazil",
            "connectivity": false
        },
        {
            "lon": -56.1514,
            "lat": -1.9445,
            "school_name": "E M E F NSRA DO PERPETUO SOCORRO",
            "country_name": "Brazil",
            "connectivity": false
        },
        {
            "lon": -49.4022,
            "lat": -2.2297,
            "school_name": "E M E I F SANTA MARIA DE AJARAI",
            "country_name": "Brazil",
            "connectivity": false
        },
        {
            "lon": -47.6371,
            "lat": -1.8835,
            "school_name": "E M E F SANTA MARIA",
            "country_name": "Brazil",
            "connectivity": false
        },
        {
            "lon": -49.5101,
            "lat": -4.5673,
            "school_name": "E M E F SAO JOAO BATISTA",
            "country_name": "Brazil",
            "connectivity": false
        },
        {
            "lon": -54.7275,
            "lat": -3.2027,
            "school_name": "E M E F SAO FRANCISCO",
            "country_name": "Brazil",
            "connectivity": false
        },
        {
            "lon": -51.4602,
            "lat": -3.4284,
            "school_name": "E M E F REI SALOMAO",
            "country_name": "Brazil",
            "connectivity": true
        },
        {
            "lon": -50.9064,
            "lat": 1.5035,
            "school_name": "ESCOLA MUNICIPAL DE EDUCACAO INFANTIL JARDIM ENCANTADO",
            "country_name": "Brazil",
            "connectivity": false
        },
        {
            "lon": -46.3322,
            "lat": -4.2637,
            "school_name": "EM SANTOS DUMONT",
            "country_name": "Brazil",
            "connectivity": true
        },
        {
            "lon": -45.1502,
            "lat": -2.208,
            "school_name": "CEF RAIMUNDO DE OLIVEIRA MARQUES",
            "country_name": "Brazil",
            "connectivity": false
        },
        {
            "lon": -42.6535,
            "lat": -2.8625,
            "school_name": "EM LUIS MALHADA",
            "country_name": "Brazil",
            "connectivity": false
        },
        {
            "lon": -44.3557,
            "lat": -3.4082,
            "school_name": "JI VEREADORA SEBASTIANA COSTA CARDOSO",
            "country_name": "Brazil",
            "connectivity": false
        },
        {
            "lon": -41.8366,
            "lat": -8.2205,
            "school_name": "UNID ESC ORNELINA ANA DE JESUS",
            "country_name": "Brazil",
            "connectivity": false
        },
        {
            "lon": -42.7514,
            "lat": -5.0466,
            "school_name": "U E DE ENSINO MEDIO VILA MARIA",
            "country_name": "Brazil",
            "connectivity": false
        },
        {
            "lon": -40.0739,
            "lat": -3.152,
            "school_name": "RAIMUNDO ARTEIRO CORDEIRO EEF",
            "country_name": "Brazil",
            "connectivity": true
        },
        {
            "lon": -40.1905,
            "lat": -7.1749,
            "school_name": "JOSE VELOSO ESC MUL",
            "country_name": "Brazil",
            "connectivity": true
        },
        {
            "lon": -39.4808,
            "lat": -7.067,
            "school_name": "SITIO JOAO GRANDE EEIEF",
            "country_name": "Brazil",
            "connectivity": false
        },
        {
            "lon": -35.5959,
            "lat": -5.1874,
            "school_name": "EM PROFESSORA MARIA JOSE PIMENTEL",
            "country_name": "Brazil",
            "connectivity": true
        },
        {
            "lon": -35.8887,
            "lat": -7.2239,
            "school_name": "EMEF GABRIEL SOARES",
            "country_name": "Brazil",
            "connectivity": true
        },
        {
            "lon": -48.7919,
            "lat": -2.2524,
            "school_name": "E M E I F ADALBERTO VENTURA DA SILVA",
            "country_name": "Brazil",
            "connectivity": true
        },
        {
            "lon": -56.7381,
            "lat": -2.1696,
            "school_name": "E M E I MARIA DA CONCEICAO JUSTO VIDAL",
            "country_name": "Brazil",
            "connectivity": true
        },
        {
            "lon": -36.2207,
            "lat": -9.8906,
            "school_name": "CENTRO DE EDUCACAO INFANTIL LIZETE ALVES FERREIRA",
            "country_name": "Brazil",
            "connectivity": true
        },
        {
            "lon": -37.4339,
            "lat": -9.7633,
            "school_name": "ESCOLA MUNICIPAL PROF",
            "country_name": "Brazil",
            "connectivity": true
        },
        {
            "lon": -37.4047,
            "lat": -9.8555,
            "school_name": "ESCOLA MUNICIPAL SANTA TEREZINHA",
            "country_name": "Brazil",
            "connectivity": false
        },
        {
            "lon": -41.0409,
            "lat": -9.3248,
            "school_name": "ESCOLA GERALDO SANTOS CASTRO",
            "country_name": "Brazil",
            "connectivity": false
        },
        {
            "lon": -39.7448,
            "lat": -13.8551,
            "school_name": "CENTRO EDUCACIONAL DE APUAREMA",
            "country_name": "Brazil",
            "connectivity": true
        },
        {
            "lon": -40.6991,
            "lat": -13.9463,
            "school_name": "ESCOLA MUNICIPAL BARTOLOMEU BUENO",
            "country_name": "Brazil",
            "connectivity": false
        },
        {
            "lon": -39.4454,
            "lat": -14.1995,
            "school_name": "ESCOLA MUNICIPAL DOIS RIACHOES",
            "country_name": "Brazil",
            "connectivity": false
        },
        {
            "lon": -38.3288,
            "lat": -12.8605,
            "school_name": "ESCOLA CRECHE ROTARY DE QUINGOMA",
            "country_name": "Brazil",
            "connectivity": false
        },
        {
            "lon": -39.4484,
            "lat": -10.6221,
            "school_name": "EM BERNARDINO EVANGELISTA DE SANTANA",
            "country_name": "Brazil",
            "connectivity": true
        },
        {
            "lon": -42.3244,
            "lat": -19.1811,
            "school_name": "EM TEODOSIO MONTEIRO",
            "country_name": "Brazil",
            "connectivity": false
        },
        {
            "lon": -45.4582,
            "lat": -22.5668,
            "school_name": "EM DO BAIRRO DOS BORGES",
            "country_name": "Brazil",
            "connectivity": true
        },
        {
            "lon": -43.7459,
            "lat": -21.7058,
            "school_name": "ESCOLA MUNICIPAL SEBASTIAO DE PAULA",
            "country_name": "Brazil",
            "connectivity": true
        },
        {
            "lon": -44.3295,
            "lat": -18.4912,
            "school_name": "EE JOSE PEREIRA DE MATOS",
            "country_name": "Brazil",
            "connectivity": false
        },
        {
            "lon": -46.9058,
            "lat": -17.9997,
            "school_name": "CENTRO MUNICIPAL DE EDUCACAO INFANTIL DO DISTRITO DE CLARO DE MINAS",
            "country_name": "Brazil",
            "connectivity": false
        },
        {
            "lon": -49.9141,
            "lat": -23.5664,
            "school_name": "JOAO M DA SILVEIRA C E EF M",
            "country_name": "Brazil",
            "connectivity": true
        },
        {
            "lon": -44.6169,
            "lat": -19.8418,
            "school_name": "CENTRO MUNICIPAL DE EDUCACAO INFANTIL CONEGO GABRIEL HUGO DA COSTA BITTENCOURT",
            "country_name": "Brazil",
            "connectivity": true
        },
        {
            "lon": -43.8411,
            "lat": -20.4857,
            "school_name": "IFMG - CAMPUS CONGONHAS",
            "country_name": "Brazil",
            "connectivity": true
        },
        {
            "lon": -41.1174,
            "lat": -19.7962,
            "school_name": "EMEIEF FAZENDA CARLOS FICK",
            "country_name": "Brazil",
            "connectivity": true
        },
        {
            "lon": -43.4007,
            "lat": -22.8058,
            "school_name": "CE BERTHA D ALESSANDRO",
            "country_name": "Brazil",
            "connectivity": true
        },
        {
            "lon": -44.1421,
            "lat": -19.9411,
            "school_name": "EM PROFESSOR KASSIO VINICIUS CASTRO GOMES",
            "country_name": "Brazil",
            "connectivity": true
        },
        {
            "lon": -48.0118,
            "lat": -24.0405,
            "school_name": "JOSE CAMARGO VEREADOR EMEIF",
            "country_name": "Brazil",
            "connectivity": true
        },
        {
            "lon": -48.9249,
            "lat": -16.3284,
            "school_name": "CENTRO DE EDUCACAO INFANTIL BETE SHALOM III",
            "country_name": "Brazil",
            "connectivity": true
        },
        {
            "lon": -40.133,
            "lat": -10.7378,
            "school_name": "EE - COLEGIO ESTADUAL CECENTINO PEREIRA MAIA",
            "country_name": "Brazil",
            "connectivity": true
        },
        {
            "lon": -41.9103,
            "lat": -11.7637,
            "school_name": "ESCOLA MUNICIPAL DE 1\u00ba GRAU EDIVALDO SANTOS LOPES",
            "country_name": "Brazil",
            "connectivity": true
        },
        {
            "lon": -41.8558,
            "lat": -11.3034,
            "school_name": "ESCOLA ADOLFO MOITINHO DOURADO",
            "country_name": "Brazil",
            "connectivity": true
        },
        {
            "lon": -35.0217,
            "lat": -7.8784,
            "school_name": "ESCOLA TECNICA ESTADUAL PASTOR ISAAC MARTINS RODRIGUES",
            "country_name": "Brazil",
            "connectivity": true
        },
        {
            "lon": -46.9813,
            "lat": -22.9751,
            "school_name": "EDINA APARECIDA BAMPA DA FONSECA PROFA",
            "country_name": "Brazil",
            "connectivity": true
        },
        {
            "lon": -47.0965,
            "lat": -22.961,
            "school_name": "BENEVENUTO F DE TORRES PROFESSOR EMEF",
            "country_name": "Brazil",
            "connectivity": true
        },
        {
            "lon": -45.363,
            "lat": -22.9147,
            "school_name": "ESCOLA MUNICIPAL DR FRANCISCO DE ASSIS CESAR",
            "country_name": "Brazil",
            "connectivity": true
        },
        {
            "lon": -46.4643,
            "lat": -23.6122,
            "school_name": "EMEI HENRIQUE RICCHETTI PROF",
            "country_name": "Brazil",
            "connectivity": true
        },
        {
            "lon": -38.5012,
            "lat": -12.9617,
            "school_name": "ESCOLA MUNICIPAL TEREZINHA VAZ DA SILVEIRA",
            "country_name": "Brazil",
            "connectivity": true
        },
        {
            "lon": -46.3991,
            "lat": -23.9557,
            "school_name": "UNIAO CIVICA FEMININA EMEF",
            "country_name": "Brazil",
            "connectivity": true
        },
        {
            "lon": -46.6108,
            "lat": -23.704,
            "school_name": "JOAQUIM JOSE DA SILVA XAVIER TIRADENTES EMEB",
            "country_name": "Brazil",
            "connectivity": true
        },
        {
            "lon": -46.4833,
            "lat": -23.6069,
            "school_name": "CEI DIRET MARIA CURSI",
            "country_name": "Brazil",
            "connectivity": true
        },
        {
            "lon": -49.5654,
            "lat": -23.6323,
            "school_name": "ALICE MORAES DE OLIVEIRA PROFA EMEF",
            "country_name": "Brazil",
            "connectivity": true
        },
        {
            "lon": -47.2571,
            "lat": -22.93,
            "school_name": "MARIA VIALTA BERTOS DONA ESCOLA MUNICIPAL",
            "country_name": "Brazil",
            "connectivity": true
        },
        {
            "lon": -49.1334,
            "lat": -23.0515,
            "school_name": "CENTRO DE ATEND SOCIO-EDUC AO ADOLESC FEMININO ANITA GARIBALDI - CI",
            "country_name": "Brazil",
            "connectivity": true
        },
        {
            "lon": -46.3109,
            "lat": -23.3916,
            "school_name": "PEDRA MARIA DO ROSARIO DONA CENTRO MUN DE EDUC INFANTIL",
            "country_name": "Brazil",
            "connectivity": false
        },
        {
            "lon": -47.0778,
            "lat": -23.214,
            "school_name": "JACOB VICTOR LEVIS EMEFEI",
            "country_name": "Brazil",
            "connectivity": true
        },
        {
            "lon": -49.3042,
            "lat": -24.9588,
            "school_name": "ANGELO MOTTIM E R M EF",
            "country_name": "Brazil",
            "connectivity": false
        },
        {
            "lon": -48.6128,
            "lat": -27.0914,
            "school_name": "CMEI SOLDADINHO DE CHUMBO",
            "country_name": "Brazil",
            "connectivity": true
        },
        {
            "lon": -50.7997,
            "lat": -26.3072,
            "school_name": "EICOLONIA ESCADA",
            "country_name": "Brazil",
            "connectivity": false
        },
        {
            "lon": -50.632,
            "lat": -27.1994,
            "school_name": "NUCLEO MUNICIPAL DO CAMPO LEONIZA CARVALHO AGOSTINI",
            "country_name": "Brazil",
            "connectivity": true
        },
        {
            "lon": -51.6108,
            "lat": -28.7818,
            "school_name": "INST EST EDUC TIRADENTES",
            "country_name": "Brazil",
            "connectivity": true
        },
        {
            "lon": -52.4219,
            "lat": -29.753,
            "school_name": "ESC MUN ENS FUN NORMELIO EGIDIO BOETTCHER",
            "country_name": "Brazil",
            "connectivity": true
        },
        {
            "lon": -55.6101,
            "lat": -28.6151,
            "school_name": "EMEF BRASIL URBANO DA SILVA",
            "country_name": "Brazil",
            "connectivity": false
        },
        {
            "lon": -43.6546,
            "lat": -22.9115,
            "school_name": "1019631 CRECHE MUNICIPAL MAOS PEQUENAS",
            "country_name": "Brazil",
            "connectivity": true
        },
        {
            "lon": -56.0903,
            "lat": -13.8271,
            "school_name": "CMEII MAE AMIGA",
            "country_name": "Brazil",
            "connectivity": true
        },
        {
            "lon": -50.4242,
            "lat": -15.8507,
            "school_name": "ESCOLA MUNICIPAL UVA",
            "country_name": "Brazil",
            "connectivity": false
        },
        {
            "lon": -41.3175,
            "lat": -19.4379,
            "school_name": "EM N SRA DAS GRACAS",
            "country_name": "Brazil",
            "connectivity": true
        },
        {
            "lon": -42.5694,
            "lat": -18.0889,
            "school_name": "EE SAO SEBASTIAO DO MARANHAO",
            "country_name": "Brazil",
            "connectivity": true
        },
        {
            "lon": -47.0417,
            "lat": -14.4561,
            "school_name": "ESCOLA MUNICIPAL MORRO",
            "country_name": "Brazil",
            "connectivity": true
        },
        {
            "lon": -46.1133,
            "lat": -14.4913,
            "school_name": "ESCOLA MUNICIPAL JOAO FERREIRA DA CRUZ",
            "country_name": "Brazil",
            "connectivity": true
        },
        {
            "lon": -47.9276,
            "lat": -18.1584,
            "school_name": "CENTRO MUNICIPAL DE EDUCACAO INFANTIL CLEONICE EVANGELISTA DO NASCIMENTO",
            "country_name": "Brazil",
            "connectivity": true
        },
        {
            "lon": -49.5134,
            "lat": -16.6357,
            "school_name": "ESCOLA MUNICIPAL PROFESSORA SELMA FERREIRA DOS SANTOS",
            "country_name": "Brazil",
            "connectivity": true
        },
        {
            "lon": -46.7851,
            "lat": -23.7005,
            "school_name": "JOAO CARLOS MARTINS MAESTRO",
            "country_name": "Brazil",
            "connectivity": true
        },
        {
            "lon": -53.5893,
            "lat": -28.6546,
            "school_name": "E M E F 18 DE AGOSTO",
            "country_name": "Brazil",
            "connectivity": true
        },
        {
            "lon": -53.0276,
            "lat": -26.1466,
            "school_name": "MARMELEIRO C E DE EF M",
            "country_name": "Brazil",
            "connectivity": true
        },
        {
            "lon": -47.7496,
            "lat": -15.7291,
            "school_name": "EC CORA CORALINA",
            "country_name": "Brazil",
            "connectivity": true
        },
        {
            "lon": -44.4357,
            "lat": -5.0261,
            "school_name": "ESCOLA MUNICIPAL JOSE PEQUENO",
            "country_name": "Brazil",
            "connectivity": true
        },
        {
            "lon": -43.4222,
            "lat": -13.2576,
            "school_name": "ESCOLA MUNICIPAL DE TANQUINHO",
            "country_name": "Brazil",
            "connectivity": true
        },
        {
            "lon": -42.3308,
            "lat": -22.8575,
            "school_name": "E M MARIO BUSCEMA",
            "country_name": "Brazil",
            "connectivity": true
        },
        {
            "lon": -54.662,
            "lat": -30.9881,
            "school_name": "ESC EST ENS FUN DR ARTHUR VILLAMIL DE CASTRO",
            "country_name": "Brazil",
            "connectivity": true
        },
        {
            "lon": -49.4955,
            "lat": -17.2969,
            "school_name": "COLEGIO ESTADUAL ANGELO URZEDA",
            "country_name": "Brazil",
            "connectivity": true
        },
        {
            "lon": -47.401,
            "lat": -6.3365,
            "school_name": "CENTRO DE ENSINO FORTUNATO MOREIRA NETO",
            "country_name": "Brazil",
            "connectivity": true
        },
        {
            "lon": -42.1987,
            "lat": -5.6723,
            "school_name": "CRECHE PROINFANCIA CONSUELO MELO",
            "country_name": "Brazil",
            "connectivity": true
        },
        {
            "lon": -36.4859,
            "lat": -8.881,
            "school_name": "COLEGIO MUNICIPAL PE AGOBAR VALENCA",
            "country_name": "Brazil",
            "connectivity": true
        }
    ],
    "num_countries": 13,
    "countries": [
        "Benin",
        "Brazil",
        "Colombia",
        "Costa Rica",
        "Honduras",
        "Kazakhstan",
        "Kyrgyzstan",
        "Namibia",
        "Palestine",
        "Philippines",
        "Rwanda",
        "Sierra Leone",
        "Zimbabwe"
    ],
    "schools_no_data": [
        {
            "lon": 28.24528,
            "lat": -12.80001,
            "school_name": "FAITH CHRISTIAN TRUST ACADEMY",
            "country_name": "Zambia",
            "connectivity": false
        },
        {
            "lon": 28.34384,
            "lat": -15.43119,
            "school_name": "ST. MARYS SECONDARY",
            "country_name": "Zambia",
            "connectivity": false
        },
        {
            "lon": -10.570347,
            "lat": 7.268934,
            "school_name": "Ballah/Bass Public School",
            "country_name": "Liberia",
            "connectivity": false
        },
        {
            "lon": -10.147756,
            "lat": 5.973275,
            "school_name": "William U.Clinton Academy",
            "country_name": "Liberia",
            "connectivity": false
        },
        {
            "lon": -9.04438,
            "lat": 5.190872,
            "school_name": "Harrison Menjay Elementary",
            "country_name": "Liberia",
            "connectivity": false
        },
        {
            "lon": -8.63405,
            "lat": 5.527247,
            "school_name": "Chebioh Elementry School",
            "country_name": "Liberia",
            "connectivity": false
        },
        {
            "lon": -0.2870889,
            "lat": 6.0735987,
            "school_name": "Name unknown",
            "country_name": "Ghana",
            "connectivity": false
        },
        {
            "lon": 33.1066027,
            "lat": 16.56424483,
            "school_name": "Name unknown",
            "country_name": "Sudan",
            "connectivity": false
        },
        {
            "lon": -0.2186755,
            "lat": 5.597152,
            "school_name": "Name unknown",
            "country_name": "Ghana",
            "connectivity": false
        },
        {
            "lon": 28.74805438,
            "lat": 14.47563987,
            "school_name": "Name unknown",
            "country_name": "Sudan",
            "connectivity": false
        },
        {
            "lon": 25.57923062,
            "lat": 12.43151468,
            "school_name": "Name unknown",
            "country_name": "Sudan",
            "connectivity": false
        },
        {
            "lon": -0.0419612,
            "lat": 5.6927963,
            "school_name": "Name unknown",
            "country_name": "Ghana",
            "connectivity": false
        },
        {
            "lon": -61.800269,
            "lat": -31.0526576,
            "school_name": "ESCUELA NRO 508 MARTIN MIGUEL DE GUEMES",
            "country_name": "Argentina",
            "connectivity": false
        },
        {
            "lon": -0.19703,
            "lat": 5.5560874,
            "school_name": "Name unknown",
            "country_name": "Ghana",
            "connectivity": false
        },
        {
            "lon": -1.850413,
            "lat": 9.2523144,
            "school_name": "Name unknown",
            "country_name": "Ghana",
            "connectivity": false
        },
        {
            "lon": 1.1517861,
            "lat": 6.1046608,
            "school_name": "Name unknown",
            "country_name": "Ghana",
            "connectivity": false
        },
        {
            "lon": -1.7450827,
            "lat": 4.929825,
            "school_name": "Name unknown",
            "country_name": "Ghana",
            "connectivity": false
        },
        {
            "lon": -0.6365365,
            "lat": 5.3572707,
            "school_name": "Name unknown",
            "country_name": "Ghana",
            "connectivity": false
        },
        {
            "lon": 0.4585641,
            "lat": 6.9644009,
            "school_name": "Name unknown",
            "country_name": "Ghana",
            "connectivity": false
        },
        {
            "lon": -63.255538,
            "lat": -19.394291,
            "school_name": "NICOLAS MARTINEZ",
            "country_name": "Bolivia (Plurinational State of)",
            "connectivity": false
        },
        {
            "lon": -0.7197661,
            "lat": 10.7176902,
            "school_name": "Name unknown",
            "country_name": "Ghana",
            "connectivity": false
        },
        {
            "lon": -1.4663714,
            "lat": 6.9748756,
            "school_name": "Name unknown",
            "country_name": "Ghana",
            "connectivity": false
        },
        {
            "lon": -0.3310182,
            "lat": 5.5152935,
            "school_name": "Name unknown",
            "country_name": "Ghana",
            "connectivity": false
        },
        {
            "lon": 39.72074,
            "lat": -9.94512,
            "school_name": "KHAIRAAT ISLAMIC",
            "country_name": "United Republic of Tanzania",
            "connectivity": false
        },
        {
            "lon": 34.50349,
            "lat": -9.30856,
            "school_name": "KITUMBIKA",
            "country_name": "United Republic of Tanzania",
            "connectivity": false
        },
        {
            "lon": 33.20034,
            "lat": -4.05758,
            "school_name": "ISANGA",
            "country_name": "United Republic of Tanzania",
            "connectivity": false
        },
        {
            "lon": 35.09125,
            "lat": -10.77855,
            "school_name": "JUHUDI",
            "country_name": "United Republic of Tanzania",
            "connectivity": false
        },
        {
            "lon": 28.25692,
            "lat": -25.727,
            "school_name": "Kip Mcgrath Education Centre Pretoria Moot",
            "country_name": "South Africa",
            "connectivity": false
        },
        {
            "lon": 20.09090424,
            "lat": 44.8736325,
            "school_name": "\u0414\u0443\u0448\u0430\u043d \u0408\u0435\u0440\u043a\u043e\u0432\u0438\u045b \u0423\u0447\u0430",
            "country_name": "Serbia",
            "connectivity": false
        },
        {
            "lon": 1.479871667,
            "lat": 6.338201667,
            "school_name": "JEDIL LEGBANOU DJOKOPE",
            "country_name": "Togo",
            "connectivity": false
        },
        {
            "lon": 0.75733,
            "lat": 9.25313,
            "school_name": "JEC SAINT ESPRIT BOUKPASSIBA",
            "country_name": "Togo",
            "connectivity": false
        },
        {
            "lon": 0.183905,
            "lat": 10.81781,
            "school_name": "JEP DALWAK",
            "country_name": "Togo",
            "connectivity": false
        },
        {
            "lon": 1.24194365,
            "lat": 6.20104922,
            "school_name": "EPL FUTURS LEADERS",
            "country_name": "Togo",
            "connectivity": false
        },
        {
            "lon": 1.207456,
            "lat": 6.575175,
            "school_name": "EPP AGBAKOPE",
            "country_name": "Togo",
            "connectivity": false
        },
        {
            "lon": 1.181226667,
            "lat": 6.95394,
            "school_name": "EPP CAMP G/D",
            "country_name": "Togo",
            "connectivity": false
        },
        {
            "lon": 0.651961,
            "lat": 6.915457,
            "school_name": "EPP KPALIME NOGO",
            "country_name": "Togo",
            "connectivity": false
        },
        {
            "lon": 1.627532,
            "lat": 7.277722,
            "school_name": "EPE KATIVOU",
            "country_name": "Togo",
            "connectivity": false
        },
        {
            "lon": 0.82879,
            "lat": 9.684315,
            "school_name": "EPP NOUHOULME",
            "country_name": "Togo",
            "connectivity": false
        },
        {
            "lon": 1.286503,
            "lat": 8.442146,
            "school_name": "LYCEE AFFOSSALA",
            "country_name": "Togo",
            "connectivity": false
        },
        {
            "lon": 20.81768951,
            "lat": 44.34104884,
            "school_name": "\u041b\u0430\u0437\u0430\u0440 \u0421\u0442\u0430\u043d\u043e\u0458\u0435\u0432\u0438\u045b",
            "country_name": "Serbia",
            "connectivity": false
        },
        {
            "lon": 39.34336,
            "lat": -10.95473,
            "school_name": "MAKONDEKO",
            "country_name": "United Republic of Tanzania",
            "connectivity": false
        },
        {
            "lon": 39.5144,
            "lat": -8.92858,
            "school_name": "MASOKO",
            "country_name": "United Republic of Tanzania",
            "connectivity": false
        },
        {
            "lon": 38.90187,
            "lat": -6.78951,
            "school_name": "VIZIWAZIWA",
            "country_name": "United Republic of Tanzania",
            "connectivity": false
        },
        {
            "lon": 28.85878,
            "lat": -28.53596,
            "school_name": "Z R Mahabane Intermediate School",
            "country_name": "South Africa",
            "connectivity": false
        },
        {
            "lon": 31.77694,
            "lat": -3.0325,
            "school_name": "KALEMBELA",
            "country_name": "United Republic of Tanzania",
            "connectivity": false
        },
        {
            "lon": 30.2231,
            "lat": -4.04293,
            "school_name": "SHUNGA",
            "country_name": "United Republic of Tanzania",
            "connectivity": false
        },
        {
            "lon": 33.27368,
            "lat": -3.83328,
            "school_name": "SHINGIDA",
            "country_name": "United Republic of Tanzania",
            "connectivity": false
        },
        {
            "lon": 33.17602,
            "lat": -4.22266,
            "school_name": "USHIRIKA",
            "country_name": "United Republic of Tanzania",
            "connectivity": false
        },
        {
            "lon": 1.04837,
            "lat": 9.938335,
            "school_name": "LYCEE KANTE VILLE II",
            "country_name": "Togo",
            "connectivity": false
        },
        {
            "lon": 34.47432876,
            "lat": -15.44940355,
            "school_name": "Mphingwi",
            "country_name": "Malawi",
            "connectivity": false
        },
        {
            "lon": 34.39744715,
            "lat": -14.37342641,
            "school_name": "Monekera F. P.",
            "country_name": "Malawi",
            "connectivity": false
        },
        {
            "lon": 33.41991513,
            "lat": -9.695516334,
            "school_name": "Naching'anda",
            "country_name": "Malawi",
            "connectivity": false
        },
        {
            "lon": 33.45651741,
            "lat": -14.00988262,
            "school_name": "Khanda Prim School",
            "country_name": "Malawi",
            "connectivity": false
        },
        {
            "lon": 26.74092865,
            "lat": -8.493811939,
            "school_name": "EP NYANGA",
            "country_name": "Democratic Republic of the Congo",
            "connectivity": false
        },
        {
            "lon": 24.54617416,
            "lat": -3.343341621,
            "school_name": "INST LOHANO",
            "country_name": "Democratic Republic of the Congo",
            "connectivity": false
        },
        {
            "lon": 23.60429554,
            "lat": -3.43862219,
            "school_name": "INST OKITOKENGE",
            "country_name": "Democratic Republic of the Congo",
            "connectivity": false
        },
        {
            "lon": 20.57929921,
            "lat": 1.808601312,
            "school_name": "INST  BONGANDANGA II",
            "country_name": "Democratic Republic of the Congo",
            "connectivity": false
        },
        {
            "lon": 21.96449,
            "lat": 2.132528333,
            "school_name": "EP5  MOLENDE",
            "country_name": "Democratic Republic of the Congo",
            "connectivity": false
        },
        {
            "lon": 28.24692778,
            "lat": -3.062008333,
            "school_name": "INST LUNGUNYA",
            "country_name": "Democratic Republic of the Congo",
            "connectivity": false
        },
        {
            "lon": 14.03594367,
            "lat": -4.722523649,
            "school_name": "INST KINZAMBI 2",
            "country_name": "Democratic Republic of the Congo",
            "connectivity": false
        },
        {
            "lon": 23.85634948,
            "lat": -6.433978898,
            "school_name": "EP KASHILA",
            "country_name": "Democratic Republic of the Congo",
            "connectivity": false
        },
        {
            "lon": -103.501676,
            "lat": 25.562263,
            "school_name": "MARIA ELENA RICHMOND",
            "country_name": "Mexico",
            "connectivity": false
        },
        {
            "lon": -96.4,
            "lat": 15.78,
            "school_name": "TELEBACHILLERATO COMUNITARIO NUM. 91",
            "country_name": "Mexico",
            "connectivity": false
        },
        {
            "lon": -96.1271,
            "lat": 19.19051,
            "school_name": "EL COLEGIO DE LAS NACIONES",
            "country_name": "Mexico",
            "connectivity": false
        },
        {
            "lon": -15.93495,
            "lat": 18.0713,
            "school_name": "ECOLE PRIVEE DAR EL MARIF",
            "country_name": "Mauritania",
            "connectivity": false
        },
        {
            "lon": 31.44554,
            "lat": -0.24612,
            "school_name": "KATOGO P/SCHOOL",
            "country_name": "Uganda",
            "connectivity": false
        },
        {
            "lon": 31.55704,
            "lat": -0.60116,
            "school_name": "KIFUKAMIZA P/SCHOOL",
            "country_name": "Uganda",
            "connectivity": false
        },
        {
            "lon": 32.30877,
            "lat": 2.78415,
            "school_name": "Gulu Town School",
            "country_name": "Uganda",
            "connectivity": false
        },
        {
            "lon": 32.37268,
            "lat": 0.20236,
            "school_name": "St Micheal BUME",
            "country_name": "Uganda",
            "connectivity": false
        },
        {
            "lon": 31.04884,
            "lat": 3.24729,
            "school_name": "Ibia P.S.",
            "country_name": "Uganda",
            "connectivity": false
        },
        {
            "lon": 30.94889,
            "lat": 3.26445,
            "school_name": "Bura P.S.",
            "country_name": "Uganda",
            "connectivity": false
        },
        {
            "lon": 31.17826,
            "lat": 0.51679,
            "school_name": "kakasoro",
            "country_name": "Uganda",
            "connectivity": false
        },
        {
            "lon": 26.39018,
            "lat": -25.37263,
            "school_name": "Skuinsdrif Primary School",
            "country_name": "South Africa",
            "connectivity": false
        },
        {
            "lon": 27.72026,
            "lat": -25.28832,
            "school_name": "Tshefoge Primary School",
            "country_name": "South Africa",
            "connectivity": false
        },
        {
            "lon": 18.53873,
            "lat": -33.81955,
            "school_name": "Sophakama Primary School",
            "country_name": "South Africa",
            "connectivity": false
        },
        {
            "lon": 18.50299,
            "lat": -34.04873,
            "school_name": "SID G Rule Primary School",
            "country_name": "South Africa",
            "connectivity": false
        },
        {
            "lon": 29.96021,
            "lat": -23.28675,
            "school_name": "Nthabalala Primary School",
            "country_name": "South Africa",
            "connectivity": false
        },
        {
            "lon": 30.16882,
            "lat": -23.84977,
            "school_name": "Educare Primary School",
            "country_name": "South Africa",
            "connectivity": false
        },
        {
            "lon": 18.53026,
            "lat": -33.82659,
            "school_name": "Roynhardt Ltd",
            "country_name": "South Africa",
            "connectivity": false
        },
        {
            "lon": 21.25843,
            "lat": -34.09663,
            "school_name": "Voorwaarts Primary School",
            "country_name": "South Africa",
            "connectivity": false
        },
        {
            "lon": 29.50807,
            "lat": -29.60843,
            "school_name": "KwaMvimbela Secondary School",
            "country_name": "South Africa",
            "connectivity": false
        },
        {
            "lon": 27.93372,
            "lat": -23.24396,
            "school_name": "Radibaki Primary School",
            "country_name": "South Africa",
            "connectivity": false
        },
        {
            "lon": 30.84421,
            "lat": -29.58837,
            "school_name": "Emanyonini Senior Primary School",
            "country_name": "South Africa",
            "connectivity": false
        },
        {
            "lon": 30.40501,
            "lat": -23.42374,
            "school_name": "Ramollo Primary",
            "country_name": "South Africa",
            "connectivity": false
        },
        {
            "lon": 30.27896,
            "lat": -23.96975,
            "school_name": "Matseutseu Primary",
            "country_name": "South Africa",
            "connectivity": false
        },
        {
            "lon": 32.39267,
            "lat": -27.82769,
            "school_name": "Ekuseni Primary School",
            "country_name": "South Africa",
            "connectivity": false
        },
        {
            "lon": 27.70364,
            "lat": -26.18083,
            "school_name": "Computer College",
            "country_name": "South Africa",
            "connectivity": false
        },
        {
            "lon": 31.2826,
            "lat": -29.39647,
            "school_name": "Mbekamuzi Primary School",
            "country_name": "South Africa",
            "connectivity": false
        },
        {
            "lon": 30.94762,
            "lat": -28.649,
            "school_name": "Isangoyana Primary School",
            "country_name": "South Africa",
            "connectivity": false
        },
        {
            "lon": 30.95885,
            "lat": -27.42085,
            "school_name": "Esiyalwini Primary School",
            "country_name": "South Africa",
            "connectivity": false
        },
        {
            "lon": 5.742388,
            "lat": 5.559353,
            "school_name": "Name unknown",
            "country_name": "Nigeria",
            "connectivity": false
        },
        {
            "lon": 27.90376,
            "lat": -26.26504,
            "school_name": "Laerskool Voorpos",
            "country_name": "South Africa",
            "connectivity": false
        },
        {
            "lon": 27.90792,
            "lat": -26.2385,
            "school_name": "Phefeni Secondary School",
            "country_name": "South Africa",
            "connectivity": false
        },
        {
            "lon": 28.01283,
            "lat": -26.15225,
            "school_name": "Greenside Primary School",
            "country_name": "South Africa",
            "connectivity": false
        },
        {
            "lon": 27.97085,
            "lat": -26.54642,
            "school_name": "New Hope Secondary School",
            "country_name": "South Africa",
            "connectivity": false
        },
        {
            "lon": 27.90938,
            "lat": -26.29855,
            "school_name": "Boekenhout Primary School",
            "country_name": "South Africa",
            "connectivity": false
        },
        {
            "lon": 28.21998,
            "lat": -26.01341,
            "school_name": "Betharry English Private School",
            "country_name": "South Africa",
            "connectivity": false
        },
        {
            "lon": 27.88975,
            "lat": -26.23594,
            "school_name": "Langalibalele Dube Primary School",
            "country_name": "South Africa",
            "connectivity": false
        },
        {
            "lon": 27.46558,
            "lat": -32.96179,
            "school_name": "Qongqota Primary School",
            "country_name": "South Africa",
            "connectivity": false
        },
        {
            "lon": 26.75151,
            "lat": -27.98943,
            "school_name": "Orion School",
            "country_name": "South Africa",
            "connectivity": false
        },
        {
            "lon": 26.00218,
            "lat": -33.60666,
            "school_name": "Lucebiso Farm School",
            "country_name": "South Africa",
            "connectivity": false
        },
        {
            "lon": 27.7275,
            "lat": -32.00435,
            "school_name": "Hange Junior Secondary School",
            "country_name": "South Africa",
            "connectivity": false
        },
        {
            "lon": -60.73396468,
            "lat": -27.58036904,
            "school_name": "E.E.P. N\u00ba 663-BRIGADIER GENERAL DON JUAN MANUEL DE ROSAS",
            "country_name": "Argentina",
            "connectivity": false
        },
        {
            "lon": -62.06168291,
            "lat": -38.87544524,
            "school_name": "CENTRO DE ADULTOS N\u00ba704/01",
            "country_name": "Argentina",
            "connectivity": false
        },
        {
            "lon": -58.96087648,
            "lat": -34.17721316,
            "school_name": "COLEGIO ARMONIA",
            "country_name": "Argentina",
            "connectivity": false
        },
        {
            "lon": -61.3608026,
            "lat": -35.6263799,
            "school_name": "I.S.F.D. y T. N\u00ba80 PAULO FREIRE",
            "country_name": "Argentina",
            "connectivity": false
        },
        {
            "lon": -58.33615221,
            "lat": -34.79860057,
            "school_name": "ESCUELA SANTISIMA TRINIDAD",
            "country_name": "Argentina",
            "connectivity": false
        },
        {
            "lon": -58.33151246,
            "lat": -34.78725248,
            "school_name": "CENTRO DE ADULTOS N\u00ba724/08",
            "country_name": "Argentina",
            "connectivity": false
        },
        {
            "lon": -59.73758,
            "lat": -35.66865,
            "school_name": "ESCUELA PRIMARIA N\u00ba5 JOSE MANUEL ESTRADA",
            "country_name": "Argentina",
            "connectivity": false
        },
        {
            "lon": -58.66184514,
            "lat": -34.65927624,
            "school_name": "COLEGIO JOSE MANUEL ESTRADA",
            "country_name": "Argentina",
            "connectivity": false
        },
        {
            "lon": -57.13095459,
            "lat": -36.99237664,
            "school_name": "ESCUELA POLIMODAL N\u00ba2 DOMINGO F. SARMIENTO",
            "country_name": "Argentina",
            "connectivity": false
        },
        {
            "lon": -58.61701514,
            "lat": -34.67486327,
            "school_name": "JARDIN MUNICIPAL N\u00ba11 MI CASITA",
            "country_name": "Argentina",
            "connectivity": false
        },
        {
            "lon": -58.37282829,
            "lat": -34.98277741,
            "school_name": "JARDIN DE INFANTES N\u00ba906 ALMAFUERTE",
            "country_name": "Argentina",
            "connectivity": false
        },
        {
            "lon": -58.36917957,
            "lat": -34.87178917,
            "school_name": "CENTRO DE ADULTOS N\u00ba717/03",
            "country_name": "Argentina",
            "connectivity": false
        },
        {
            "lon": -62.1824864,
            "lat": -39.6629614,
            "school_name": "JARDIN DE INFANTES RURAL N\u00ba5",
            "country_name": "Argentina",
            "connectivity": false
        },
        {
            "lon": -59.09776721,
            "lat": -34.57002251,
            "school_name": "C.E.A.T. N\u00ba1",
            "country_name": "Argentina",
            "connectivity": false
        },
        {
            "lon": -62.21951417,
            "lat": -38.74103206,
            "school_name": "ESC. SECUNDARIA BASICA N\u00ba16",
            "country_name": "Argentina",
            "connectivity": false
        },
        {
            "lon": -58.57060231,
            "lat": -34.90235725,
            "school_name": "JARDIN DE INFANTES N\u00ba921",
            "country_name": "Argentina",
            "connectivity": false
        },
        {
            "lon": -66.08572,
            "lat": -26.79713,
            "school_name": "ESCUELA N\u00b0 87",
            "country_name": "Argentina",
            "connectivity": false
        },
        {
            "lon": -65.77645421,
            "lat": -28.4454126,
            "school_name": "JUAN OSCAR PONFERRADA",
            "country_name": "Argentina",
            "connectivity": false
        },
        {
            "lon": -59.00008589,
            "lat": -27.41042479,
            "school_name": "E.E.P. N\u00ba 5-RUY DIAZ DE GUZMAN",
            "country_name": "Argentina",
            "connectivity": false
        },
        {
            "lon": -59.0120332,
            "lat": -27.45832345,
            "school_name": "JARDIN DE INFANTES N\u00ba 32-MANUELA ORTIZ DE VERA ORTEGA",
            "country_name": "Argentina",
            "connectivity": false
        },
        {
            "lon": -58.51129311,
            "lat": -34.64982456,
            "school_name": "INSTITUTO SAN JOSE",
            "country_name": "Argentina",
            "connectivity": false
        },
        {
            "lon": -64.13572012,
            "lat": -31.37074483,
            "school_name": "J.DE INF. PROF. MARINA RAVIOLI",
            "country_name": "Argentina",
            "connectivity": false
        },
        {
            "lon": -58.7271088,
            "lat": -27.54408759,
            "school_name": "J.I.N. N\u00ba 17 SAN CAYETANO - ESCUELA N\u00ba 439",
            "country_name": "Argentina",
            "connectivity": false
        },
        {
            "lon": -60.17254601,
            "lat": -31.85379784,
            "school_name": "ESCUELA SECUNDARIA 11 MARIA ELENA BAYOCCHI EX 69",
            "country_name": "Argentina",
            "connectivity": false
        },
        {
            "lon": -78.576,
            "lat": -6.25137,
            "school_name": "10308",
            "country_name": "Peru",
            "connectivity": false
        },
        {
            "lon": -65.60155917,
            "lat": -22.10722078,
            "school_name": "ESCUELA PROFESIONAL N 4 JUANA MANUELA GORRITI",
            "country_name": "Argentina",
            "connectivity": false
        },
        {
            "lon": -70.36059043,
            "lat": -37.76761344,
            "school_name": "ESCUELA PRIMARIA 68 CACIQUE FRANCISCO HUAYQUILLAN",
            "country_name": "Argentina",
            "connectivity": false
        },
        {
            "lon": -68.09561878,
            "lat": -38.93795268,
            "school_name": "ESCUELA PRIMARIA 198",
            "country_name": "Argentina",
            "connectivity": false
        },
        {
            "lon": -70.7581637,
            "lat": -39.80029584,
            "school_name": "ESCUELA PRIMARIA 320",
            "country_name": "Argentina",
            "connectivity": false
        },
        {
            "lon": -63.44141,
            "lat": -22.44887,
            "school_name": "ESCUELA N\u00aa 4276 Escribano Hector Juan Saa EX N\u00b0 434",
            "country_name": "Argentina",
            "connectivity": false
        },
        {
            "lon": -65.41696781,
            "lat": -24.80932242,
            "school_name": "BRIG.GRAL.JUAN ANTONIO ALVAREZ DE ARENALES EX N\u00b063",
            "country_name": "Argentina",
            "connectivity": false
        },
        {
            "lon": -67.5117373,
            "lat": -46.4501739,
            "school_name": "INSTITUTO PROVINCIAL DE EDUCACION SUPERIOR (CO)",
            "country_name": "Argentina",
            "connectivity": false
        },
        {
            "lon": -61.5457161,
            "lat": -32.3729135,
            "school_name": "NUCLEO II - JARDIN DE INFANTES NRO 194",
            "country_name": "Argentina",
            "connectivity": false
        },
        {
            "lon": -60.643665,
            "lat": -32.9528727,
            "school_name": "ESCUELA NORMAL SUPERIOR NRO 34 DOCTOR NICOL\u00c1S AVELLANEDA",
            "country_name": "Argentina",
            "connectivity": false
        },
        {
            "lon": -63.6350835,
            "lat": -25.81097354,
            "school_name": "ESCUELA N\u00b0 1149 PROF. CARLOS ENRIQUE OTTOLENGHI",
            "country_name": "Argentina",
            "connectivity": false
        },
        {
            "lon": -62.601292,
            "lat": -28.625811,
            "school_name": "Colegio San Carlos Borromeo",
            "country_name": "Argentina",
            "connectivity": false
        },
        {
            "lon": 6.719626,
            "lat": 6.210097,
            "school_name": "Name unknown",
            "country_name": "Nigeria",
            "connectivity": false
        },
        {
            "lon": 5.648095,
            "lat": 5.910012,
            "school_name": "Name unknown",
            "country_name": "Nigeria",
            "connectivity": false
        },
        {
            "lon": 5.75303,
            "lat": 5.543942,
            "school_name": "Name unknown",
            "country_name": "Nigeria",
            "connectivity": false
        },
        {
            "lon": 7.912695,
            "lat": 5.384945,
            "school_name": "Name unknown",
            "country_name": "Nigeria",
            "connectivity": false
        },
        {
            "lon": 7.414966106,
            "lat": 5.092735903,
            "school_name": "Name unknown",
            "country_name": "Nigeria",
            "connectivity": false
        },
        {
            "lon": 7.500245,
            "lat": 5.54368,
            "school_name": "Name unknown",
            "country_name": "Nigeria",
            "connectivity": false
        },
        {
            "lon": 7.93706,
            "lat": 5.876768333,
            "school_name": "Name unknown",
            "country_name": "Nigeria",
            "connectivity": false
        },
        {
            "lon": 7.837421667,
            "lat": 6.096611667,
            "school_name": "Name unknown",
            "country_name": "Nigeria",
            "connectivity": false
        },
        {
            "lon": 14.53302251,
            "lat": 12.28682478,
            "school_name": "Name unknown",
            "country_name": "Nigeria",
            "connectivity": false
        },
        {
            "lon": 6.000423,
            "lat": 6.222661,
            "school_name": "Name unknown",
            "country_name": "Nigeria",
            "connectivity": false
        },
        {
            "lon": 5.34851,
            "lat": 6.743219,
            "school_name": "Name unknown",
            "country_name": "Nigeria",
            "connectivity": false
        },
        {
            "lon": 13.82890105,
            "lat": 12.36635149,
            "school_name": "Name unknown",
            "country_name": "Nigeria",
            "connectivity": false
        },
        {
            "lon": 5.25088,
            "lat": 7.670141667,
            "school_name": "Name unknown",
            "country_name": "Nigeria",
            "connectivity": false
        },
        {
            "lon": 5.226281667,
            "lat": 7.513681667,
            "school_name": "Name unknown",
            "country_name": "Nigeria",
            "connectivity": false
        },
        {
            "lon": 7.477168333,
            "lat": 6.41838,
            "school_name": "Name unknown",
            "country_name": "Nigeria",
            "connectivity": false
        },
        {
            "lon": 7.489275,
            "lat": 6.407363,
            "school_name": "Name unknown",
            "country_name": "Nigeria",
            "connectivity": false
        },
        {
            "lon": 7.369407,
            "lat": 9.282659,
            "school_name": "Name unknown",
            "country_name": "Nigeria",
            "connectivity": false
        },
        {
            "lon": 7.102186,
            "lat": 5.751901,
            "school_name": "Name unknown",
            "country_name": "Nigeria",
            "connectivity": false
        },
        {
            "lon": 7.165836,
            "lat": 5.69875,
            "school_name": "Name unknown",
            "country_name": "Nigeria",
            "connectivity": false
        },
        {
            "lon": -77.0137,
            "lat": -11.9731,
            "school_name": "0171 02",
            "country_name": "Peru",
            "connectivity": false
        },
        {
            "lon": -79.8473,
            "lat": -6.64779,
            "school_name": "11129 REPUBLICA ARGENTINA",
            "country_name": "Peru",
            "connectivity": false
        },
        {
            "lon": -76.4302,
            "lat": -6.03643,
            "school_name": "1131 NUSETU' WA' WARU' SA",
            "country_name": "Peru",
            "connectivity": false
        },
        {
            "lon": -77.0687,
            "lat": -12.0526,
            "school_name": "1154 NUESTRA SE\u00d1ORA DEL CARMEN",
            "country_name": "Peru",
            "connectivity": false
        },
        {
            "lon": -79.9705,
            "lat": -4.9049,
            "school_name": "14349",
            "country_name": "Peru",
            "connectivity": false
        },
        {
            "lon": -75.4756,
            "lat": -11.766,
            "school_name": "147 JUAN PABLO II",
            "country_name": "Peru",
            "connectivity": false
        },
        {
            "lon": -79.9826,
            "lat": -5.17652,
            "school_name": "15435 - DIEGO FERRE",
            "country_name": "Peru",
            "connectivity": false
        },
        {
            "lon": -77.1415,
            "lat": -10.0375,
            "school_name": "1648",
            "country_name": "Peru",
            "connectivity": false
        },
        {
            "lon": -73.8405,
            "lat": -14.0143,
            "school_name": "168",
            "country_name": "Peru",
            "connectivity": false
        },
        {
            "lon": -77.9616,
            "lat": -5.91828,
            "school_name": "18086",
            "country_name": "Peru",
            "connectivity": false
        },
        {
            "lon": -75.8002,
            "lat": -12.2042,
            "school_name": "20701 TUPAC AMARU",
            "country_name": "Peru",
            "connectivity": false
        },
        {
            "lon": -77.0788,
            "lat": -12.0211,
            "school_name": "2094 INCA PACHACUTEC",
            "country_name": "Peru",
            "connectivity": false
        },
        {
            "lon": -75.6722,
            "lat": -14.2726,
            "school_name": "22732",
            "country_name": "Peru",
            "connectivity": false
        },
        {
            "lon": -75.561,
            "lat": -11.5472,
            "school_name": "30474",
            "country_name": "Peru",
            "connectivity": false
        },
        {
            "lon": -77.0751,
            "lat": -12.0168,
            "school_name": "3081 ALMIRANTE MIGUEL GRAU SEMINARIO",
            "country_name": "Peru",
            "connectivity": false
        },
        {
            "lon": -75.372,
            "lat": -12.1827,
            "school_name": "31243",
            "country_name": "Peru",
            "connectivity": false
        },
        {
            "lon": -74.5556,
            "lat": -12.6103,
            "school_name": "31299 VIRGEN DEL CARMEN",
            "country_name": "Peru",
            "connectivity": false
        },
        {
            "lon": -74.3524,
            "lat": -12.6795,
            "school_name": "31481 MAX UHLE",
            "country_name": "Peru",
            "connectivity": false
        },
        {
            "lon": -69.5346,
            "lat": -16.1354,
            "school_name": "320",
            "country_name": "Peru",
            "connectivity": false
        },
        {
            "lon": -76.6037,
            "lat": -9.85545,
            "school_name": "33007",
            "country_name": "Peru",
            "connectivity": false
        },
        {
            "lon": -77.5571,
            "lat": -9.438,
            "school_name": "360 SAN ISIDRO LABRADOR",
            "country_name": "Peru",
            "connectivity": false
        },
        {
            "lon": -75.199,
            "lat": -12.0506,
            "school_name": "372",
            "country_name": "Peru",
            "connectivity": false
        },
        {
            "lon": -74.2605,
            "lat": -12.9266,
            "school_name": "38334",
            "country_name": "Peru",
            "connectivity": false
        },
        {
            "lon": -70.4208,
            "lat": -15.315,
            "school_name": "390",
            "country_name": "Peru",
            "connectivity": false
        },
        {
            "lon": -73.2212,
            "lat": -15.3214,
            "school_name": "40526",
            "country_name": "Peru",
            "connectivity": false
        },
        {
            "lon": -71.1674,
            "lat": -14.1398,
            "school_name": "56069",
            "country_name": "Peru",
            "connectivity": false
        },
        {
            "lon": -74.3401,
            "lat": -5.83358,
            "school_name": "564",
            "country_name": "Peru",
            "connectivity": false
        },
        {
            "lon": -75.2028,
            "lat": -4.82389,
            "school_name": "601408",
            "country_name": "Peru",
            "connectivity": false
        },
        {
            "lon": -75.2256,
            "lat": -12.122,
            "school_name": "644",
            "country_name": "Peru",
            "connectivity": false
        },
        {
            "lon": -73.5532,
            "lat": -10.6943,
            "school_name": "64880-B",
            "country_name": "Peru",
            "connectivity": false
        },
        {
            "lon": -70.9634,
            "lat": -14.9508,
            "school_name": "70856",
            "country_name": "Peru",
            "connectivity": false
        },
        {
            "lon": -71.6882,
            "lat": -13.9212,
            "school_name": "718",
            "country_name": "Peru",
            "connectivity": false
        },
        {
            "lon": -69.2447,
            "lat": -14.0919,
            "school_name": "72527 SAN JUAN BAUTISTA",
            "country_name": "Peru",
            "connectivity": false
        },
        {
            "lon": -71.6001,
            "lat": -13.9824,
            "school_name": "762",
            "country_name": "Peru",
            "connectivity": false
        },
        {
            "lon": -77.5725,
            "lat": -7.86343,
            "school_name": "80515",
            "country_name": "Peru",
            "connectivity": false
        },
        {
            "lon": -78.3152,
            "lat": -6.8172,
            "school_name": "821341",
            "country_name": "Peru",
            "connectivity": false
        },
        {
            "lon": -78.0136,
            "lat": -7.50845,
            "school_name": "821532",
            "country_name": "Peru",
            "connectivity": false
        },
        {
            "lon": -77.9383,
            "lat": -7.43192,
            "school_name": "82341",
            "country_name": "Peru",
            "connectivity": false
        },
        {
            "lon": -76.8373,
            "lat": -8.65395,
            "school_name": "84276",
            "country_name": "Peru",
            "connectivity": false
        },
        {
            "lon": -77.707,
            "lat": -9.25936,
            "school_name": "86287 PEDRO COCHACHIN",
            "country_name": "Peru",
            "connectivity": false
        },
        {
            "lon": -71.7791,
            "lat": -13.2736,
            "school_name": "868",
            "country_name": "Peru",
            "connectivity": false
        },
        {
            "lon": -78.0399,
            "lat": -8.94824,
            "school_name": "88065",
            "country_name": "Peru",
            "connectivity": false
        },
        {
            "lon": -70.4571,
            "lat": -13.9951,
            "school_name": "99",
            "country_name": "Peru",
            "connectivity": false
        },
        {
            "lon": -74.2293,
            "lat": -13.1551,
            "school_name": "CARICIAS Y TERNURAS",
            "country_name": "Peru",
            "connectivity": false
        },
        {
            "lon": -76.9745,
            "lat": -12.1211,
            "school_name": "CASUARINAS INTERNATIONAL COLLEGE",
            "country_name": "Peru",
            "connectivity": false
        },
        {
            "lon": -76.2559,
            "lat": -10.6834,
            "school_name": "CEBA - 03 ANTENOR RIZO PATRON LEQUERICA",
            "country_name": "Peru",
            "connectivity": false
        },
        {
            "lon": -77.0191,
            "lat": -11.8763,
            "school_name": "CEBA - LA PONTIFICIA",
            "country_name": "Peru",
            "connectivity": false
        },
        {
            "lon": -72.4921,
            "lat": -16.0766,
            "school_name": "CRAEI CASTILLA",
            "country_name": "Peru",
            "connectivity": false
        },
        {
            "lon": -77.0537,
            "lat": -11.9665,
            "school_name": "CRECIENDO CON AMOR",
            "country_name": "Peru",
            "connectivity": false
        },
        {
            "lon": -79.7076,
            "lat": -6.1557,
            "school_name": "CRUZ DE CHALPON",
            "country_name": "Peru",
            "connectivity": false
        },
        {
            "lon": -72.1911,
            "lat": -16.3642,
            "school_name": "EL CARMEN",
            "country_name": "Peru",
            "connectivity": false
        },
        {
            "lon": -76.9969,
            "lat": -12.1953,
            "school_name": "EL SEMBRADOR",
            "country_name": "Peru",
            "connectivity": false
        },
        {
            "lon": -71.9855,
            "lat": -13.5312,
            "school_name": "GRAN MARISCAL ANDRES AVELINO CACERES",
            "country_name": "Peru",
            "connectivity": false
        },
        {
            "lon": -71.5927,
            "lat": -16.4132,
            "school_name": "GRAN PADRE SAN AGUSTIN",
            "country_name": "Peru",
            "connectivity": false
        },
        {
            "lon": -76.9702,
            "lat": -11.9375,
            "school_name": "GRAN PASCAL",
            "country_name": "Peru",
            "connectivity": false
        },
        {
            "lon": -76.9378,
            "lat": -12.1854,
            "school_name": "HENDRIK ANTOON LORENTZ",
            "country_name": "Peru",
            "connectivity": false
        },
        {
            "lon": -76.9542,
            "lat": -12.1642,
            "school_name": "HUMBERTO CAUWE",
            "country_name": "Peru",
            "connectivity": false
        },
        {
            "lon": -78.9205,
            "lat": -6.73917,
            "school_name": "ING. ROBERT FUNK RYMANN",
            "country_name": "Peru",
            "connectivity": false
        },
        {
            "lon": -77.0861,
            "lat": -12.0353,
            "school_name": "JESUS REY DE LA PAZ",
            "country_name": "Peru",
            "connectivity": false
        },
        {
            "lon": -76.7663,
            "lat": -12.2986,
            "school_name": "JUAN DE DIOS GUEVARA",
            "country_name": "Peru",
            "connectivity": false
        },
        {
            "lon": -79.8324,
            "lat": -6.77552,
            "school_name": "JUAN MEJIA BACA",
            "country_name": "Peru",
            "connectivity": false
        },
        {
            "lon": -73.12,
            "lat": -12.5834,
            "school_name": "KUVIRIARI BAJO",
            "country_name": "Peru",
            "connectivity": false
        },
        {
            "lon": -74.4813,
            "lat": -13.0479,
            "school_name": "LA CANTUTA",
            "country_name": "Peru",
            "connectivity": false
        },
        {
            "lon": -79.0333,
            "lat": -8.1127,
            "school_name": "LA COCINA DE LOS CHEFF",
            "country_name": "Peru",
            "connectivity": false
        },
        {
            "lon": -76.9993,
            "lat": -12.062,
            "school_name": "LOS ANGELITOS I",
            "country_name": "Peru",
            "connectivity": false
        },
        {
            "lon": 8.53333,
            "lat": 8.48913,
            "school_name": "Name unknown",
            "country_name": "Nigeria",
            "connectivity": false
        },
        {
            "lon": -76.2448,
            "lat": -9.94467,
            "school_name": "MANUEL VILLAVICENCIO GARGATE",
            "country_name": "Peru",
            "connectivity": false
        },
        {
            "lon": -76.9465,
            "lat": -12.1646,
            "school_name": "MARIANISTA",
            "country_name": "Peru",
            "connectivity": false
        },
        {
            "lon": -79.0246,
            "lat": -8.11657,
            "school_name": "MAYOR DE SAN MARCOS",
            "country_name": "Peru",
            "connectivity": false
        },
        {
            "lon": -76.9972,
            "lat": -12.0128,
            "school_name": "NUEVO HORIZONTE",
            "country_name": "Peru",
            "connectivity": false
        },
        {
            "lon": -70.684,
            "lat": -13.5626,
            "school_name": "PUMACHANCA",
            "country_name": "Peru",
            "connectivity": false
        },
        {
            "lon": -77.2459,
            "lat": -11.6032,
            "school_name": "RAYITOS DE SOL",
            "country_name": "Peru",
            "connectivity": false
        },
        {
            "lon": -76.2046,
            "lat": -10.0718,
            "school_name": "RETAMAYOC",
            "country_name": "Peru",
            "connectivity": false
        },
        {
            "lon": -73.2525,
            "lat": -3.73274,
            "school_name": "SAN ANTONIO",
            "country_name": "Peru",
            "connectivity": false
        },
        {
            "lon": -77.0836,
            "lat": -11.9176,
            "school_name": "SAN JOSE DE LADERITAS",
            "country_name": "Peru",
            "connectivity": false
        },
        {
            "lon": -77.0703,
            "lat": -11.9075,
            "school_name": "SAN JOSE IX",
            "country_name": "Peru",
            "connectivity": false
        },
        {
            "lon": -78.1698,
            "lat": -7.33562,
            "school_name": "SAN MARCOS APOSTOL",
            "country_name": "Peru",
            "connectivity": false
        },
        {
            "lon": -77.0829,
            "lat": -11.9774,
            "school_name": "SANTO DOMINGO DE LOS OLIVOS",
            "country_name": "Peru",
            "connectivity": false
        },
        {
            "lon": -76.9275,
            "lat": -12.1815,
            "school_name": "SCHILLER GOETHE",
            "country_name": "Peru",
            "connectivity": false
        },
        {
            "lon": -78.6788,
            "lat": -6.16236,
            "school_name": "SECTOR LONGUTAY DE ANDAMARCA",
            "country_name": "Peru",
            "connectivity": false
        },
        {
            "lon": -76.9749,
            "lat": -12.2034,
            "school_name": "THOMAS ALVA EDISON",
            "country_name": "Peru",
            "connectivity": false
        },
        {
            "lon": 7.393635,
            "lat": 10.50081167,
            "school_name": "Name unknown",
            "country_name": "Nigeria",
            "connectivity": false
        },
        {
            "lon": 7.76466524,
            "lat": 10.1685563,
            "school_name": "Name unknown",
            "country_name": "Nigeria",
            "connectivity": false
        },
        {
            "lon": 8.37047431,
            "lat": 10.13195647,
            "school_name": "Name unknown",
            "country_name": "Nigeria",
            "connectivity": false
        },
        {
            "lon": 8.54400668,
            "lat": 9.338748891,
            "school_name": "Name unknown",
            "country_name": "Nigeria",
            "connectivity": false
        },
        {
            "lon": 8.10942661,
            "lat": 9.8454818,
            "school_name": "Name unknown",
            "country_name": "Nigeria",
            "connectivity": false
        },
        {
            "lon": 9.060156,
            "lat": 11.29968,
            "school_name": "Name unknown",
            "country_name": "Nigeria",
            "connectivity": false
        },
        {
            "lon": 8.827013,
            "lat": 11.80472,
            "school_name": "Name unknown",
            "country_name": "Nigeria",
            "connectivity": false
        },
        {
            "lon": 8.509014358,
            "lat": 12.00321805,
            "school_name": "Name unknown",
            "country_name": "Nigeria",
            "connectivity": false
        },
        {
            "lon": 8.422512,
            "lat": 11.77555,
            "school_name": "Name unknown",
            "country_name": "Nigeria",
            "connectivity": false
        },
        {
            "lon": 12.438026,
            "lat": 9.390809,
            "school_name": "Name unknown",
            "country_name": "Nigeria",
            "connectivity": false
        },
        {
            "lon": 12.161559,
            "lat": 8.745165,
            "school_name": "Name unknown",
            "country_name": "Nigeria",
            "connectivity": false
        },
        {
            "lon": 12.037396,
            "lat": 9.068425,
            "school_name": "Name unknown",
            "country_name": "Nigeria",
            "connectivity": false
        },
        {
            "lon": 13.251318,
            "lat": 10.107796,
            "school_name": "Name unknown",
            "country_name": "Nigeria",
            "connectivity": false
        },
        {
            "lon": 6.078138,
            "lat": 7.831787,
            "school_name": "Name unknown",
            "country_name": "Nigeria",
            "connectivity": false
        },
        {
            "lon": 4.745374,
            "lat": 8.292951,
            "school_name": "Name unknown",
            "country_name": "Nigeria",
            "connectivity": false
        },
        {
            "lon": 3.340722,
            "lat": 6.464785,
            "school_name": "Name unknown",
            "country_name": "Nigeria",
            "connectivity": false
        },
        {
            "lon": 3.255099308,
            "lat": 6.624583382,
            "school_name": "Name unknown",
            "country_name": "Nigeria",
            "connectivity": false
        },
        {
            "lon": 3.982131,
            "lat": 6.588838,
            "school_name": "Name unknown",
            "country_name": "Nigeria",
            "connectivity": false
        },
        {
            "lon": 3.52883,
            "lat": 6.65752,
            "school_name": "Name unknown",
            "country_name": "Nigeria",
            "connectivity": false
        },
        {
            "lon": 3.568193,
            "lat": 6.615408,
            "school_name": "Name unknown",
            "country_name": "Nigeria",
            "connectivity": false
        },
        {
            "lon": 3.34468321,
            "lat": 6.534027937,
            "school_name": "Name unknown",
            "country_name": "Nigeria",
            "connectivity": false
        },
        {
            "lon": 3.307977854,
            "lat": 6.531494353,
            "school_name": "Name unknown",
            "country_name": "Nigeria",
            "connectivity": false
        },
        {
            "lon": 3.33608,
            "lat": 6.49763,
            "school_name": "Name unknown",
            "country_name": "Nigeria",
            "connectivity": false
        },
        {
            "lon": 8.540342,
            "lat": 8.545268,
            "school_name": "Name unknown",
            "country_name": "Nigeria",
            "connectivity": false
        },
        {
            "lon": 8.857952,
            "lat": 8.606726,
            "school_name": "Name unknown",
            "country_name": "Nigeria",
            "connectivity": false
        },
        {
            "lon": 4.60022,
            "lat": 9.37306,
            "school_name": "Name unknown",
            "country_name": "Nigeria",
            "connectivity": false
        },
        {
            "lon": 6.528706152,
            "lat": 9.696281052,
            "school_name": "Name unknown",
            "country_name": "Nigeria",
            "connectivity": false
        },
        {
            "lon": 6.531595,
            "lat": 9.585133333,
            "school_name": "Name unknown",
            "country_name": "Nigeria",
            "connectivity": false
        },
        {
            "lon": 7.255589995,
            "lat": 9.29370862,
            "school_name": "Name unknown",
            "country_name": "Nigeria",
            "connectivity": false
        },
        {
            "lon": 3.19125,
            "lat": 6.734261667,
            "school_name": "Name unknown",
            "country_name": "Nigeria",
            "connectivity": false
        },
        {
            "lon": 3.1557328,
            "lat": 6.63763702,
            "school_name": "Name unknown",
            "country_name": "Nigeria",
            "connectivity": false
        },
        {
            "lon": 3.253826667,
            "lat": 6.78573,
            "school_name": "Name unknown",
            "country_name": "Nigeria",
            "connectivity": false
        },
        {
            "lon": 3.61067,
            "lat": 7.374113333,
            "school_name": "Name unknown",
            "country_name": "Nigeria",
            "connectivity": false
        },
        {
            "lon": 3.8601351,
            "lat": 6.6865959,
            "school_name": "Name unknown",
            "country_name": "Nigeria",
            "connectivity": false
        },
        {
            "lon": 5.762168,
            "lat": 7.525321,
            "school_name": "Name unknown",
            "country_name": "Nigeria",
            "connectivity": false
        },
        {
            "lon": 4.751512,
            "lat": 7.174544,
            "school_name": "Name unknown",
            "country_name": "Nigeria",
            "connectivity": false
        },
        {
            "lon": 7.914109,
            "lat": 4.691609,
            "school_name": "Name unknown",
            "country_name": "Nigeria",
            "connectivity": false
        },
        {
            "lon": 7.7764,
            "lat": 5.306328,
            "school_name": "Name unknown",
            "country_name": "Nigeria",
            "connectivity": false
        },
        {
            "lon": 7.852469,
            "lat": 4.801411,
            "school_name": "Name unknown",
            "country_name": "Nigeria",
            "connectivity": false
        },
        {
            "lon": 7.698117,
            "lat": 5.325644,
            "school_name": "Name unknown",
            "country_name": "Nigeria",
            "connectivity": false
        },
        {
            "lon": 3.917621,
            "lat": 7.760864,
            "school_name": "Name unknown",
            "country_name": "Nigeria",
            "connectivity": false
        },
        {
            "lon": 3.597164,
            "lat": 7.960345,
            "school_name": "Name unknown",
            "country_name": "Nigeria",
            "connectivity": false
        },
        {
            "lon": 4.073077,
            "lat": 7.469078,
            "school_name": "Name unknown",
            "country_name": "Nigeria",
            "connectivity": false
        },
        {
            "lon": 4.113903,
            "lat": 7.575204,
            "school_name": "Name unknown",
            "country_name": "Nigeria",
            "connectivity": false
        },
        {
            "lon": 4.147124,
            "lat": 8.044072,
            "school_name": "Name unknown",
            "country_name": "Nigeria",
            "connectivity": false
        },
        {
            "lon": 3.49104,
            "lat": 8.65666,
            "school_name": "Name unknown",
            "country_name": "Nigeria",
            "connectivity": false
        },
        {
            "lon": 4.344853,
            "lat": 7.957044,
            "school_name": "Name unknown",
            "country_name": "Nigeria",
            "connectivity": false
        },
        {
            "lon": 4.334114,
            "lat": 7.956698,
            "school_name": "Name unknown",
            "country_name": "Nigeria",
            "connectivity": false
        },
        {
            "lon": 9.760775,
            "lat": 9.202366,
            "school_name": "Name unknown",
            "country_name": "Nigeria",
            "connectivity": false
        },
        {
            "lon": 7.397759,
            "lat": 4.48277,
            "school_name": "Name unknown",
            "country_name": "Nigeria",
            "connectivity": false
        },
        {
            "lon": 7.371864,
            "lat": 4.672033,
            "school_name": "Name unknown",
            "country_name": "Nigeria",
            "connectivity": false
        },
        {
            "lon": 6.67131,
            "lat": 5.395755,
            "school_name": "Name unknown",
            "country_name": "Nigeria",
            "connectivity": false
        },
        {
            "lon": 7.29882,
            "lat": 11.44622,
            "school_name": "Name unknown",
            "country_name": "Nigeria",
            "connectivity": false
        },
        {
            "lon": 7.49392316,
            "lat": 12.71216663,
            "school_name": "Name unknown",
            "country_name": "Nigeria",
            "connectivity": false
        },
        {
            "lon": 8.98887852,
            "lat": 10.04110011,
            "school_name": "Name unknown",
            "country_name": "Nigeria",
            "connectivity": false
        },
        {
            "lon": 3.725620508,
            "lat": 12.25589275,
            "school_name": "Name unknown",
            "country_name": "Nigeria",
            "connectivity": false
        },
        {
            "lon": 4.09519951,
            "lat": 12.13369431,
            "school_name": "Name unknown",
            "country_name": "Nigeria",
            "connectivity": false
        },
        {
            "lon": 6.294199,
            "lat": 4.633561,
            "school_name": "Name unknown",
            "country_name": "Nigeria",
            "connectivity": false
        },
        {
            "lon": 5.2708,
            "lat": 12.96062,
            "school_name": "Name unknown",
            "country_name": "Nigeria",
            "connectivity": false
        },
        {
            "lon": 4.70497484,
            "lat": 13.02098202,
            "school_name": "Name unknown",
            "country_name": "Nigeria",
            "connectivity": false
        },
        {
            "lon": 5.10544203,
            "lat": 13.69064639,
            "school_name": "Name unknown",
            "country_name": "Nigeria",
            "connectivity": false
        },
        {
            "lon": 8.66456,
            "lat": 7.24259,
            "school_name": "Name unknown",
            "country_name": "Nigeria",
            "connectivity": false
        },
        {
            "lon": 8.327979,
            "lat": 7.017001,
            "school_name": "Name unknown",
            "country_name": "Nigeria",
            "connectivity": false
        },
        {
            "lon": 8.499021,
            "lat": 7.034649,
            "school_name": "Name unknown",
            "country_name": "Nigeria",
            "connectivity": false
        },
        {
            "lon": 8.394436667,
            "lat": 5.320608333,
            "school_name": "Name unknown",
            "country_name": "Nigeria",
            "connectivity": false
        },
        {
            "lon": 8.3206217,
            "lat": 4.9178967,
            "school_name": "Name unknown",
            "country_name": "Nigeria",
            "connectivity": false
        },
        {
            "lon": 8.335982,
            "lat": 4.959205,
            "school_name": "Name unknown",
            "country_name": "Nigeria",
            "connectivity": false
        },
        {
            "lon": 8.65378,
            "lat": 6.510303333,
            "school_name": "Name unknown",
            "country_name": "Nigeria",
            "connectivity": false
        },
        {
            "lon": 8.08416,
            "lat": 5.8080317,
            "school_name": "Name unknown",
            "country_name": "Nigeria",
            "connectivity": false
        },
        {
            "lon": 8.084798,
            "lat": 5.757681,
            "school_name": "Name unknown",
            "country_name": "Nigeria",
            "connectivity": false
        },
        {
            "lon": 8.416446,
            "lat": 6.713927,
            "school_name": "Name unknown",
            "country_name": "Nigeria",
            "connectivity": false
        },
        {
            "lon": -58.2439081,
            "lat": -37.3893246,
            "school_name": "ESCUELA PRIMARIA N\u00ba45 MIGUEL JOSE MARIEZCURRENA",
            "country_name": "Argentina",
            "connectivity": false
        },
        {
            "lon": -72.0759,
            "lat": -13.3647,
            "school_name": "303 SAGRADO NI\u00d1O JESUS",
            "country_name": "Peru",
            "connectivity": false
        },
        {
            "lon": -76.9199,
            "lat": -12.1887,
            "school_name": "7088 VICE-ALMIRANTE GERONIMO CAFFERATA MARAZZI",
            "country_name": "Peru",
            "connectivity": false
        },
        {
            "lon": -69.5166,
            "lat": -16.0942,
            "school_name": "738",
            "country_name": "Peru",
            "connectivity": false
        },
        {
            "lon": -77.7961,
            "lat": -8.02604,
            "school_name": "ESTRELLITAS DE JESUS",
            "country_name": "Peru",
            "connectivity": false
        },
        {
            "lon": -77.0196,
            "lat": -12.0384,
            "school_name": "MI CASITA FELIZ",
            "country_name": "Peru",
            "connectivity": false
        },
        {
            "lon": -79.082,
            "lat": -6.21536,
            "school_name": "SANTA ROSA",
            "country_name": "Peru",
            "connectivity": false
        },
        {
            "lon": 7.495786055,
            "lat": 6.390541371,
            "school_name": "Name unknown",
            "country_name": "Nigeria",
            "connectivity": false
        },