{
    "name": "Patchwork Kingdom #58 | Sanjilta",
    "description": "The twin kingdoms of Sanjilta, separated by a digital divide. A bustling kingdom of 167 schools on top that are all connected to the internet, and 123 schools, not connected, hidden in the upside down kingdom | Created for Giga (GigaConnect.org) \u2014 connecting every school in the world \u2014 in celebration of UNICEF's 75th birthday, by Nadieh Bremer",
    "external_url": "https://dummyURL.com/patchwork_kingdoms_58",
    "image": "https://dummy-storage-url.com/patchwork_kingdoms_58.png",
    "attributes": [
        {
            "trait_type": "Color palette",
            "value": "unicorn"
        },
        {
            "display_type": "number",
            "trait_type": "Schools",
            "value": 316,
            "max_value": 460
        },
        {
            "display_type": "number",
            "trait_type": "Ratio - Connected",
            "value": 0.53,
            "max_value": 1
        },
        {
            "display_type": "number",
            "trait_type": "Ratio - Unconnected",
            "value": 0.39,
            "max_value": 1
        },
        {
            "display_type": "number",
            "trait_type": "Ratio - Data unavailable",
            "value": 0.08,
            "max_value": 1
        },
        {
            "trait_type": "Countries",
            "value": "BR-CO-CR-HN-KG-KZ-NA-PH-PS-RW-SL-ZW"
        },
        {
            "display_type": "number",
            "trait_type": "Symbols",
            "value": 45,
            "max_value": 51
        }
    ],
    "cluster_id": 58,
    "num_schools": 316,
    "num_schools_connected": 167,
    "num_schools_unconnected": 123,
    "num_schools_unknown": 26,
    "schools": [
        {
            "lon": -88.09902,
            "lat": 14.16179,
            "school_name": "ANTONINO OSORIO DEL CID",
            "country_name": "Honduras",
            "connectivity": true
        },
        {
            "lon": -88.87267,
            "lat": 14.38595,
            "school_name": "NARCISO CASTILLO",
            "country_name": "Honduras",
            "connectivity": true
        },
        {
            "lon": -85.55731,
            "lat": 15.08417,
            "school_name": "MARCO AURELIO SOTO",
            "country_name": "Honduras",
            "connectivity": true
        },
        {
            "lon": -86.76807,
            "lat": 14.94249,
            "school_name": "JERUSALEN",
            "country_name": "Honduras",
            "connectivity": true
        },
        {
            "lon": -88.64481,
            "lat": 15.30471,
            "school_name": "JOSE CECILIO DEL VALLE",
            "country_name": "Honduras",
            "connectivity": true
        },
        {
            "lon": -52.6865,
            "lat": -27.0981,
            "school_name": "EB MUN JARDIM DO LAGO",
            "country_name": "Brazil",
            "connectivity": true
        },
        {
            "lon": -49.3699,
            "lat": -26.2705,
            "school_name": "EB MUN PROFESSOR NEWTON MENDES",
            "country_name": "Brazil",
            "connectivity": true
        },
        {
            "lon": -43.4791,
            "lat": -22.884,
            "school_name": "0817505 CIEP MARECHAL JULIO CAETANO HORTA BARBOSA",
            "country_name": "Brazil",
            "connectivity": true
        },
        {
            "lon": -87.98802,
            "lat": 14.74868,
            "school_name": "OSCAR ROLANDO MANUELES",
            "country_name": "Honduras",
            "connectivity": true
        },
        {
            "lon": -87.82923,
            "lat": 14.6006,
            "school_name": "REPUBLICA DE HONDURAS",
            "country_name": "Honduras",
            "connectivity": true
        },
        {
            "lon": -87.94645,
            "lat": 14.67197,
            "school_name": "ARELY AZUCENA MELARA MELGAR",
            "country_name": "Honduras",
            "connectivity": true
        },
        {
            "lon": -74.40166667,
            "lat": 9.62777777,
            "school_name": "Name unknown",
            "country_name": "Colombia",
            "connectivity": false
        },
        {
            "lon": -52.8914,
            "lat": -25.4481,
            "school_name": "ARAUCARIA E M EI EF",
            "country_name": "Brazil",
            "connectivity": true
        },
        {
            "lon": -87.98139,
            "lat": 15.48453,
            "school_name": "J.N. LEONARDO MEJIA BONILLA",
            "country_name": "Honduras",
            "connectivity": true
        },
        {
            "lon": -87.87067,
            "lat": 14.99358,
            "school_name": "MARIO RAMON LOPEZ",
            "country_name": "Honduras",
            "connectivity": true
        },
        {
            "lon": -87.15865,
            "lat": 13.58873,
            "school_name": "ROBERTO SUAZO CORDOVA",
            "country_name": "Honduras",
            "connectivity": true
        },
        {
            "lon": -87.59964,
            "lat": 13.86858,
            "school_name": "JOSE TRINIDAD REYES",
            "country_name": "Honduras",
            "connectivity": true
        },
        {
            "lon": -87.57172,
            "lat": 13.84189,
            "school_name": "RAMON ROSA",
            "country_name": "Honduras",
            "connectivity": true
        },
        {
            "lon": -87.23248,
            "lat": 13.92652,
            "school_name": "EL CRUCE",
            "country_name": "Honduras",
            "connectivity": true
        },
        {
            "lon": 32.83599,
            "lat": -19.93858,
            "school_name": "NYAHODE UNION",
            "country_name": "Zimbabwe",
            "connectivity": true
        },
        {
            "lon": 30.81286,
            "lat": -17.57346,
            "school_name": "BEREA",
            "country_name": "Zimbabwe",
            "connectivity": true
        },
        {
            "lon": -84.04399115,
            "lat": 9.97151745,
            "school_name": "LA ISLA",
            "country_name": "Costa Rica",
            "connectivity": true
        },
        {
            "lon": -84.02591654,
            "lat": 9.97307855,
            "school_name": "ESTADO DE ISRAEL",
            "country_name": "Costa Rica",
            "connectivity": true
        },
        {
            "lon": -84.09203126,
            "lat": 10.06516161,
            "school_name": "EL MONTECITO",
            "country_name": "Costa Rica",
            "connectivity": true
        },
        {
            "lon": -84.7846409,
            "lat": 10.09911112,
            "school_name": "ZAGALA VIEJA",
            "country_name": "Costa Rica",
            "connectivity": true
        },
        {
            "lon": -82.84022845,
            "lat": 8.54854613,
            "school_name": "CONFRATERNIDAD",
            "country_name": "Costa Rica",
            "connectivity": true
        },
        {
            "lon": -83.70105516,
            "lat": 10.52507671,
            "school_name": "EL CEDRAL",
            "country_name": "Costa Rica",
            "connectivity": true
        },
        {
            "lon": 35.13093,
            "lat": 32.263525,
            "school_name": "Beit lid Secondary Girls",
            "country_name": "Palestine",
            "connectivity": true
        },
        {
            "lon": 31.13825,
            "lat": -18.10176,
            "school_name": "CHITSVEDEMO",
            "country_name": "Zimbabwe",
            "connectivity": true
        },
        {
            "lon": -83.66879883,
            "lat": 10.45610168,
            "school_name": "LICEO CUATRO ESQUINAS",
            "country_name": "Costa Rica",
            "connectivity": true
        },
        {
            "lon": 29.59525,
            "lat": -17.2364,
            "school_name": "OLDONYO",
            "country_name": "Zimbabwe",
            "connectivity": true
        },
        {
            "lon": 28.95685,
            "lat": -18.6703,
            "school_name": "MATEME",
            "country_name": "Zimbabwe",
            "connectivity": true
        },
        {
            "lon": 27.83646,
            "lat": -18.06621,
            "school_name": "LUSULU HIGH",
            "country_name": "Zimbabwe",
            "connectivity": true
        },
        {
            "lon": -36.7165,
            "lat": -9.3983,
            "school_name": "ESCOLA MUNICIPAL ANTONIO BARBOSA LEITE",
            "country_name": "Brazil",
            "connectivity": true
        },
        {
            "lon": -45.8316,
            "lat": -12.7008,
            "school_name": "ESCOLA MUNICIPAL ANTONIO CARLOS MAGALHAES",
            "country_name": "Brazil",
            "connectivity": true
        },
        {
            "lon": -76.914706,
            "lat": 0.429411,
            "school_name": "I.E.R. MARAVELEZ - SEDE PRINCIPAL",
            "country_name": "Colombia",
            "connectivity": true
        },
        {
            "lon": -72.74388,
            "lat": 7.289012962,
            "school_name": "Name unknown",
            "country_name": "Colombia",
            "connectivity": false
        },
        {
            "lon": -75.44679334,
            "lat": 4.05241235,
            "school_name": "Name unknown",
            "country_name": "Colombia",
            "connectivity": false
        },
        {
            "lon": -74.08053813,
            "lat": 4.674139035,
            "school_name": "Name unknown",
            "country_name": "Colombia",
            "connectivity": false
        },
        {
            "lon": 122.1531102,
            "lat": 18.4960385,
            "school_name": "Tangatan ES",
            "country_name": "Philippines",
            "connectivity": true
        },
        {
            "lon": 120.142976,
            "lat": 12.045753,
            "school_name": "Sta. Monica ES",
            "country_name": "Philippines",
            "connectivity": true
        },
        {
            "lon": 124.5897675,
            "lat": 12.48468285,
            "school_name": "Cabayhan Elementary School",
            "country_name": "Philippines",
            "connectivity": true
        },
        {
            "lon": 124.6860014,
            "lat": 10.94202684,
            "school_name": "Cambalading ES",
            "country_name": "Philippines",
            "connectivity": true
        },
        {
            "lon": 125.4494,
            "lat": 12.085,
            "school_name": "Dalid ES",
            "country_name": "Philippines",
            "connectivity": true
        },
        {
            "lon": 124.6292496,
            "lat": 12.50831368,
            "school_name": "Generoso R. Frigillana Memorial School",
            "country_name": "Philippines",
            "connectivity": true
        },
        {
            "lon": 125.1858,
            "lat": 12.1688,
            "school_name": "Tugas ES",
            "country_name": "Philippines",
            "connectivity": true
        },
        {
            "lon": 125.60955,
            "lat": 10.128182,
            "school_name": "Nueva Estrella CES",
            "country_name": "Philippines",
            "connectivity": true
        },
        {
            "lon": 122.022896,
            "lat": 6.329657,
            "school_name": "Tinutungan PS",
            "country_name": "Philippines",
            "connectivity": true
        },
        {
            "lon": -41.506157,
            "lat": -17.85107,
            "school_name": "PEM ABELHINHA",
            "country_name": "Brazil",
            "connectivity": true
        },
        {
            "lon": -44.028152,
            "lat": -19.842573,
            "school_name": "EM GLORIA MARQUES DINIZ",
            "country_name": "Brazil",
            "connectivity": true
        },
        {
            "lon": -46.178635,
            "lat": -22.58548,
            "school_name": "CENTRO DE EDUCACAO INFANTIL MUNICIPAL SAGRADA FAMILIA",
            "country_name": "Brazil",
            "connectivity": false
        },
        {
            "lon": -41.923893,
            "lat": -20.691193,
            "school_name": "CEMEI CONCEICAO FERREIRA CABRAL- VO CONCEICAO",
            "country_name": "Brazil",
            "connectivity": false
        },
        {
            "lon": -71.748056,
            "lat": 7.003611,
            "school_name": "INDIGENA  ALTO SAN MIGUEL",
            "country_name": "Colombia",
            "connectivity": true
        },
        {
            "lon": -72.56339775,
            "lat": 6.463884089,
            "school_name": "ESC MONTERREDONDO 1",
            "country_name": "Colombia",
            "connectivity": true
        },
        {
            "lon": -72.42209832,
            "lat": 7.236633367,
            "school_name": "SEDE JUAN PEREZ",
            "country_name": "Colombia",
            "connectivity": true
        },
        {
            "lon": -72.45522042,
            "lat": 7.157692369,
            "school_name": "SEDE VALEGRA",
            "country_name": "Colombia",
            "connectivity": true
        },
        {
            "lon": -72.2695034,
            "lat": 11.71522853,
            "school_name": "INSTITUCION EDUCATIVA ALFONSO LOPEZ PUMAREJO",
            "country_name": "Colombia",
            "connectivity": true
        },
        {
            "lon": -72.56883827,
            "lat": 7.847933862,
            "school_name": "ESC RUR  EL CARMEN DE TONCHALA",
            "country_name": "Colombia",
            "connectivity": true
        },
        {
            "lon": -73.022778,
            "lat": 5.814444,
            "school_name": "SEDE LA MILAGROSA",
            "country_name": "Colombia",
            "connectivity": true
        },
        {
            "lon": -73.15250658,
            "lat": 5.2171249,
            "school_name": "ESC SANTOS ACOSTA",
            "country_name": "Colombia",
            "connectivity": true
        },
        {
            "lon": -72.89268923,
            "lat": 11.53504482,
            "school_name": "HELION PINEDO RIOS",
            "country_name": "Colombia",
            "connectivity": true
        },
        {
            "lon": -73.256924,
            "lat": 2.87714,
            "school_name": "SEDE CA\u00d1O BLANCO",
            "country_name": "Colombia",
            "connectivity": true
        },
        {
            "lon": -73.05221,
            "lat": 11.246804,
            "school_name": "CENTRO EDUCATIVO JOSE CHOLES",
            "country_name": "Colombia",
            "connectivity": true
        },
        {
            "lon": -73.39345624,
            "lat": 5.057141903,
            "school_name": "ESC RURAL DE MUTATEA",
            "country_name": "Colombia",
            "connectivity": true
        },
        {
            "lon": -73.17431188,
            "lat": 10.00449865,
            "school_name": "ESC. NUEVA LA EUROPA",
            "country_name": "Colombia",
            "connectivity": true
        },
        {
            "lon": -73.20468915,
            "lat": 9.531910795,
            "school_name": "SEDE EL ZUMBADOR ALTO",
            "country_name": "Colombia",
            "connectivity": true
        },
        {
            "lon": -73.34593174,
            "lat": 8.492711293,
            "school_name": "SEDE BELLA UNION",
            "country_name": "Colombia",
            "connectivity": true
        },
        {
            "lon": -75.09625661,
            "lat": 5.94685776,
            "school_name": "C. E. R. PAJUI",
            "country_name": "Colombia",
            "connectivity": true
        },
        {
            "lon": -75.928597,
            "lat": 1.978034,
            "school_name": "ALTO SANTA BARBARA",
            "country_name": "Colombia",
            "connectivity": true
        },
        {
            "lon": -75.98184711,
            "lat": 6.404597922,
            "school_name": "LICEO SAN JUAN BOSCO",
            "country_name": "Colombia",
            "connectivity": true
        },
        {
            "lon": -76.09873478,
            "lat": 1.96789017,
            "school_name": "LA MANUELITA",
            "country_name": "Colombia",
            "connectivity": true
        },
        {
            "lon": -76.129999,
            "lat": 8.054663,
            "school_name": "ESC SAN CARLOS OSCURANA",
            "country_name": "Colombia",
            "connectivity": true
        },
        {
            "lon": -76.47021457,
            "lat": 2.631341833,
            "school_name": "MARINA BELTRAN DE USENDA (SEDE PRINCIPAL)",
            "country_name": "Colombia",
            "connectivity": true
        },
        {
            "lon": -76.465278,
            "lat": 6.234167,
            "school_name": "C. E. R. PUNTA DE OCAIDO",
            "country_name": "Colombia",
            "connectivity": true
        },
        {
            "lon": -55.198017,
            "lat": -6.5994463,
            "school_name": "C E MARIA DA CONCEICAO FREIRE",
            "country_name": "Brazil",
            "connectivity": true
        },
        {
            "lon": -77.36805556,
            "lat": 5.133333333,
            "school_name": "SEDE ANTONIA SANTOS",
            "country_name": "Colombia",
            "connectivity": true
        },
        {
            "lon": -78.27847803,
            "lat": 2.304326588,
            "school_name": "CENTRO EDUCATIVO EL CEDRO",
            "country_name": "Colombia",
            "connectivity": true
        },
        {
            "lon": -63.825,
            "lat": -10.2012,
            "school_name": "EMEF SEBASTIAO THEODORO BERNARDO FILHO",
            "country_name": "Brazil",
            "connectivity": true
        },
        {
            "lon": -67.8121,
            "lat": -9.986,
            "school_name": "ESC PROF",
            "country_name": "Brazil",
            "connectivity": false
        },
        {
            "lon": -70.7708,
            "lat": -8.1433,
            "school_name": "IFAC - CAMPUS TARAUACA",
            "country_name": "Brazil",
            "connectivity": true
        },
        {
            "lon": -60.0678,
            "lat": -3.0778,
            "school_name": "EM LIRIO DO VALE",
            "country_name": "Brazil",
            "connectivity": true
        },
        {
            "lon": -60.0071,
            "lat": -3.1119,
            "school_name": "ESCOLA ESTADUAL HELENA ARAUJO",
            "country_name": "Brazil",
            "connectivity": true
        },
        {
            "lon": -69.4666,
            "lat": -3.7476,
            "school_name": "ESC MUL INDIGENA TOENATUU",
            "country_name": "Brazil",
            "connectivity": false
        },
        {
            "lon": -55.9511,
            "lat": -1.8918,
            "school_name": "EMEF CORACAO DE JESUS",
            "country_name": "Brazil",
            "connectivity": true
        },
        {
            "lon": -54.9402,
            "lat": -3.1347,
            "school_name": "E M E F FRANCISCO NUNES FERNANDES",
            "country_name": "Brazil",
            "connectivity": false
        },
        {
            "lon": -48.3197,
            "lat": -1.2885,
            "school_name": "EMEF SAO FRANCISCO DE ASSIS",
            "country_name": "Brazil",
            "connectivity": true
        },
        {
            "lon": -47.4634,
            "lat": -0.6387,
            "school_name": "E M E I F PROF MERCEDES CARRERA DE CARVALHO",
            "country_name": "Brazil",
            "connectivity": false
        },
        {
            "lon": -49.3478,
            "lat": -2.1259,
            "school_name": "E M E I F DE JACARE XINGU",
            "country_name": "Brazil",
            "connectivity": false
        },
        {
            "lon": -55.3293,
            "lat": -3.6041,
            "school_name": "E M E I E F PROF CORINA FERREIRA PALMEIRA",
            "country_name": "Brazil",
            "connectivity": false
        },
        {
            "lon": -50.2371,
            "lat": -4.2363,
            "school_name": "E M E F NOSSA SENHORA APARECIDA I",
            "country_name": "Brazil",
            "connectivity": false
        },
        {
            "lon": -53.1274,
            "lat": -2.0006,
            "school_name": "E M E F FERNANDO MARINHO",
            "country_name": "Brazil",
            "connectivity": false
        },
        {
            "lon": -48.4852,
            "lat": -1.4126,
            "school_name": "UEI IZA CUNHA",
            "country_name": "Brazil",
            "connectivity": false
        },
        {
            "lon": -50.6823,
            "lat": 1.3789,
            "school_name": "ESC EST MARIA LUCILA BRAZAO",
            "country_name": "Brazil",
            "connectivity": false
        },
        {
            "lon": -50.9244,
            "lat": 1.3975,
            "school_name": "ESC MUL TARTARUGAL GRANDE",
            "country_name": "Brazil",
            "connectivity": false
        },
        {
            "lon": -47.798,
            "lat": -5.3989,
            "school_name": "ESCOLA MUNICIPAL GETULIO VARGAS",
            "country_name": "Brazil",
            "connectivity": true
        },
        {
            "lon": -49.52,
            "lat": -11.8013,
            "school_name": "ESCOLA MUNICIPAL DALCI BARROS MILHOMENS",
            "country_name": "Brazil",
            "connectivity": true
        },
        {
            "lon": -44.4603,
            "lat": -2.3801,
            "school_name": "EM BARAO DE GRAJAU",
            "country_name": "Brazil",
            "connectivity": false
        },
        {
            "lon": -42.7725,
            "lat": -3.139,
            "school_name": "EM NESTOR RODRIGUES DA SILVA",
            "country_name": "Brazil",
            "connectivity": false
        },
        {
            "lon": -48.1468,
            "lat": -22.5704,
            "school_name": "FERNANDO MARIA FACHINI FREI",
            "country_name": "Brazil",
            "connectivity": true
        },
        {
            "lon": -45.6117,
            "lat": -4.1584,
            "school_name": "UE LEONEL COELHO",
            "country_name": "Brazil",
            "connectivity": false
        },
        {
            "lon": -43.0921,
            "lat": -3.5887,
            "school_name": "GE SAO JOAO",
            "country_name": "Brazil",
            "connectivity": false
        },
        {
            "lon": -44.0696,
            "lat": -4.5103,
            "school_name": "EM RAIMUNDO GOMES",
            "country_name": "Brazil",
            "connectivity": true
        },
        {
            "lon": -43.8918,
            "lat": -4.4463,
            "school_name": "COLEGIO MUNICIPAL SAO FRANCISCO",
            "country_name": "Brazil",
            "connectivity": true
        },
        {
            "lon": -47.0486,
            "lat": -6.4701,
            "school_name": "EM PARAISO DO SABER",
            "country_name": "Brazil",
            "connectivity": false
        },
        {
            "lon": -42.3596,
            "lat": -5.456,
            "school_name": "UNID ESC FLORENCIO MENDES DA SILVA",
            "country_name": "Brazil",
            "connectivity": false
        },
        {
            "lon": -47.961,
            "lat": -16.1722,
            "school_name": "ESCOLA MUNICIPAL ESTRELA DALVA X MARCILIO DIAS",
            "country_name": "Brazil",
            "connectivity": true
        },
        {
            "lon": -61.0254,
            "lat": -11.5374,
            "school_name": "EMEIEF SIMONE MOURA ROSA",
            "country_name": "Brazil",
            "connectivity": true
        },
        {
            "lon": -44.0078,
            "lat": -8.2063,
            "school_name": "UNIDADE ESCOLA EMANOEL FONSECA",
            "country_name": "Brazil",
            "connectivity": false
        },
        {
            "lon": -40.8574,
            "lat": -6.8197,
            "school_name": "UNID ESC JOAQUIM DOMINGOS DE SOUSA",
            "country_name": "Brazil",
            "connectivity": false
        },
        {
            "lon": -47.1629,
            "lat": -22.8424,
            "school_name": "ALFREDO CASTRO DONAIRE ESCOLA MUNICIPAL",
            "country_name": "Brazil",
            "connectivity": true
        },
        {
            "lon": -39.8582,
            "lat": -12.8701,
            "school_name": "CENTRO EDUCACIONAL CONRADO MENEZES DA SILVA",
            "country_name": "Brazil",
            "connectivity": true
        },
        {
            "lon": -38.2002,
            "lat": -4.492,
            "school_name": "RAIMUNDO MIRANDA MACHADO EMEF",
            "country_name": "Brazil",
            "connectivity": false
        },
        {
            "lon": -42.6871,
            "lat": -6.2351,
            "school_name": "CETI AURORA BARBOSA DE OLIVEIRA",
            "country_name": "Brazil",
            "connectivity": true
        },
        {
            "lon": -38.6302,
            "lat": -3.8341,
            "school_name": "JOAQUIM AGUIAR EMEIEF",
            "country_name": "Brazil",
            "connectivity": true
        },
        {
            "lon": -40.8513,
            "lat": -5.3813,
            "school_name": "MANOEL DIVINO DE ARAUJO ESC CID",
            "country_name": "Brazil",
            "connectivity": true
        },
        {
            "lon": -39.881,
            "lat": -6.1344,
            "school_name": "FRANCISCO RODRIGUES PEREIRA EEF",
            "country_name": "Brazil",
            "connectivity": true
        },
        {
            "lon": -39.2394,
            "lat": -3.6706,
            "school_name": "PROF",
            "country_name": "Brazil",
            "connectivity": true
        },
        {
            "lon": -35.3355,
            "lat": -6.0708,
            "school_name": "EE JOAO DE PAIVA ENS DE 1 GRAU",
            "country_name": "Brazil",
            "connectivity": true
        },
        {
            "lon": -38.4091,
            "lat": -6.3649,
            "school_name": "UNIDADE DE ENSINO VI MARIA UMBELINA",
            "country_name": "Brazil",
            "connectivity": false
        },
        {
            "lon": -56.0016,
            "lat": -4.2629,
            "school_name": "E M E F ROTARYANO DEJALMA SERIQUE",
            "country_name": "Brazil",
            "connectivity": true
        },
        {
            "lon": -38.1485,
            "lat": -7.179,
            "school_name": "GRUPO MUNICIPAL MELANCIA",
            "country_name": "Brazil",
            "connectivity": false
        },
        {
            "lon": -37.764,
            "lat": -7.6609,
            "school_name": "EEEFM POVOADO SILVESTRE",
            "country_name": "Brazil",
            "connectivity": true
        },
        {
            "lon": -35.7561,
            "lat": -7.435,
            "school_name": "GR ESC FRANCISCO JOAQUIM DO NASCIMENTO",
            "country_name": "Brazil",
            "connectivity": false
        },
        {
            "lon": -40.6577,
            "lat": -7.448,
            "school_name": "ESCOLA JOAO RODRIGUES DE ALENCAR",
            "country_name": "Brazil",
            "connectivity": true
        },
        {
            "lon": -49.1345,
            "lat": -5.3486,
            "school_name": "EMEF PROF\u00aa JUDITH GOMES LEITAO",
            "country_name": "Brazil",
            "connectivity": true
        },
        {
            "lon": -38.4825,
            "lat": -8.6115,
            "school_name": "ESCOLA MUNICIPAL SAO JOSE DO ATICUM",
            "country_name": "Brazil",
            "connectivity": false
        },
        {
            "lon": -36.7013,
            "lat": -8.179,
            "school_name": "ESCOLA MUNICIPAL JOAO MARTINS",
            "country_name": "Brazil",
            "connectivity": true
        },
        {
            "lon": -35.0064,
            "lat": -8.0251,
            "school_name": "ESC MUL NOSSA SENHORA DO CARMO",
            "country_name": "Brazil",
            "connectivity": true
        },
        {
            "lon": -35.7269,
            "lat": -8.6866,
            "school_name": "ESCOLA MUNICIPAL NOSSA SENHORA DE SANTANA",
            "country_name": "Brazil",
            "connectivity": false
        },
        {
            "lon": -36.4654,
            "lat": -8.8779,
            "school_name": "ESC MUN PROFESSOR ANTONIO GONCALVES DIAS - CAIC",
            "country_name": "Brazil",
            "connectivity": true
        },
        {
            "lon": -34.8933,
            "lat": -8.0878,
            "school_name": "ESCOLA MUNICIPAL PROFESSOR PROFESSOR SOLANO MAGALHAES",
            "country_name": "Brazil",
            "connectivity": true
        },
        {
            "lon": -35.7657,
            "lat": -9.6722,
            "school_name": "CENTRO MUNICIPAL DE EDUCACAO INFANTIL VICE-GOVERNADOR FRANCISCO MELLO",
            "country_name": "Brazil",
            "connectivity": true
        },
        {
            "lon": -39.4022,
            "lat": -12.2996,
            "school_name": "ESCOLA PROFESSORA EULIRA DE OLIVEIRA DIAS SILVA",
            "country_name": "Brazil",
            "connectivity": false
        },
        {
            "lon": -39.3356,
            "lat": -12.1362,
            "school_name": "GRUPO ESCOLAR PONTO SERRA PRETA",
            "country_name": "Brazil",
            "connectivity": true
        },
        {
            "lon": -34.9394,
            "lat": -8.0504,
            "school_name": "CRECHE MUNICIPAL WALDIR SAVLUSCHINSKE",
            "country_name": "Brazil",
            "connectivity": true
        },
        {
            "lon": -39.4697,
            "lat": -14.2272,
            "school_name": "ESCOLA MUNICIPAL RICARDO MARTINS PINTO DA ROCHA",
            "country_name": "Brazil",
            "connectivity": false
        },
        {
            "lon": -39.0007,
            "lat": -13.0798,
            "school_name": "CRECHE MUNICIPAL NOSSA SENHORA SANTANA",
            "country_name": "Brazil",
            "connectivity": true
        },
        {
            "lon": -44.9027,
            "lat": -20.162,
            "school_name": "EE DONA DIVA DE OLIVEIRA",
            "country_name": "Brazil",
            "connectivity": true
        },
        {
            "lon": -37.2484,
            "lat": -9.3704,
            "school_name": "ESCOLA MUNICIPAL DE EDUCACAO BASICA BENEDITO MELO",
            "country_name": "Brazil",
            "connectivity": true
        },
        {
            "lon": -42.4568,
            "lat": -18.7031,
            "school_name": "EM DE BORRACHUDOS",
            "country_name": "Brazil",
            "connectivity": false
        },
        {
            "lon": -41.31,
            "lat": -17.8827,
            "school_name": "PEM CRIANCA FELIZ",
            "country_name": "Brazil",
            "connectivity": false
        },
        {
            "lon": -42.9331,
            "lat": -21.5256,
            "school_name": "PEM PATINHO FELIZ",
            "country_name": "Brazil",
            "connectivity": false
        },
        {
            "lon": -43.786,
            "lat": -20.6545,
            "school_name": "CRECHE MUNICIPAL MARIA DA GLORIA DIAS RIBEIRO",
            "country_name": "Brazil",
            "connectivity": false
        },
        {
            "lon": -41.4361,
            "lat": -19.8213,
            "school_name": "CESEC VALDIR PINHEIRO DE LACERDA",
            "country_name": "Brazil",
            "connectivity": true
        },
        {
            "lon": -45.9359,
            "lat": -21.4301,
            "school_name": "EMEI PROFESSORA ISOLINA BARBOSA ELIAS - OS CANARINHOS",
            "country_name": "Brazil",
            "connectivity": true
        },
        {
            "lon": -35.0162,
            "lat": -8.059,
            "school_name": "ESCOLA MUNICIPAL JOSEFA BATISTA DA SILVA",
            "country_name": "Brazil",
            "connectivity": true
        },
        {
            "lon": -43.5036,
            "lat": -22.481,
            "school_name": "CE ALVARO ALVIM",
            "country_name": "Brazil",
            "connectivity": true
        },
        {
            "lon": -46.6994,
            "lat": -24.1297,
            "school_name": "CRECHE MUNICIPAL MANOEL JOSE DA SILVA",
            "country_name": "Brazil",
            "connectivity": false
        },
        {
            "lon": -46.7168,
            "lat": -23.4879,
            "school_name": "EMEI OLGA MARIA GERMANO MARTINS DOMINGOS PROFA",
            "country_name": "Brazil",
            "connectivity": true
        },
        {
            "lon": -46.9819,
            "lat": -22.9461,
            "school_name": "EMELY TOFOLO MACHADO EMEB",
            "country_name": "Brazil",
            "connectivity": true
        },
        {
            "lon": -46.5765,
            "lat": -23.4502,
            "school_name": "EMEI CELSO DE SOUSA OLIVEIRA PROF",
            "country_name": "Brazil",
            "connectivity": true
        },
        {
            "lon": -46.8436,
            "lat": -23.5945,
            "school_name": "JOAO JAYME JUVENAL RICCI AYRES EM",
            "country_name": "Brazil",
            "connectivity": true
        },
        {
            "lon": -42.845,
            "lat": -13.9099,
            "school_name": "GRUPO ESC DR JOAQUIM V CASTRO II",
            "country_name": "Brazil",
            "connectivity": true
        },
        {
            "lon": -46.9901,
            "lat": -23.0163,
            "school_name": "CUCA CENTRO DE EDUCACAO INFANTIL",
            "country_name": "Brazil",
            "connectivity": true
        },
        {
            "lon": -47.2366,
            "lat": -23.1226,
            "school_name": "NIZIO VIEIRA PROF EMEB DO COMPLEXO EDUCACIONAL UNID FUND",
            "country_name": "Brazil",
            "connectivity": true
        },
        {
            "lon": -40.0688,
            "lat": -15.1162,
            "school_name": "ESCOLA MUNICIPAL CARLOS SANTANA",
            "country_name": "Brazil",
            "connectivity": true
        },
        {
            "lon": -39.8024,
            "lat": -7.6852,
            "school_name": "ESCOLA MUNICIPAL JOSE ALVES SILVEIRA",
            "country_name": "Brazil",
            "connectivity": true
        },
        {
            "lon": -47.5956,
            "lat": -22.8279,
            "school_name": "CLAUDETE APARECIDA GUIDOLIM NICOLAI PROFA EMEF",
            "country_name": "Brazil",
            "connectivity": true
        },
        {
            "lon": -47.674,
            "lat": -23.1209,
            "school_name": "ATHAYDE DANIEL EMEB",
            "country_name": "Brazil",
            "connectivity": false
        },
        {
            "lon": -50.5279,
            "lat": -20.2955,
            "school_name": "JOSE LUIZ VIANA COUTINHO DR ETEC",
            "country_name": "Brazil",
            "connectivity": true
        },
        {
            "lon": -46.5876,
            "lat": -23.2494,
            "school_name": "BAIRRO JUNDIAIZINHO",
            "country_name": "Brazil",
            "connectivity": true
        },
        {
            "lon": -37.3521,
            "lat": -9.2324,
            "school_name": "ESCOLA MUNICIPAL DE ENSINO FUNDAMENTAL JOSE RODRIGUES LIMEIRA",
            "country_name": "Brazil",
            "connectivity": true
        },
        {
            "lon": -48.3974,
            "lat": -4.9579,
            "school_name": "EMEIF MELQUIADES JUSTINIANO DA SILVA",
            "country_name": "Brazil",
            "connectivity": true
        },
        {
            "lon": -49.1761,
            "lat": -25.3476,
            "school_name": "ANGELO F DALPRA E M EI EF",
            "country_name": "Brazil",
            "connectivity": true
        },
        {
            "lon": -48.5385,
            "lat": -25.5174,
            "school_name": "ANITA RIBEIRO FONTES C M E I",
            "country_name": "Brazil",
            "connectivity": true
        },
        {
            "lon": -48.4626,
            "lat": -25.6709,
            "school_name": "PRIMAVERA E M EI EF",
            "country_name": "Brazil",
            "connectivity": true
        },
        {
            "lon": -49.2005,
            "lat": -25.4204,
            "school_name": "KO YAMAWAKI E M PROF EI EF",
            "country_name": "Brazil",
            "connectivity": true
        },
        {
            "lon": -49.3078,
            "lat": -25.6493,
            "school_name": "CMAEE CENTRO MUNICIPAL DE ATENDIMENTO EDUCACIONAL ESPECIALIZADO",
            "country_name": "Brazil",
            "connectivity": true
        },
        {
            "lon": -50.1202,
            "lat": -27.7399,
            "school_name": "EMEF PASSO DO SOUZA",
            "country_name": "Brazil",
            "connectivity": false
        },
        {
            "lon": -50.3572,
            "lat": -27.5979,
            "school_name": "ESC MULT MUN LIDIA BELCAMINO PERIM",
            "country_name": "Brazil",
            "connectivity": false
        },
        {
            "lon": -43.4728,
            "lat": -22.8922,
            "school_name": "0817014 ESCOLA MUNICIPAL COMENIUS",
            "country_name": "Brazil",
            "connectivity": true
        },
        {
            "lon": -48.8039,
            "lat": -26.3447,
            "school_name": "E M PROFESSOR SAUL SANTANNA DE OLIVEIRA DIAS",
            "country_name": "Brazil",
            "connectivity": true
        },
        {
            "lon": -49.0187,
            "lat": -28.2079,
            "school_name": "EB ANTONIO DIOMARIO DA ROSA",
            "country_name": "Brazil",
            "connectivity": true
        },
        {
            "lon": -49.4506,
            "lat": -25.3719,
            "school_name": "IRIA BORGES DE MACEDO C E PROFA EF M",
            "country_name": "Brazil",
            "connectivity": true
        },
        {
            "lon": -43.2903,
            "lat": -22.8433,
            "school_name": "0411605 CRECHE MUNICIPAL CARACOL",
            "country_name": "Brazil",
            "connectivity": true
        },
        {
            "lon": -52.3583,
            "lat": -28.239,
            "school_name": "E E DE ENS FUND DE PASSO FUNDO",
            "country_name": "Brazil",
            "connectivity": false
        },
        {
            "lon": -51.4942,
            "lat": -29.1845,
            "school_name": "ESCOLA MUNICIPAL INFANTIL PINGOS E ANJOS",
            "country_name": "Brazil",
            "connectivity": true
        },
        {
            "lon": -54.6248,
            "lat": -20.4912,
            "school_name": "EM PADRE JOSE VALENTIM",
            "country_name": "Brazil",
            "connectivity": true
        },
        {
            "lon": -51.4438,
            "lat": -20.3759,
            "school_name": "EMEIEF JOAQUIM CAMARGO",
            "country_name": "Brazil",
            "connectivity": true
        },
        {
            "lon": -42.546,
            "lat": -13.5579,
            "school_name": "EFA ESCOLA FAMILIA AGRICOLA DE TANQUE NOVO",
            "country_name": "Brazil",
            "connectivity": true
        },
        {
            "lon": -47.8736,
            "lat": -15.7761,
            "school_name": "CEF GAN",
            "country_name": "Brazil",
            "connectivity": true
        },
        {
            "lon": -50.7918,
            "lat": -29.5708,
            "school_name": "INST EST EDUC OLIVIA LAHM HIRT",
            "country_name": "Brazil",
            "connectivity": true
        },
        {
            "lon": -46.5632,
            "lat": -23.6294,
            "school_name": "YOLANDA ASCENCIO PROFESSORA",
            "country_name": "Brazil",
            "connectivity": true
        },
        {
            "lon": -49.6818,
            "lat": -3.7583,
            "school_name": "E M E F PROFESSORA DEUSELITA SALES DE MORAES",
            "country_name": "Brazil",
            "connectivity": true
        },
        {
            "lon": -51.9761,
            "lat": -23.9141,
            "school_name": "SANTO INACIO DE LOYOLA C E EF M N",
            "country_name": "Brazil",
            "connectivity": true
        },
        {
            "lon": -46.8124,
            "lat": -23.2117,
            "school_name": "DIRCE PEDROSO DE SOUZA CENTRO MUNICIPAL DE EDUCACAO BASICA",
            "country_name": "Brazil",
            "connectivity": true
        },
        {
            "lon": -50.0765,
            "lat": -23.2941,
            "school_name": "UBALDINO DO AMARAL C E DR EF M",
            "country_name": "Brazil",
            "connectivity": true
        },
        {
            "lon": -48.3278,
            "lat": -1.3782,
            "school_name": "E M E F PROFA GRACINDA PERES",
            "country_name": "Brazil",
            "connectivity": true
        },
        {
            "lon": -51.2015,
            "lat": -23.3011,
            "school_name": "ANTONIO DE MORAES BARROS C E EF M",
            "country_name": "Brazil",
            "connectivity": true
        },
        {
            "lon": -39.0063,
            "lat": -3.437,
            "school_name": "PEDRO ANTONINO GOMES EMEIF",
            "country_name": "Brazil",
            "connectivity": true
        },
        {
            "lon": -37.7957,
            "lat": -4.4678,
            "school_name": "ARTUR LIRA EEF",
            "country_name": "Brazil",
            "connectivity": true
        },
        {
            "lon": -41.8756,
            "lat": -11.3062,
            "school_name": "ESCOLA MUNICIPAL MARCONDES BATISTA FELIX",
            "country_name": "Brazil",
            "connectivity": true
        },
        {
            "lon": -45.1348,
            "lat": -20.4698,
            "school_name": "EE PROFESSOR ALBERTO CORDEIRO DO COUTO",
            "country_name": "Brazil",
            "connectivity": true
        },
        {
            "lon": -37.6332,
            "lat": -7.7532,
            "school_name": "ESCOLA DE REFERENCIA EM ENSINO MEDIO NORMAL ESTADUAL PROFESSORA IONE DE GOES BARROS",
            "country_name": "Brazil",
            "connectivity": true
        }
    ],
    "num_countries": 12,
    "countries": [
        "Brazil",
        "Colombia",
        "Costa Rica",
        "Honduras",
        "Kazakhstan",
        "Kyrgyzstan",
        "Namibia",
        "Palestine",
        "Philippines",
        "Rwanda",
        "Sierra Leone",
        "Zimbabwe"
    ],
    "schools_no_data": [
        {
            "lon": 26.0608487,
            "lat": -24.4366526,
            "school_name": "Ramogotsi",
            "country_name": "Botswana",
            "connectivity": false
        },
        {
            "lon": 9.7381387,
            "lat": 4.0143877,
            "school_name": "\u00c9cole Publique de Bilongue",
            "country_name": "Cameroon",
            "connectivity": false
        },
        {
            "lon": 13.3924768,
            "lat": 9.3024612,
            "school_name": "Sar Sm De Garoua Section Artisanale Rurale Et M\u00e9nag\u00e8re",
            "country_name": "Cameroon",
            "connectivity": false
        },
        {
            "lon": -10.017286,
            "lat": 6.59476,
            "school_name": "Early Learning Foundation School",
            "country_name": "Liberia",
            "connectivity": false
        },
        {
            "lon": 33.14876,
            "lat": -4.09629,
            "school_name": "NZEGA NDOGO",
            "country_name": "United Republic of Tanzania",
            "connectivity": false
        },
        {
            "lon": 36.0735963,
            "lat": 17.56007383,
            "school_name": "Name unknown",
            "country_name": "Sudan",
            "connectivity": false
        },
        {
            "lon": 32.79123495,
            "lat": 15.1739524166667,
            "school_name": "Name unknown",
            "country_name": "Sudan",
            "connectivity": false
        },
        {
            "lon": 32.29073485,
            "lat": 14.00160325,
            "school_name": "Name unknown",
            "country_name": "Sudan",
            "connectivity": false
        },
        {
            "lon": -0.2317592,
            "lat": 5.5691917,
            "school_name": "Name unknown",
            "country_name": "Ghana",
            "connectivity": false
        },
        {
            "lon": 0.6199824,
            "lat": 5.7795849,
            "school_name": "Name unknown",
            "country_name": "Ghana",
            "connectivity": false
        },
        {
            "lon": 0.0521314,
            "lat": 8.8644778,
            "school_name": "Name unknown",
            "country_name": "Ghana",
            "connectivity": false
        },
        {
            "lon": -0.1989,
            "lat": 5.5883825,
            "school_name": "Name unknown",
            "country_name": "Ghana",
            "connectivity": false
        },
        {
            "lon": -0.7840507,
            "lat": 10.7848015,
            "school_name": "Name unknown",
            "country_name": "Ghana",
            "connectivity": false
        },
        {
            "lon": -1.405676,
            "lat": 7.0735515,
            "school_name": "Name unknown",
            "country_name": "Ghana",
            "connectivity": false
        },
        {
            "lon": 29.78058,
            "lat": -4.43735,
            "school_name": "NYAMASOVU",
            "country_name": "United Republic of Tanzania",
            "connectivity": false
        },
        {
            "lon": 38.38191,
            "lat": -10.94831,
            "school_name": "MTOKORA",
            "country_name": "United Republic of Tanzania",
            "connectivity": false
        },
        {
            "lon": -2.659553,
            "lat": 5.7811985,
            "school_name": "Name unknown",
            "country_name": "Ghana",
            "connectivity": false
        },
        {
            "lon": 37.58045,
            "lat": -3.6756,
            "school_name": "KAWAWA",
            "country_name": "United Republic of Tanzania",
            "connectivity": false
        },
        {
            "lon": 38.999,
            "lat": -6.82387,
            "school_name": "MAXMILLIAN",
            "country_name": "United Republic of Tanzania",
            "connectivity": false
        },
        {
            "lon": 35.8779,
            "lat": -7.982,
            "school_name": "IBOFWE",
            "country_name": "United Republic of Tanzania",
            "connectivity": false
        },
        {
            "lon": 37.00711,
            "lat": -6.3696,
            "school_name": "NJUNGWA",
            "country_name": "United Republic of Tanzania",
            "connectivity": false
        },
        {
            "lon": 37.36481,
            "lat": -6.04681,
            "school_name": "DIONGOYA",
            "country_name": "United Republic of Tanzania",
            "connectivity": false
        },
        {
            "lon": 33.79473,
            "lat": -1.83795,
            "school_name": "KIHUZU",
            "country_name": "United Republic of Tanzania",
            "connectivity": false
        },
        {
            "lon": -0.6899245,
            "lat": 6.2973472,
            "school_name": "Name unknown",
            "country_name": "Ghana",
            "connectivity": false
        },
        {
            "lon": 1.222713333,
            "lat": 6.134023333,
            "school_name": "LPL ITCS EL ROHI",
            "country_name": "Togo",
            "connectivity": false
        },
        {
            "lon": 0.872913333,
            "lat": 10.25397667,
            "school_name": "JEP TAKPAPIENII",
            "country_name": "Togo",
            "connectivity": false
        },
        {
            "lon": 1.208396667,
            "lat": 6.232273333,
            "school_name": "EPL LE SOURIRE PLUS",
            "country_name": "Togo",
            "connectivity": false
        },
        {
            "lon": 1.697985,
            "lat": 6.288888333,
            "school_name": "EPP HOUNGATOME",
            "country_name": "Togo",
            "connectivity": false
        },
        {
            "lon": 0.965645,
            "lat": 7.626142,
            "school_name": "EPP IDIFIOU",
            "country_name": "Togo",
            "connectivity": false
        },
        {
            "lon": 1.048993,
            "lat": 7.194358,
            "school_name": "EPP ATAKPARA",
            "country_name": "Togo",
            "connectivity": false
        },
        {
            "lon": 1.31715,
            "lat": 9.358013,
            "school_name": "EPP KOLLO",
            "country_name": "Togo",
            "connectivity": false
        },
        {
            "lon": 0.769149,
            "lat": 10.322587,
            "school_name": "EPP NADJANKARKOU",
            "country_name": "Togo",
            "connectivity": false
        },
        {
            "lon": 1.444246,
            "lat": 6.382099,
            "school_name": "CEG VO ASSO",
            "country_name": "Togo",
            "connectivity": false
        },
        {
            "lon": 34.48815,
            "lat": -1.29384,
            "school_name": "KYORUBA",
            "country_name": "United Republic of Tanzania",
            "connectivity": false
        },
        {
            "lon": 34.42612,
            "lat": -4.41043,
            "school_name": "KITUKUTU",
            "country_name": "United Republic of Tanzania",
            "connectivity": false
        },
        {
            "lon": 36.28578,
            "lat": -6.47042,
            "school_name": "BEREGE",
            "country_name": "United Republic of Tanzania",
            "connectivity": false
        },
        {
            "lon": 38.40298,
            "lat": -4.54659,
            "school_name": "MNG'ARO",
            "country_name": "United Republic of Tanzania",
            "connectivity": false
        },
        {
            "lon": 30.10728,
            "lat": -6.43375,
            "school_name": "LUFUBU",
            "country_name": "United Republic of Tanzania",
            "connectivity": false
        },
        {
            "lon": 34.68332,
            "lat": -4.38871,
            "school_name": "ISHENGA",
            "country_name": "United Republic of Tanzania",
            "connectivity": false
        },
        {
            "lon": 34.39903,
            "lat": -3.47193,
            "school_name": "SAPA",
            "country_name": "United Republic of Tanzania",
            "connectivity": false
        },
        {
            "lon": 32.59667,
            "lat": -3.82452,
            "school_name": "KAHAMA B",
            "country_name": "United Republic of Tanzania",
            "connectivity": false
        },
        {
            "lon": 33.66284251,
            "lat": -13.58474622,
            "school_name": "Dzoole Primary School",
            "country_name": "Malawi",
            "connectivity": false
        },
        {
            "lon": 33.49263648,
            "lat": -13.37842847,
            "school_name": "Kamongo Primary School",
            "country_name": "Malawi",
            "connectivity": false
        },
        {
            "lon": 34.77050129,
            "lat": -16.45429285,
            "school_name": "Kagolo",
            "country_name": "Malawi",
            "connectivity": false
        },
        {
            "lon": 26.77029932,
            "lat": -7.95870259,
            "school_name": "INST DE LA  SEMENCE",
            "country_name": "Democratic Republic of the Congo",
            "connectivity": false
        },
        {
            "lon": 21.35384145,
            "lat": -3.750447248,
            "school_name": "INST BAKOMO",
            "country_name": "Democratic Republic of the Congo",
            "connectivity": false
        },
        {
            "lon": 24.05061641,
            "lat": -3.673872496,
            "school_name": "INST KASONGO",
            "country_name": "Democratic Republic of the Congo",
            "connectivity": false
        },
        {
            "lon": 17.03546159,
            "lat": -4.826075102,
            "school_name": "LYCEE NTINU NGEMBA",
            "country_name": "Democratic Republic of the Congo",
            "connectivity": false
        },
        {
            "lon": 29.21277539,
            "lat": -1.659544153,
            "school_name": "INST MLEZI",
            "country_name": "Democratic Republic of the Congo",
            "connectivity": false
        },
        {
            "lon": 29.351,
            "lat": 0.152,
            "school_name": "EP BUKOROGHOTO",
            "country_name": "Democratic Republic of the Congo",
            "connectivity": false
        },
        {
            "lon": 23.07650093,
            "lat": -9.726694177,
            "school_name": "INST LULUA2",
            "country_name": "Democratic Republic of the Congo",
            "connectivity": false
        },
        {
            "lon": 25.90642441,
            "lat": -2.951670091,
            "school_name": "EP MUTUMBI",
            "country_name": "Democratic Republic of the Congo",
            "connectivity": false
        },
        {
            "lon": 28.9970728,
            "lat": -2.787485899,
            "school_name": "INSTITUT  SAINT PAUL APOTRE",
            "country_name": "Democratic Republic of the Congo",
            "connectivity": false
        },
        {
            "lon": 29.09297772,
            "lat": -4.103667118,
            "school_name": "COMPLEXE SCOLAIRE DE LA FORTUNE",
            "country_name": "Democratic Republic of the Congo",
            "connectivity": false
        },
        {
            "lon": 28.81342343,
            "lat": -2.276069333,
            "school_name": "INST KASHENYI II",
            "country_name": "Democratic Republic of the Congo",
            "connectivity": false
        },
        {
            "lon": 13.48589051,
            "lat": -5.596832524,
            "school_name": "INST MANZI",
            "country_name": "Democratic Republic of the Congo",
            "connectivity": false
        },
        {
            "lon": -67.1413,
            "lat": -17.210328,
            "school_name": "TIKA",
            "country_name": "Bolivia (Plurinational State of)",
            "connectivity": false
        },
        {
            "lon": 31.43568,
            "lat": -0.89853,
            "school_name": "NABIGASA PRIMARY SCHOOL",
            "country_name": "Uganda",
            "connectivity": false
        },
        {
            "lon": 32.7384,
            "lat": 0.24059,
            "school_name": "MUGOMBA PRI.SCHOOL",
            "country_name": "Uganda",
            "connectivity": false
        },
        {
            "lon": 30.40537,
            "lat": -0.58379,
            "school_name": "Itendero S.S.",
            "country_name": "Uganda",
            "connectivity": false
        },
        {
            "lon": 33.13857,
            "lat": 0.63902,
            "school_name": "Ndiwansi P.S.",
            "country_name": "Uganda",
            "connectivity": false
        },
        {
            "lon": 33.92626,
            "lat": 0.53664,
            "school_name": "Buluguyi S.S.",
            "country_name": "Uganda",
            "connectivity": false
        },
        {
            "lon": 31.24479,
            "lat": 3.46648,
            "school_name": "ARINGA",
            "country_name": "Uganda",
            "connectivity": false
        },
        {
            "lon": 30.57417,
            "lat": -0.43775,
            "school_name": "Bwizibwera Preparatory School",
            "country_name": "Uganda",
            "connectivity": false
        },
        {
            "lon": 29.79657,
            "lat": -1.33736,
            "school_name": "Kanyamahoro P.S.",
            "country_name": "Uganda",
            "connectivity": false
        },
        {
            "lon": 33.59738,
            "lat": 1.72041,
            "school_name": "Nakatunya P.S.",
            "country_name": "Uganda",
            "connectivity": false
        },
        {
            "lon": 30.47282,
            "lat": -0.22974,
            "school_name": "Kategure P.S.",
            "country_name": "Uganda",
            "connectivity": false
        },
        {
            "lon": 33.88744,
            "lat": 0.72155,
            "school_name": "Buwesa P.S.",
            "country_name": "Uganda",
            "connectivity": false
        },
        {
            "lon": 32.09123,
            "lat": 0.63017,
            "school_name": "Bbambula P.S.",
            "country_name": "Uganda",
            "connectivity": false
        },
        {
            "lon": 26.82843,
            "lat": -25.15135,
            "school_name": "Bataung Secondary School",
            "country_name": "South Africa",
            "connectivity": false
        },
        {
            "lon": 18.47833,
            "lat": -33.96209,
            "school_name": "Bishop's College",
            "country_name": "South Africa",
            "connectivity": false
        },
        {
            "lon": 18.48299,
            "lat": -33.8065,
            "school_name": "West Coast Christian School",
            "country_name": "South Africa",
            "connectivity": false
        },
        {
            "lon": 29.65001,
            "lat": -24.29723,
            "school_name": "Mokgorotlwane Secondary",
            "country_name": "South Africa",
            "connectivity": false
        },
        {
            "lon": 30.13837,
            "lat": -23.68535,
            "school_name": "The King's Court Christian School",
            "country_name": "South Africa",
            "connectivity": false
        },
        {
            "lon": 30.1743,
            "lat": -24.59419,
            "school_name": "Tumishi Primary School",
            "country_name": "South Africa",
            "connectivity": false
        },
        {
            "lon": 29.21031,
            "lat": -25.04976,
            "school_name": "Excelsior College",
            "country_name": "South Africa",
            "connectivity": false
        },
        {
            "lon": 19.6358,
            "lat": -33.64145,
            "school_name": "Leipzig Sskv Primary School",
            "country_name": "South Africa",
            "connectivity": false
        },
        {
            "lon": 30.40639,
            "lat": -23.49701,
            "school_name": "Ramaolwane Secondary School",
            "country_name": "South Africa",
            "connectivity": false
        },
        {
            "lon": 29.01745,
            "lat": -23.39616,
            "school_name": "Seobi Primary",
            "country_name": "South Africa",
            "connectivity": false
        },
        {
            "lon": 27.72687,
            "lat": -31.88972,
            "school_name": "Qwili Junior Secondary School",
            "country_name": "South Africa",
            "connectivity": false
        },
        {
            "lon": 30.4266,
            "lat": -23.0606,
            "school_name": "Ndaedzo Secondary",
            "country_name": "South Africa",
            "connectivity": false
        },
        {
            "lon": 31.40018,
            "lat": -28.13791,
            "school_name": "Phumowakhe Hp School",
            "country_name": "South Africa",
            "connectivity": false
        },
        {
            "lon": 32.17729,
            "lat": -28.20242,
            "school_name": "Ndimande High School",
            "country_name": "South Africa",
            "connectivity": false
        },
        {
            "lon": 32.36468,
            "lat": -27.30967,
            "school_name": "Mantinti High School",
            "country_name": "South Africa",
            "connectivity": false
        },
        {
            "lon": 32.39338,
            "lat": -27.8273,
            "school_name": "Mduku High School",
            "country_name": "South Africa",
            "connectivity": false
        },
        {
            "lon": 30.97682,
            "lat": -29.50478,
            "school_name": "Sibonginhlanhla Secondary School",
            "country_name": "South Africa",
            "connectivity": false
        },
        {
            "lon": 30.99836,
            "lat": -29.84452,
            "school_name": "Durban High School",
            "country_name": "South Africa",
            "connectivity": false
        },
        {
            "lon": 28.19963,
            "lat": -26.34056,
            "school_name": "Lethulwazi Comprehensive School",
            "country_name": "South Africa",
            "connectivity": false
        },
        {
            "lon": 27.96744,
            "lat": -26.65672,
            "school_name": "Laerskool Drie Riviere",
            "country_name": "South Africa",
            "connectivity": false
        },
        {
            "lon": 28.07769,
            "lat": -25.51397,
            "school_name": "Matseke Primary School",
            "country_name": "South Africa",
            "connectivity": false
        },
        {
            "lon": 27.72761,
            "lat": -26.16601,
            "school_name": "Bhongheni Adult Centre",
            "country_name": "South Africa",
            "connectivity": false
        },
        {
            "lon": 28.22725,
            "lat": -26.26658,
            "school_name": "Smiley Kids",
            "country_name": "South Africa",
            "connectivity": false
        },
        {
            "lon": 27.85127,
            "lat": -26.28146,
            "school_name": "Elsie Ngidi Primary School",
            "country_name": "South Africa",
            "connectivity": false
        },
        {
            "lon": 27.81993,
            "lat": -31.94463,
            "school_name": "Gugulethu Junior Primary School",
            "country_name": "South Africa",
            "connectivity": false
        },
        {
            "lon": 25.40333,
            "lat": -33.8218,
            "school_name": "Phaphani High School",
            "country_name": "South Africa",
            "connectivity": false
        },
        {
            "lon": 25.60284,
            "lat": -33.9422,
            "school_name": "Alba Kids Daycare and Pre-School",
            "country_name": "South Africa",
            "connectivity": false
        },
        {
            "lon": 28.63693,
            "lat": -31.4464,
            "school_name": "Ngubesizwe Junior Secondary School",
            "country_name": "South Africa",
            "connectivity": false
        },
        {
            "lon": 29.06184,
            "lat": -30.86402,
            "school_name": "Sobhede Junior Secondary School",
            "country_name": "South Africa",
            "connectivity": false
        },
        {
            "lon": -60.5474023,
            "lat": -36.5143954,
            "school_name": "ESCUELA PRIMARIA N\u00ba47 ELENA POURTALE DE FORTABAT",
            "country_name": "Argentina",
            "connectivity": false
        },
        {
            "lon": -60.214627,
            "lat": -33.641216,
            "school_name": "ESCUELA PRIMARIA N\u00ba15 MARIANO SANTOS MUTTI",
            "country_name": "Argentina",
            "connectivity": false
        },
        {
            "lon": -58.56495837,
            "lat": -34.72088279,
            "school_name": "ESCUELA PRIMARIA N\u00ba171 MARIANO SEVERO BALCARCE",
            "country_name": "Argentina",
            "connectivity": false
        },
        {
            "lon": -62.27103901,
            "lat": -38.69849023,
            "school_name": "ESCUELA PRIMARIA N\u00ba17 PRESIDENTE HIPOLITO YRIGOYEN",
            "country_name": "Argentina",
            "connectivity": false
        },
        {
            "lon": -57.58926811,
            "lat": -38.04855293,
            "school_name": "ESCUELA PRIMARIA N\u00ba35 PERITO FRANCISCO MORENO",
            "country_name": "Argentina",
            "connectivity": false
        },
        {
            "lon": -58.25295589,
            "lat": -37.84300137,
            "school_name": "CENTRO DE ADULTOS N\u00ba706/01",
            "country_name": "Argentina",
            "connectivity": false
        },
        {
            "lon": -58.37658891,
            "lat": -34.68026469,
            "school_name": "JARDIN MUNICIPAL N\u00ba18 ALFONSINA STORNI",
            "country_name": "Argentina",
            "connectivity": false
        },
        {
            "lon": -58.27693716,
            "lat": -34.75710183,
            "school_name": "INSTITUTO MANUEL BELGRANO",
            "country_name": "Argentina",
            "connectivity": false
        },
        {
            "lon": -58.19872232,
            "lat": -34.77056912,
            "school_name": "CENTRO DE ADULTOS N\u00ba704/01 MIGUEL BENANCIO S\u00c1NCHEZ",
            "country_name": "Argentina",
            "connectivity": false
        },
        {
            "lon": -60.2734794,
            "lat": -36.9812439,
            "school_name": "ESCUELA PRIMARIA N\u00ba79 ALFREDO FORTABAT",
            "country_name": "Argentina",
            "connectivity": false
        },
        {
            "lon": -58.56115218,
            "lat": -34.60116324,
            "school_name": "INSTITUTO CARDOSO",
            "country_name": "Argentina",
            "connectivity": false
        },
        {
            "lon": -60.64946784,
            "lat": -33.00112053,
            "school_name": "E.E.S. ORIENTADA PART. INC. NRO 3064 COLEGIO DEL SUR",
            "country_name": "Argentina",
            "connectivity": false
        },
        {
            "lon": -58.5810579,
            "lat": -34.7530754,
            "school_name": "C.E.A.T. N\u00ba1",
            "country_name": "Argentina",
            "connectivity": false
        },
        {
            "lon": -58.41536588,
            "lat": -34.73766999,
            "school_name": "COLEGIO PARROQUIAL JOSE MANUEL DE ESTRADA",
            "country_name": "Argentina",
            "connectivity": false
        },
        {
            "lon": -59.0615909,
            "lat": -34.720433,
            "school_name": "ESC. SECUNDARIA BASICA N\u00ba10",
            "country_name": "Argentina",
            "connectivity": false
        },
        {
            "lon": -67.53790384,
            "lat": -45.86237871,
            "school_name": "ANEXO ESCUELA N\u00ba 447",
            "country_name": "Argentina",
            "connectivity": false
        },
        {
            "lon": -58.84147594,
            "lat": -27.46240865,
            "school_name": "COLEGIO SECUNDARIO GRAL. MANUEL BELGRANO",
            "country_name": "Argentina",
            "connectivity": false
        },
        {
            "lon": -60.5245977,
            "lat": -31.74048232,
            "school_name": "UNIDAD EDUCATIVA BROTECITO 5",
            "country_name": "Argentina",
            "connectivity": false
        },
        {
            "lon": -58.20746011,
            "lat": -26.18423788,
            "school_name": "EPEP N\u00ba519 DOCENTE OMAR GUTIERREZ",
            "country_name": "Argentina",
            "connectivity": false
        },
        {
            "lon": -65.30775311,
            "lat": -24.18421413,
            "school_name": "ESCUELA N 1 GRAL MANUEL BELGRANO",
            "country_name": "Argentina",
            "connectivity": false
        },
        {
            "lon": -65.36965316,
            "lat": -22.47761401,
            "school_name": "ESCUELA N 347 CORRAL BLANCO",
            "country_name": "Argentina",
            "connectivity": false
        },
        {
            "lon": -68.6660566,
            "lat": -32.80517721,
            "school_name": "FRANCISCO ARIAS",
            "country_name": "Argentina",
            "connectivity": false
        },
        {
            "lon": -54.15002011,
            "lat": -26.34695049,
            "school_name": "ESC. N\u00b0 759 ABORIGEN",
            "country_name": "Argentina",
            "connectivity": false
        },
        {
            "lon": -62.98899785,
            "lat": -40.81180808,
            "school_name": "ESCUELA PRIMARIA NRO. 30 ELISEO SCHIERONI",
            "country_name": "Argentina",
            "connectivity": false
        },
        {
            "lon": -71.3102778,
            "lat": -41.1334722,
            "school_name": "INSTITUTO LOS CEREZOS DE LA PATAGONIA",
            "country_name": "Argentina",
            "connectivity": false
        },
        {
            "lon": -60.9284934,
            "lat": -31.2076862,
            "school_name": "ESCUELA NRO 619 MARIANO MORENO",
            "country_name": "Argentina",
            "connectivity": false
        },
        {
            "lon": -77.0153,
            "lat": -12.1192,
            "school_name": "42 ELIZABETH ESPEJO DE MARROQUIN",
            "country_name": "Peru",
            "connectivity": false
        },
        {
            "lon": -61.40867363,
            "lat": -32.82970443,
            "school_name": "JARDIN DE INFANTES NRO 295",
            "country_name": "Argentina",
            "connectivity": false
        },
        {
            "lon": -64.77366,
            "lat": -27.55341,
            "school_name": "ESCUELA N\u00b0 543 (J.C)",
            "country_name": "Argentina",
            "connectivity": false
        },
        {
            "lon": -64.24170073,
            "lat": -27.68211914,
            "school_name": "AGRUPAMIENTO N\u00ba 86108 ESC N\u00ba 411",
            "country_name": "Argentina",
            "connectivity": false
        },
        {
            "lon": -65.26022477,
            "lat": -26.73421451,
            "school_name": "ESCUELA TECNICA N\u00ba2 DE TAFI VIEJO",
            "country_name": "Argentina",
            "connectivity": false
        },
        {
            "lon": 6.32093,
            "lat": 5.5901,
            "school_name": "Name unknown",
            "country_name": "Nigeria",
            "connectivity": false
        },
        {
            "lon": 7.357085,
            "lat": 5.120686667,
            "school_name": "Name unknown",
            "country_name": "Nigeria",
            "connectivity": false
        },
        {
            "lon": 6.115576,
            "lat": 5.374483,
            "school_name": "Name unknown",
            "country_name": "Nigeria",
            "connectivity": false
        },
        {
            "lon": 7.605164,
            "lat": 5.437768,
            "school_name": "Name unknown",
            "country_name": "Nigeria",
            "connectivity": false
        },
        {
            "lon": 5.897936,
            "lat": 6.994842,
            "school_name": "Name unknown",
            "country_name": "Nigeria",
            "connectivity": false
        },
        {
            "lon": 5.729861667,
            "lat": 7.727751667,
            "school_name": "Name unknown",
            "country_name": "Nigeria",
            "connectivity": false
        },
        {
            "lon": 5.484113333,
            "lat": 7.59747,
            "school_name": "Name unknown",
            "country_name": "Nigeria",
            "connectivity": false
        },
        {
            "lon": 7.473231667,
            "lat": 6.901035,
            "school_name": "Name unknown",
            "country_name": "Nigeria",
            "connectivity": false
        },
        {
            "lon": 2.99875,
            "lat": 6.48104,
            "school_name": "Name unknown",
            "country_name": "Nigeria",
            "connectivity": false
        },
        {
            "lon": 7.33631,
            "lat": 9.152618,
            "school_name": "Name unknown",
            "country_name": "Nigeria",
            "connectivity": false
        },
        {
            "lon": 7.040665,
            "lat": 8.819245,
            "school_name": "Name unknown",
            "country_name": "Nigeria",
            "connectivity": false
        },
        {
            "lon": 11.80447,
            "lat": 9.751568,
            "school_name": "Name unknown",
            "country_name": "Nigeria",
            "connectivity": false
        },
        {
            "lon": 11.44475167,
            "lat": 10.849295,
            "school_name": "Name unknown",
            "country_name": "Nigeria",
            "connectivity": false
        },
        {
            "lon": 11.182019,
            "lat": 10.288619,
            "school_name": "Name unknown",
            "country_name": "Nigeria",
            "connectivity": false
        },
        {
            "lon": 11.29016,
            "lat": 10.46751,
            "school_name": "Name unknown",
            "country_name": "Nigeria",
            "connectivity": false
        },
        {
            "lon": -76.3706,
            "lat": -6.1694,
            "school_name": "345",
            "country_name": "Peru",
            "connectivity": false
        },
        {
            "lon": -76.4722,
            "lat": -8.22339,
            "school_name": "415",
            "country_name": "Peru",
            "connectivity": false
        },
        {
            "lon": -71.1261,
            "lat": -14.2458,
            "school_name": "56",
            "country_name": "Peru",
            "connectivity": false
        },
        {
            "lon": -76.6678,
            "lat": -6.3381,
            "school_name": "690",
            "country_name": "Peru",
            "connectivity": false
        },
        {
            "lon": -77.462,
            "lat": -8.98721,
            "school_name": "072 AMALIA RAMIREZ VILLANUEVA",
            "country_name": "Peru",
            "connectivity": false
        },
        {
            "lon": -79.0597,
            "lat": -7.04639,
            "school_name": "90",
            "country_name": "Peru",
            "connectivity": false
        },
        {
            "lon": -72.1893,
            "lat": -13.1643,
            "school_name": "1005",
            "country_name": "Peru",
            "connectivity": false
        },
        {
            "lon": -79.9276,
            "lat": -6.4987,
            "school_name": "10167 LOS POSITOS",
            "country_name": "Peru",
            "connectivity": false
        },
        {
            "lon": -79.2637,
            "lat": -6.81122,
            "school_name": "10778",
            "country_name": "Peru",
            "connectivity": false
        },
        {
            "lon": -70.1081,
            "lat": -15.4601,
            "school_name": "1145",
            "country_name": "Peru",
            "connectivity": false
        },
        {
            "lon": -70.1436,
            "lat": -15.4867,
            "school_name": "1156",
            "country_name": "Peru",
            "connectivity": false
        },
        {
            "lon": -79.925,
            "lat": -6.10895,
            "school_name": "11602 RICARDO PALMA",
            "country_name": "Peru",
            "connectivity": false
        },
        {
            "lon": -70.123,
            "lat": -15.5045,
            "school_name": "1337 VISTA ALEGRE",
            "country_name": "Peru",
            "connectivity": false
        },
        {
            "lon": -79.507,
            "lat": -5.6443,
            "school_name": "14579",
            "country_name": "Peru",
            "connectivity": false
        },
        {
            "lon": -79.6621,
            "lat": -4.99565,
            "school_name": "1585",
            "country_name": "Peru",
            "connectivity": false
        },
        {
            "lon": -79.2826,
            "lat": -5.3159,
            "school_name": "16536 SAN MIGUEL",
            "country_name": "Peru",
            "connectivity": false
        },
        {
            "lon": -79.0907,
            "lat": -5.36014,
            "school_name": "16925",
            "country_name": "Peru",
            "connectivity": false
        },
        {
            "lon": -79.0739,
            "lat": -5.08778,
            "school_name": "17623",
            "country_name": "Peru",
            "connectivity": false
        },
        {
            "lon": -78.8873,
            "lat": -6.30527,
            "school_name": "18007",
            "country_name": "Peru",
            "connectivity": false
        },
        {
            "lon": -77.8986,
            "lat": -8.26191,
            "school_name": "189",
            "country_name": "Peru",
            "connectivity": false
        },
        {
            "lon": -76.9661,
            "lat": -11.9081,
            "school_name": "20955-19",
            "country_name": "Peru",
            "connectivity": false
        },
        {
            "lon": -76.0916,
            "lat": -8.9185,
            "school_name": "222",
            "country_name": "Peru",
            "connectivity": false
        },
        {
            "lon": -77.6665,
            "lat": -8.5333,
            "school_name": "227",
            "country_name": "Peru",
            "connectivity": false
        },
        {
            "lon": -74.6587,
            "lat": -14.3609,
            "school_name": "24200",
            "country_name": "Peru",
            "connectivity": false
        },
        {
            "lon": -73.3507,
            "lat": -14.9886,
            "school_name": "24336 SANTA CATALINA",
            "country_name": "Peru",
            "connectivity": false
        },
        {
            "lon": -69.5879,
            "lat": -12.7187,
            "school_name": "274 LOS ANGELITOS",
            "country_name": "Peru",
            "connectivity": false
        },
        {
            "lon": -73.8842,
            "lat": -11.8653,
            "school_name": "30001-162",
            "country_name": "Peru",
            "connectivity": false
        },
        {
            "lon": -75.8298,
            "lat": -10.9656,
            "school_name": "30604",
            "country_name": "Peru",
            "connectivity": false
        },
        {
            "lon": -77.912,
            "lat": -8.52724,
            "school_name": "ARDILLITAS TRAVIESAS",
            "country_name": "Peru",
            "connectivity": false
        },
        {
            "lon": -75.5238,
            "lat": -10.4255,
            "school_name": "34221 NUESTRA SE\u00d1ORA DEL CARMEN",
            "country_name": "Peru",
            "connectivity": false
        },
        {
            "lon": -74.6645,
            "lat": -12.7237,
            "school_name": "36797",
            "country_name": "Peru",
            "connectivity": false
        },
        {
            "lon": -71.9545,
            "lat": -13.5211,
            "school_name": "374 ACCOMOCO",
            "country_name": "Peru",
            "connectivity": false
        },
        {
            "lon": -73.8475,
            "lat": -13.6349,
            "school_name": "38144",
            "country_name": "Peru",
            "connectivity": false
        },
        {
            "lon": -73.7005,
            "lat": -12.7537,
            "school_name": "38722",
            "country_name": "Peru",
            "connectivity": false
        },
        {
            "lon": -73.0918,
            "lat": -12.6113,
            "school_name": "501139",
            "country_name": "Peru",
            "connectivity": false
        },
        {
            "lon": -73.0618,
            "lat": -13.6515,
            "school_name": "54131",
            "country_name": "Peru",
            "connectivity": false
        },
        {
            "lon": -73.0855,
            "lat": -14.5026,
            "school_name": "54344",
            "country_name": "Peru",
            "connectivity": false
        },
        {
            "lon": -77.6287,
            "lat": -9.30355,
            "school_name": "583",
            "country_name": "Peru",
            "connectivity": false
        },
        {
            "lon": -73.265,
            "lat": -3.73186,
            "school_name": "60188 SIMON BOLIVAR",
            "country_name": "Peru",
            "connectivity": false
        },
        {
            "lon": -77.0196,
            "lat": -12.1545,
            "school_name": "6051 MERCEDES INDACOCHEA",
            "country_name": "Peru",
            "connectivity": false
        },
        {
            "lon": 3.51276,
            "lat": 6.64104,
            "school_name": "Name unknown",
            "country_name": "Nigeria",
            "connectivity": false
        },
        {
            "lon": -74.7658,
            "lat": -7.8788,
            "school_name": "64191-B",
            "country_name": "Peru",
            "connectivity": false
        },
        {
            "lon": -73.1343,
            "lat": -12.7557,
            "school_name": "719",
            "country_name": "Peru",
            "connectivity": false
        },
        {
            "lon": -69.9982,
            "lat": -15.0511,
            "school_name": "72140",
            "country_name": "Peru",
            "connectivity": false
        },
        {
            "lon": -79.0416,
            "lat": -8.07985,
            "school_name": "80039 MIGUEL GRAU SEMINARIO",
            "country_name": "Peru",
            "connectivity": false
        },
        {
            "lon": -77.4784,
            "lat": -8.03271,
            "school_name": "80454 ANDRES AVELINO CACERES",
            "country_name": "Peru",
            "connectivity": false
        },
        {
            "lon": -77.3765,
            "lat": -8.15399,
            "school_name": "80474",
            "country_name": "Peru",
            "connectivity": false
        },
        {
            "lon": -78.7045,
            "lat": -7.14219,
            "school_name": "821076",
            "country_name": "Peru",
            "connectivity": false
        },
        {
            "lon": -78.5503,
            "lat": -7.48816,
            "school_name": "82146",
            "country_name": "Peru",
            "connectivity": false
        },
        {
            "lon": -78.1811,
            "lat": -6.92071,
            "school_name": "82436",
            "country_name": "Peru",
            "connectivity": false
        },
        {
            "lon": -75.1404,
            "lat": -14.4836,
            "school_name": "853",
            "country_name": "Peru",
            "connectivity": false
        },
        {
            "lon": -77.1508,
            "lat": -9.42216,
            "school_name": "86845",
            "country_name": "Peru",
            "connectivity": false
        },
        {
            "lon": -77.1929,
            "lat": -8.9814,
            "school_name": "86959",
            "country_name": "Peru",
            "connectivity": false
        },
        {
            "lon": -79.0725,
            "lat": -8.04948,
            "school_name": "ABRAHAM LINCOLN",
            "country_name": "Peru",
            "connectivity": false
        },
        {
            "lon": -75.5198,
            "lat": -9.19425,
            "school_name": "AGROPECUARIO JUAN CHAVEZ MUQUINUY-B",
            "country_name": "Peru",
            "connectivity": false
        },
        {
            "lon": -80.8185,
            "lat": -5.56309,
            "school_name": "ALBERT EINSTEIN",
            "country_name": "Peru",
            "connectivity": false
        },
        {
            "lon": -70.9456,
            "lat": -17.1853,
            "school_name": "ALBERT EINSTEIN & ADAM SMITH",
            "country_name": "Peru",
            "connectivity": false
        },
        {
            "lon": -76.6495,
            "lat": -11.1866,
            "school_name": "ALONSO DE MESSIAS",
            "country_name": "Peru",
            "connectivity": false
        },
        {
            "lon": -69.3534,
            "lat": -15.2356,
            "school_name": "ALTOS HUAYRAPATA",
            "country_name": "Peru",
            "connectivity": false
        },
        {
            "lon": -70.0582,
            "lat": -16.1274,
            "school_name": "ARBOLEDA",
            "country_name": "Peru",
            "connectivity": false
        },
        {
            "lon": -69.2442,
            "lat": -12.6071,
            "school_name": "MUNDO DE TALENTO",
            "country_name": "Peru",
            "connectivity": false
        },
        {
            "lon": -78.0728,
            "lat": -9.53118,
            "school_name": "BURBUJITAS DE COLORES",
            "country_name": "Peru",
            "connectivity": false
        },
        {
            "lon": -70.0102,
            "lat": -14.3539,
            "school_name": "CCONCCOLLANI",
            "country_name": "Peru",
            "connectivity": false
        },
        {
            "lon": -77.61,
            "lat": -11.1107,
            "school_name": "CEBA - MARCELINO CHAMPAGNAT",
            "country_name": "Peru",
            "connectivity": false
        },
        {
            "lon": -77.091,
            "lat": -11.9977,
            "school_name": "CESAR VALLEJO",
            "country_name": "Peru",
            "connectivity": false
        },
        {
            "lon": -70.0958,
            "lat": -15.1897,
            "school_name": "CORAZON DE JESUS",
            "country_name": "Peru",
            "connectivity": false
        },
        {
            "lon": -76.9902,
            "lat": -11.9571,
            "school_name": "CRISTIANO SHALOM",
            "country_name": "Peru",
            "connectivity": false
        },
        {
            "lon": -76.9775,
            "lat": -12.1488,
            "school_name": "DIVINO NI\u00d1O JESUS DEL SANTUARIO",
            "country_name": "Peru",
            "connectivity": false
        },
        {
            "lon": -77.0631,
            "lat": -11.9992,
            "school_name": "EL CARMELO",
            "country_name": "Peru",
            "connectivity": false
        },
        {
            "lon": -71.5323,
            "lat": -16.3998,
            "school_name": "ELMER FAUCETT",
            "country_name": "Peru",
            "connectivity": false
        },
        {
            "lon": -75.7264,
            "lat": -14.0782,
            "school_name": "FRANCISCO DE PAULA GONZALES VIGIL",
            "country_name": "Peru",
            "connectivity": false
        },
        {
            "lon": -70.3452,
            "lat": -15.8022,
            "school_name": "GOTITAS DE VIDA",
            "country_name": "Peru",
            "connectivity": false
        },
        {
            "lon": -71.5114,
            "lat": -14.8474,
            "school_name": "HANCCAMAYO",
            "country_name": "Peru",
            "connectivity": false
        },
        {
            "lon": -76.9279,
            "lat": -12.1935,
            "school_name": "HANS LIPPERSHEY",
            "country_name": "Peru",
            "connectivity": false
        },
        {
            "lon": -77.1379,
            "lat": -11.8116,
            "school_name": "HAPPY KIDS MILLENIUM",
            "country_name": "Peru",
            "connectivity": false
        },
        {
            "lon": -77.0569,
            "lat": -11.9352,
            "school_name": "HONORES DEL RETABLO",
            "country_name": "Peru",
            "connectivity": false
        },
        {
            "lon": -70.2297,
            "lat": -14.8919,
            "school_name": "HUERTA",
            "country_name": "Peru",
            "connectivity": false
        },
        {
            "lon": -79.1523,
            "lat": -7.7621,
            "school_name": "INMACULADA VIRGEN DE LA PUERTA",
            "country_name": "Peru",
            "connectivity": false
        },
        {
            "lon": -77.113,
            "lat": -11.9994,
            "school_name": "JESUS NAZARENO",
            "country_name": "Peru",
            "connectivity": false
        },
        {
            "lon": -76.5263,
            "lat": -10.0395,
            "school_name": "JOSE MARIA ARGUEDAS",
            "country_name": "Peru",
            "connectivity": false
        },
        {
            "lon": -72.19,
            "lat": -16.3327,
            "school_name": "KILLA",
            "country_name": "Peru",
            "connectivity": false
        },
        {
            "lon": -79.0153,
            "lat": -5.67066,
            "school_name": "LA LIBERTAD",
            "country_name": "Peru",
            "connectivity": false
        },
        {
            "lon": -73.7507,
            "lat": -12.6066,
            "school_name": "LOS ALEGRES",
            "country_name": "Peru",
            "connectivity": false
        },
        {
            "lon": -69.6632,
            "lat": -12.8237,
            "school_name": "LOS COQUITOS",
            "country_name": "Peru",
            "connectivity": false
        },
        {
            "lon": -76.1336,
            "lat": -6.5859,
            "school_name": "LUZ DEL MUNDO",
            "country_name": "Peru",
            "connectivity": false
        },
        {
            "lon": -71.5035,
            "lat": -16.418,
            "school_name": "MARIA DEL REDENTOR",
            "country_name": "Peru",
            "connectivity": false
        },
        {
            "lon": -78.5177,
            "lat": -9.11541,
            "school_name": "MARIA Y LOS ANGELES",
            "country_name": "Peru",
            "connectivity": false
        },
        {
            "lon": -76.6136,
            "lat": -11.77,
            "school_name": "MI PEQUE\u00d1O JARDIN",
            "country_name": "Peru",
            "connectivity": false
        },
        {
            "lon": -77.1052,
            "lat": -12.0082,
            "school_name": "OBRA DE JESUS",
            "country_name": "Peru",
            "connectivity": false
        },
        {
            "lon": -73.1612,
            "lat": -12.6313,
            "school_name": "OZONAMPIATO",
            "country_name": "Peru",
            "connectivity": false
        },
        {
            "lon": -73.9364,
            "lat": -13.0642,
            "school_name": "PUCARUMI",
            "country_name": "Peru",
            "connectivity": false
        },
        {
            "lon": -70.2366,
            "lat": -17.9998,
            "school_name": "PULGARCITO",
            "country_name": "Peru",
            "connectivity": false
        },
        {
            "lon": -75.8132,
            "lat": -11.2448,
            "school_name": "RAYITO DE LUNA",
            "country_name": "Peru",
            "connectivity": false
        },
        {
            "lon": -71.1868,
            "lat": -14.9311,
            "school_name": "RIO SALADO",
            "country_name": "Peru",
            "connectivity": false
        },
        {
            "lon": -76.8693,
            "lat": -12.1531,
            "school_name": "SAN AGUSTIN DE PACHACAMAC",
            "country_name": "Peru",
            "connectivity": false
        },
        {
            "lon": -76.9536,
            "lat": -12.1518,
            "school_name": "SAN MIGUEL DE LAS HERAS",
            "country_name": "Peru",
            "connectivity": false
        },
        {
            "lon": -74.898,
            "lat": -11.9893,
            "school_name": "SANTA ROSA DE ILA",
            "country_name": "Peru",
            "connectivity": false
        },
        {
            "lon": -77.1477,
            "lat": -8.73748,
            "school_name": "SANTA ROSA DE POTRERO",
            "country_name": "Peru",
            "connectivity": false
        },
        {
            "lon": 5.674234629,
            "lat": 9.0386796,
            "school_name": "Name unknown",
            "country_name": "Nigeria",
            "connectivity": false
        },
        {
            "lon": 9.972553417,
            "lat": 11.11695513,
            "school_name": "Name unknown",
            "country_name": "Nigeria",
            "connectivity": false
        },
        {
            "lon": -74.6737,
            "lat": -14.3803,
            "school_name": "SONCONCHE",
            "country_name": "Peru",
            "connectivity": false
        },
        {
            "lon": -75.5111,
            "lat": -9.04654,
            "school_name": "STAR COLLEGE",
            "country_name": "Peru",
            "connectivity": false
        },
        {
            "lon": -76.9463,
            "lat": -12.0289,
            "school_name": "WILLIAM SHAKESPEARE",
            "country_name": "Peru",
            "connectivity": false
        },
        {
            "lon": 7.10482429,
            "lat": 10.2522694,
            "school_name": "Name unknown",
            "country_name": "Nigeria",
            "connectivity": false
        },
        {
            "lon": 7.42268978,
            "lat": 10.4322046,
            "school_name": "Name unknown",
            "country_name": "Nigeria",
            "connectivity": false
        },
        {
            "lon": 8.172202706,
            "lat": 9.512443543,
            "school_name": "Name unknown",
            "country_name": "Nigeria",
            "connectivity": false
        },
        {
            "lon": 8.055768013,
            "lat": 11.23316109,
            "school_name": "Name unknown",
            "country_name": "Nigeria",
            "connectivity": false
        },
        {
            "lon": 7.937450409,
            "lat": 11.28803372,
            "school_name": "Name unknown",
            "country_name": "Nigeria",
            "connectivity": false
        },
        {
            "lon": 8.627858,
            "lat": 12.27463,
            "school_name": "Name unknown",
            "country_name": "Nigeria",
            "connectivity": false
        },
        {
            "lon": 8.487604,
            "lat": 12.04384,
            "school_name": "Name unknown",
            "country_name": "Nigeria",
            "connectivity": false
        },
        {
            "lon": 8.754626,
            "lat": 11.58731,
            "school_name": "Name unknown",
            "country_name": "Nigeria",
            "connectivity": false
        },
        {
            "lon": 8.543064,
            "lat": 12.03041,
            "school_name": "Name unknown",
            "country_name": "Nigeria",
            "connectivity": false
        },
        {
            "lon": 8.602296,
            "lat": 11.95455,
            "school_name": "Name unknown",
            "country_name": "Nigeria",
            "connectivity": false
        },
        {
            "lon": 12.098653,
            "lat": 10.056786,
            "school_name": "Name unknown",
            "country_name": "Nigeria",
            "connectivity": false
        },
        {
            "lon": 6.895477,
            "lat": 8.149609,
            "school_name": "Name unknown",
            "country_name": "Nigeria",
            "connectivity": false
        },
        {
            "lon": 6.204098,
            "lat": 7.603769,
            "school_name": "Name unknown",
            "country_name": "Nigeria",
            "connectivity": false
        },
        {
            "lon": 4.39189,
            "lat": 8.315738,
            "school_name": "Name unknown",
            "country_name": "Nigeria",
            "connectivity": false
        },
        {
            "lon": 4.830104,
            "lat": 9.118673,
            "school_name": "Name unknown",
            "country_name": "Nigeria",
            "connectivity": false
        },
        {
            "lon": 3.310624,
            "lat": 6.614344,
            "school_name": "Name unknown",
            "country_name": "Nigeria",
            "connectivity": false
        },
        {
            "lon": 3.30886,
            "lat": 6.59819,
            "school_name": "Name unknown",
            "country_name": "Nigeria",
            "connectivity": false
        },
        {
            "lon": 3.359773,
            "lat": 6.456774,
            "school_name": "Name unknown",
            "country_name": "Nigeria",
            "connectivity": false
        },
        {
            "lon": 7.08338904,
            "lat": 4.741424233,
            "school_name": "Name unknown",
            "country_name": "Nigeria",
            "connectivity": false
        },
        {
            "lon": 3.3392,
            "lat": 6.4772,
            "school_name": "Name unknown",
            "country_name": "Nigeria",
            "connectivity": false
        },
        {
            "lon": 3.377263912,
            "lat": 6.485485238,
            "school_name": "Name unknown",
            "country_name": "Nigeria",
            "connectivity": false
        },
        {
            "lon": 8.358133,
            "lat": 8.900197,
            "school_name": "Name unknown",
            "country_name": "Nigeria",
            "connectivity": false
        },
        {
            "lon": 8.66318,
            "lat": 8.59523,
            "school_name": "Name unknown",
            "country_name": "Nigeria",
            "connectivity": false
        },
        {
            "lon": 8.304817,
            "lat": 8.618289,
            "school_name": "Name unknown",
            "country_name": "Nigeria",
            "connectivity": false
        },
        {
            "lon": 3.080368333,
            "lat": 6.617841667,
            "school_name": "Name unknown",
            "country_name": "Nigeria",
            "connectivity": false
        },
        {
            "lon": 3.237776138,
            "lat": 6.705341663,
            "school_name": "Name unknown",
            "country_name": "Nigeria",
            "connectivity": false
        },
        {
            "lon": 4.004475,
            "lat": 6.791286667,
            "school_name": "Name unknown",
            "country_name": "Nigeria",
            "connectivity": false
        },
        {
            "lon": 3.900114922,
            "lat": 7.050307688,
            "school_name": "Name unknown",
            "country_name": "Nigeria",
            "connectivity": false
        },
        {
            "lon": 4.06595974,
            "lat": 6.84306273,
            "school_name": "Name unknown",
            "country_name": "Nigeria",
            "connectivity": false
        },
        {
            "lon": 4.566708496,
            "lat": 6.558249092,
            "school_name": "Name unknown",
            "country_name": "Nigeria",
            "connectivity": false
        },
        {
            "lon": 3.669251667,
            "lat": 6.989103333,
            "school_name": "Name unknown",
            "country_name": "Nigeria",
            "connectivity": false
        },
        {
            "lon": 4.651744,
            "lat": 6.550634,
            "school_name": "Name unknown",
            "country_name": "Nigeria",
            "connectivity": false
        },
        {
            "lon": 4.550979,
            "lat": 7.48252,
            "school_name": "Name unknown",
            "country_name": "Nigeria",
            "connectivity": false
        },
        {
            "lon": 4.200618,
            "lat": 7.45562,
            "school_name": "Name unknown",
            "country_name": "Nigeria",
            "connectivity": false
        },