{
    "name": "Patchwork Kingdom #581 | Alorsynth",
    "description": "The twin kingdoms of Alorsynth, separated by a digital divide. A bustling kingdom of 67 schools on top that are all connected to the internet, and 43 schools, not connected, hidden in the upside down kingdom | Created for Giga (GigaConnect.org) \u2014 connecting every school in the world \u2014 in celebration of UNICEF's 75th birthday, by Nadieh Bremer",
    "external_url": "https://dummyURL.com/patchwork_kingdoms_581",
    "image": "https://dummy-storage-url.com/patchwork_kingdoms_581.png",
    "attributes": [
        {
            "trait_type": "Color palette",
            "value": "narwal"
        },
        {
            "display_type": "number",
            "trait_type": "Schools",
            "value": 120,
            "max_value": 460
        },
        {
            "display_type": "number",
            "trait_type": "Ratio - Connected",
            "value": 0.56,
            "max_value": 1
        },
        {
            "display_type": "number",
            "trait_type": "Ratio - Unconnected",
            "value": 0.36,
            "max_value": 1
        },
        {
            "display_type": "number",
            "trait_type": "Ratio - Data unavailable",
            "value": 0.08,
            "max_value": 1
        },
        {
            "trait_type": "Countries",
            "value": "BR-CO-CR-HN-KG-KZ-NA-PH-RW-SL-ZW"
        },
        {
            "display_type": "number",
            "trait_type": "Symbols",
            "value": 34,
            "max_value": 51
        }
    ],
    "cluster_id": 581,
    "num_schools": 120,
    "num_schools_connected": 67,
    "num_schools_unconnected": 43,
    "num_schools_unknown": 10,
    "schools": [
        {
            "lon": -86.40834,
            "lat": 15.71725,
            "school_name": "DOMINGO ENRIQUE",
            "country_name": "Honduras",
            "connectivity": true
        },
        {
            "lon": -87.34501,
            "lat": 15.75677,
            "school_name": "FROYLAN TURCIOS",
            "country_name": "Honduras",
            "connectivity": true
        },
        {
            "lon": -44.9931,
            "lat": -16.3502,
            "school_name": "EE OLHOS DAGUA",
            "country_name": "Brazil",
            "connectivity": true
        },
        {
            "lon": -41.4612,
            "lat": -13.4955,
            "school_name": "ESCOLA MUNICIPAL AUTO MEDRADO",
            "country_name": "Brazil",
            "connectivity": true
        },
        {
            "lon": -88.88018,
            "lat": 14.896,
            "school_name": "MUNDO INFANTIL",
            "country_name": "Honduras",
            "connectivity": true
        },
        {
            "lon": -52.7183,
            "lat": -22.1817,
            "school_name": "EMEI RISQUE E RABISQUE-POLO",
            "country_name": "Brazil",
            "connectivity": true
        },
        {
            "lon": -36.8053,
            "lat": -9.5085,
            "school_name": "GRUPO ESCOLAR MANOEL CORREIA SAMPAIO",
            "country_name": "Brazil",
            "connectivity": true
        },
        {
            "lon": -86.62541,
            "lat": 14.38288,
            "school_name": "DIONISIO DE HERRERA",
            "country_name": "Honduras",
            "connectivity": true
        },
        {
            "lon": -87.04413,
            "lat": 13.92305,
            "school_name": "DIONISIO DE HERRERA",
            "country_name": "Honduras",
            "connectivity": true
        },
        {
            "lon": 32.32206,
            "lat": -20.35356,
            "school_name": "TONGOGARA",
            "country_name": "Zimbabwe",
            "connectivity": true
        },
        {
            "lon": -41.4511,
            "lat": -8.0058,
            "school_name": "UNID ESC MAE ANA",
            "country_name": "Brazil",
            "connectivity": true
        },
        {
            "lon": -84.03560477,
            "lat": 9.77199107,
            "school_name": "FELIX MATA VALLE",
            "country_name": "Costa Rica",
            "connectivity": true
        },
        {
            "lon": -83.92280774,
            "lat": 9.84207562,
            "school_name": "ESCUELA COCORI",
            "country_name": "Costa Rica",
            "connectivity": true
        },
        {
            "lon": -83.88135345,
            "lat": 10.33078365,
            "school_name": "FINCA CUATRO",
            "country_name": "Costa Rica",
            "connectivity": true
        },
        {
            "lon": -83.51150466,
            "lat": 9.7362764,
            "school_name": "KJALARI",
            "country_name": "Costa Rica",
            "connectivity": true
        },
        {
            "lon": -83.8777285,
            "lat": 10.28301825,
            "school_name": "LICEO RURAL ISLAS DEL CHIRRIPO",
            "country_name": "Costa Rica",
            "connectivity": true
        },
        {
            "lon": 27.43759,
            "lat": -19.2679,
            "school_name": "MLEVU",
            "country_name": "Zimbabwe",
            "connectivity": true
        },
        {
            "lon": 26.55522,
            "lat": -18.11538,
            "school_name": "KATETE   PRIMARY SCHOOL",
            "country_name": "Zimbabwe",
            "connectivity": true
        },
        {
            "lon": 28.5151,
            "lat": -20.21631,
            "school_name": "SENZANGAKHONA",
            "country_name": "Zimbabwe",
            "connectivity": true
        },
        {
            "lon": -74.450526,
            "lat": 5.472015,
            "school_name": "CONCENTRACION RURAL MATA DE PLATANO",
            "country_name": "Colombia",
            "connectivity": true
        },
        {
            "lon": -75.56533588,
            "lat": 6.192733981,
            "school_name": "Name unknown",
            "country_name": "Colombia",
            "connectivity": false
        },
        {
            "lon": 121.443214,
            "lat": 15.785481,
            "school_name": "Leon B. Hulipas ES",
            "country_name": "Philippines",
            "connectivity": true
        },
        {
            "lon": 122.019501,
            "lat": 13.518504,
            "school_name": "Kasily ES",
            "country_name": "Philippines",
            "connectivity": true
        },
        {
            "lon": 124.774902,
            "lat": 11.984584,
            "school_name": "Buenos Aires ES",
            "country_name": "Philippines",
            "connectivity": true
        },
        {
            "lon": 124.893898,
            "lat": 11.908338,
            "school_name": "Hernandez ES",
            "country_name": "Philippines",
            "connectivity": true
        },
        {
            "lon": 124.9544561,
            "lat": 10.79817968,
            "school_name": "Pinocawan ES",
            "country_name": "Philippines",
            "connectivity": true
        },
        {
            "lon": 125.0738861,
            "lat": 7.192883491,
            "school_name": "Mahayag ES",
            "country_name": "Philippines",
            "connectivity": true
        },
        {
            "lon": -85.82365,
            "lat": 15.74917,
            "school_name": "RUBEN ANTUNEZ C.",
            "country_name": "Honduras",
            "connectivity": true
        },
        {
            "lon": -73.16428491,
            "lat": 5.168512512,
            "school_name": "ESC ESTANCIA Y TABL\u00d3N",
            "country_name": "Colombia",
            "connectivity": true
        },
        {
            "lon": -73.43555556,
            "lat": 3.741388889,
            "school_name": "SEDE LA REPRESA",
            "country_name": "Colombia",
            "connectivity": true
        },
        {
            "lon": -75.210574,
            "lat": 6.416659,
            "school_name": "ESCUELA RURAL LLANO DEL TRIGO",
            "country_name": "Colombia",
            "connectivity": true
        },
        {
            "lon": -76.58555477,
            "lat": 2.454121952,
            "school_name": "SEDE YANACONAS",
            "country_name": "Colombia",
            "connectivity": true
        },
        {
            "lon": -76.68681559,
            "lat": 2.354845387,
            "school_name": "JARDIN INFANTIL SAN JUDAS",
            "country_name": "Colombia",
            "connectivity": true
        },
        {
            "lon": -76.89555556,
            "lat": 5.32388888,
            "school_name": "SEDE ALMENDRO",
            "country_name": "Colombia",
            "connectivity": true
        },
        {
            "lon": -35.434334,
            "lat": -6.147036,
            "school_name": "CENTRO DE ATIVIDADES COMPLEMENTAR - PETI",
            "country_name": "Brazil",
            "connectivity": true
        },
        {
            "lon": -40.438538,
            "lat": -9.462642,
            "school_name": "ESCOLA MUNICIPAL CAXANGA",
            "country_name": "Brazil",
            "connectivity": true
        },
        {
            "lon": -67.8614,
            "lat": -9.9316,
            "school_name": "ESC MESTRE IRINEU SERRA",
            "country_name": "Brazil",
            "connectivity": false
        },
        {
            "lon": -59.5978,
            "lat": -4.3913,
            "school_name": "ESCOLA ESTADUAL PROF LOURENCO RODRIGUES DA MOTTA",
            "country_name": "Brazil",
            "connectivity": true
        },
        {
            "lon": -60.1861,
            "lat": -3.2736,
            "school_name": "ESC PROFA ERVILA SOUZA DE ASSIS",
            "country_name": "Brazil",
            "connectivity": true
        },
        {
            "lon": -56.0408,
            "lat": -5.2028,
            "school_name": "E M E F PLANALTO",
            "country_name": "Brazil",
            "connectivity": false
        },
        {
            "lon": -50.4805,
            "lat": -1.6782,
            "school_name": "E M E F SANTANA FURO DE BREVES",
            "country_name": "Brazil",
            "connectivity": false
        },
        {
            "lon": -49.3657,
            "lat": -9.3904,
            "school_name": "ESCOLA MUNICIPAL ARCO IRIS",
            "country_name": "Brazil",
            "connectivity": true
        },
        {
            "lon": -48.3807,
            "lat": -9.6601,
            "school_name": "ESCOLA ESTADUAL INDIGENA WAIKAWRA",
            "country_name": "Brazil",
            "connectivity": false
        },
        {
            "lon": -44.9814,
            "lat": -4.5412,
            "school_name": "U E DESEMBARGADOR JOSE SARNEY",
            "country_name": "Brazil",
            "connectivity": false
        },
        {
            "lon": -47.4112,
            "lat": -5.9394,
            "school_name": "EM SEMENTE DO SABER",
            "country_name": "Brazil",
            "connectivity": false
        },
        {
            "lon": -41.4275,
            "lat": -3.7163,
            "school_name": "GRUPO ESCOLAR SALUSTIANO VIEIRA DE PINHO",
            "country_name": "Brazil",
            "connectivity": false
        },
        {
            "lon": -49.3733,
            "lat": -18.0446,
            "school_name": "ESCOLA MUNICIPAL GERALDO DE ASSIS LOPES",
            "country_name": "Brazil",
            "connectivity": true
        },
        {
            "lon": -38.2664,
            "lat": -6.2352,
            "school_name": "UNID DE ENSINO XII FRANCISCO CIRIACO DA COSTA",
            "country_name": "Brazil",
            "connectivity": false
        },
        {
            "lon": -40.2767,
            "lat": -7.7539,
            "school_name": "ESCOLA MUL HORMEZINDA LEONEL DE ALENCAR",
            "country_name": "Brazil",
            "connectivity": true
        },
        {
            "lon": -38.1927,
            "lat": -8.54,
            "school_name": "ESCOLA MUNICIPAL DE AIRI",
            "country_name": "Brazil",
            "connectivity": false
        },
        {
            "lon": -35.56,
            "lat": -9.3795,
            "school_name": "ESCOLA MARIA DOLORES GUEDES",
            "country_name": "Brazil",
            "connectivity": true
        },
        {
            "lon": -35.7252,
            "lat": -9.6699,
            "school_name": "ESCOLA ESTADUAL LADISLAU NETO",
            "country_name": "Brazil",
            "connectivity": true
        },
        {
            "lon": -48.5477,
            "lat": -25.8312,
            "school_name": "FRANCISCO DOS SANTOS JR E M EI EF",
            "country_name": "Brazil",
            "connectivity": true
        },
        {
            "lon": -37.0613,
            "lat": -10.5523,
            "school_name": "ESC RURAL BOA VISTA",
            "country_name": "Brazil",
            "connectivity": true
        },
        {
            "lon": -40.5389,
            "lat": -11.7161,
            "school_name": "ESCOLA AURELINO LUIZ DO NASCIMENTO",
            "country_name": "Brazil",
            "connectivity": true
        },
        {
            "lon": -39.83,
            "lat": -11.9922,
            "school_name": "ESC JOAO GOMES DOS REIS",
            "country_name": "Brazil",
            "connectivity": true
        },
        {
            "lon": -42.837,
            "lat": -13.1084,
            "school_name": "COLEGIO MUNICIPAL DE 1 GRAU CANATIBA",
            "country_name": "Brazil",
            "connectivity": true
        },
        {
            "lon": -40.8814,
            "lat": -14.2235,
            "school_name": "ESC MUL D PEDRO I",
            "country_name": "Brazil",
            "connectivity": false
        },
        {
            "lon": -38.619,
            "lat": -11.6353,
            "school_name": "ESCOLA MUNICIPAL PROFESSORA MARIA DE VENANCIA",
            "country_name": "Brazil",
            "connectivity": false
        },
        {
            "lon": -41.8025,
            "lat": -19.945,
            "school_name": "ESCOLA MUNICIPAL PRESIDENTE BERNARDES",
            "country_name": "Brazil",
            "connectivity": true
        },
        {
            "lon": -44.9508,
            "lat": -22.3576,
            "school_name": "EM PROFA HELENA CARNEIRO",
            "country_name": "Brazil",
            "connectivity": true
        },
        {
            "lon": -43.1694,
            "lat": -21.9511,
            "school_name": "CRECHE CASULO DE SANTANA DO DESERTO",
            "country_name": "Brazil",
            "connectivity": false
        },
        {
            "lon": -47.7724,
            "lat": -19.978,
            "school_name": "CENTRO MUNICIPAL DE EDUCACAO INFANTIL ARIANE DEPEATRIZ",
            "country_name": "Brazil",
            "connectivity": true
        },
        {
            "lon": -44.2051,
            "lat": -19.9489,
            "school_name": "EM MARIA JOSE CAMPOS",
            "country_name": "Brazil",
            "connectivity": true
        },
        {
            "lon": -40.1054,
            "lat": -19.9157,
            "school_name": "EMP MAR AZUL",
            "country_name": "Brazil",
            "connectivity": false
        },
        {
            "lon": -40.1138,
            "lat": -19.3563,
            "school_name": "EUM SANTA LUZIA",
            "country_name": "Brazil",
            "connectivity": false
        },
        {
            "lon": -40.1703,
            "lat": -19.2047,
            "school_name": "EMUEF PONTAL DO OURO",
            "country_name": "Brazil",
            "connectivity": false
        },
        {
            "lon": -43.6557,
            "lat": -22.9225,
            "school_name": "CE ALDEBARA",
            "country_name": "Brazil",
            "connectivity": true
        },
        {
            "lon": -49.16,
            "lat": -26.4813,
            "school_name": "CMEI GUSTAVO MATHEDI",
            "country_name": "Brazil",
            "connectivity": true
        },
        {
            "lon": -56.0693,
            "lat": -15.5985,
            "school_name": "CRECHE MUN BENEDITA DIAS EVANGELISTA",
            "country_name": "Brazil",
            "connectivity": true
        },
        {
            "lon": -46.7026,
            "lat": -23.756,
            "school_name": "CEI DIRET JOSE ADRIANO MARREY JR VER",
            "country_name": "Brazil",
            "connectivity": true
        },
        {
            "lon": -46.5981,
            "lat": -23.686,
            "school_name": "FREITAS NOBRE DEPUTADO EM",
            "country_name": "Brazil",
            "connectivity": true
        },
        {
            "lon": -47.38,
            "lat": -22.3566,
            "school_name": "CEL JTO A EE CESARIO COIMBRA DR",
            "country_name": "Brazil",
            "connectivity": false
        },
        {
            "lon": -53.246,
            "lat": -27.0738,
            "school_name": "UD DE CAIBI",
            "country_name": "Brazil",
            "connectivity": true
        },
        {
            "lon": -52.3681,
            "lat": -31.7468,
            "school_name": "ESC EST ENS FUN PROFESSOR LUIS CARLOS CORREA DA SILVA",
            "country_name": "Brazil",
            "connectivity": true
        },
        {
            "lon": -53.9942,
            "lat": -29.7674,
            "school_name": "EMEF JOSE PAIM DE OLIVEIRA",
            "country_name": "Brazil",
            "connectivity": true
        },
        {
            "lon": -44.8825,
            "lat": -20.1502,
            "school_name": "EE LUIZ DE MELO VIANA SOBRINHO",
            "country_name": "Brazil",
            "connectivity": true
        },
        {
            "lon": -38.6005,
            "lat": -3.7179,
            "school_name": "ESCOLA MUNICIPAL CASTELO DE CASTRO",
            "country_name": "Brazil",
            "connectivity": true
        },
        {
            "lon": -46.4553,
            "lat": -23.682,
            "school_name": "ODILA BENTO MIRARCHI PROFESSORA",
            "country_name": "Brazil",
            "connectivity": true
        },
        {
            "lon": -47.8858,
            "lat": -15.7762,
            "school_name": "JI 304 NORTE",
            "country_name": "Brazil",
            "connectivity": true
        },
        {
            "lon": -62.2564,
            "lat": -10.9326,
            "school_name": "EEEFM PIONEIRA",
            "country_name": "Brazil",
            "connectivity": true
        },
        {
            "lon": -47.9549,
            "lat": -19.7722,
            "school_name": "ESCOLA MUNICIPAL PROFESSORA OLGA DE OLIVEIRA",
            "country_name": "Brazil",
            "connectivity": true
        },
        {
            "lon": -53.1343,
            "lat": -22.9371,
            "school_name": "ZULEIKA AP PETERSON E M PROFA EI EF",
            "country_name": "Brazil",
            "connectivity": true
        },
        {
            "lon": -44.9211,
            "lat": -20.1342,
            "school_name": "EM PE GUARITA",
            "country_name": "Brazil",
            "connectivity": true
        },
        {
            "lon": -43.2528,
            "lat": -22.9214,
            "school_name": "0209021 ESCOLA MUNICIPAL PRESIDENTE JOAO GOULART",
            "country_name": "Brazil",
            "connectivity": true
        },
        {
            "lon": -42.6099,
            "lat": -5.5636,
            "school_name": "ESCOLA MUNICIPAL PROFESSORA ANTONIA NORONHA",
            "country_name": "Brazil",
            "connectivity": true
        },
        {
            "lon": -46.3776,
            "lat": -23.4117,
            "school_name": "EPG - EPG TERESINHA MIAN ALVES PROFESSORA",
            "country_name": "Brazil",
            "connectivity": true
        },
        {
            "lon": -39.0997,
            "lat": -12.9838,
            "school_name": "EE - COLEGIO ESTADUAL LUIS EDUARDO MAGALHAES",
            "country_name": "Brazil",
            "connectivity": true
        },
        {
            "lon": -38.0468,
            "lat": -7.8343,
            "school_name": "ESCOLA MUNICIPAL FORTALEZA",
            "country_name": "Brazil",
            "connectivity": true
        }
    ],
    "num_countries": 11,
    "countries": [
        "Brazil",
        "Colombia",
        "Costa Rica",
        "Honduras",
        "Kazakhstan",
        "Kyrgyzstan",
        "Namibia",
        "Philippines",
        "Rwanda",
        "Sierra Leone",
        "Zimbabwe"
    ],
    "schools_no_data": [
        {
            "lon": 23.4276448,
            "lat": -19.982701,
            "school_name": "Letsholathebe (RPC)",
            "country_name": "Botswana",
            "connectivity": false
        },
        {
            "lon": -10.397578,
            "lat": 7.520919,
            "school_name": "Beaden Public School",
            "country_name": "Liberia",
            "connectivity": false
        },
        {
            "lon": -7.947148,
            "lat": 6.079138,
            "school_name": "Bently Elem School",
            "country_name": "Liberia",
            "connectivity": false
        },
        {
            "lon": -8.842577,
            "lat": 6.960693,
            "school_name": "Saclepea SDA School",
            "country_name": "Liberia",
            "connectivity": false
        },
        {
            "lon": 20.42180323,
            "lat": -5.96609198,
            "school_name": "INST NDAMBI DIMBO",
            "country_name": "Democratic Republic of the Congo",
            "connectivity": false
        },
        {
            "lon": 1.0421413,
            "lat": 6.0008209,
            "school_name": "Name unknown",
            "country_name": "Ghana",
            "connectivity": false
        },
        {
            "lon": -1.0497473,
            "lat": 10.4459778,
            "school_name": "Name unknown",
            "country_name": "Ghana",
            "connectivity": false
        },
        {
            "lon": -1.50413,
            "lat": 9.1660784,
            "school_name": "Name unknown",
            "country_name": "Ghana",
            "connectivity": false
        },
        {
            "lon": -0.0841539,
            "lat": 5.6068862,
            "school_name": "Name unknown",
            "country_name": "Ghana",
            "connectivity": false
        },
        {
            "lon": 30.43787375,
            "lat": 19.3671296,
            "school_name": "Name unknown",
            "country_name": "Sudan",
            "connectivity": false
        },
        {
            "lon": 33.74966622,
            "lat": 17.28363668,
            "school_name": "Name unknown",
            "country_name": "Sudan",
            "connectivity": false
        },
        {
            "lon": 36.05662067,
            "lat": 18.30137432,
            "school_name": "Name unknown",
            "country_name": "Sudan",
            "connectivity": false
        },
        {
            "lon": 32.9297107833333,
            "lat": 14.7980211833333,
            "school_name": "Name unknown",
            "country_name": "Sudan",
            "connectivity": false
        },
        {
            "lon": 32.8006124833333,
            "lat": 14.4136447833333,
            "school_name": "Name unknown",
            "country_name": "Sudan",
            "connectivity": false
        },
        {
            "lon": 32.4720806333333,
            "lat": 14.3030761166667,
            "school_name": "Name unknown",
            "country_name": "Sudan",
            "connectivity": false
        },
        {
            "lon": 32.5120691666667,
            "lat": 14.5208774666667,
            "school_name": "Name unknown",
            "country_name": "Sudan",
            "connectivity": false
        },
        {
            "lon": -0.0186717,
            "lat": 5.6551459,
            "school_name": "Name unknown",
            "country_name": "Ghana",
            "connectivity": false
        },
        {
            "lon": -1.6488992,
            "lat": 6.7027395,
            "school_name": "Name unknown",
            "country_name": "Ghana",
            "connectivity": false
        },
        {
            "lon": -0.1844515,
            "lat": 6.125497,
            "school_name": "Name unknown",
            "country_name": "Ghana",
            "connectivity": false
        },
        {
            "lon": -0.2165754,
            "lat": 5.5839712,
            "school_name": "Name unknown",
            "country_name": "Ghana",
            "connectivity": false
        },
        {
            "lon": -2.0034249,
            "lat": 5.2900302,
            "school_name": "Name unknown",
            "country_name": "Ghana",
            "connectivity": false
        },
        {
            "lon": -1.6388485,
            "lat": 6.7133166,
            "school_name": "Name unknown",
            "country_name": "Ghana",
            "connectivity": false
        },
        {
            "lon": -1.683003,
            "lat": 6.1939472,
            "school_name": "Name unknown",
            "country_name": "Ghana",
            "connectivity": false
        },
        {
            "lon": 36.45717,
            "lat": -3.30049,
            "school_name": "MLIMANI",
            "country_name": "United Republic of Tanzania",
            "connectivity": false
        },
        {
            "lon": 32.74461,
            "lat": -5.61283,
            "school_name": "SONGAMBELE",
            "country_name": "United Republic of Tanzania",
            "connectivity": false
        },
        {
            "lon": 37.28083,
            "lat": -3.25556,
            "school_name": "KINDI JUU",
            "country_name": "United Republic of Tanzania",
            "connectivity": false
        },
        {
            "lon": 35.52147,
            "lat": -10.82546,
            "school_name": "HUMBARO",
            "country_name": "United Republic of Tanzania",
            "connectivity": false
        },
        {
            "lon": 35.39833,
            "lat": -8.47491,
            "school_name": "SAWALA",
            "country_name": "United Republic of Tanzania",
            "connectivity": false
        },
        {
            "lon": 38.86988,
            "lat": -8.4357,
            "school_name": "NANDETE",
            "country_name": "United Republic of Tanzania",
            "connectivity": false
        },
        {
            "lon": 33.97778,
            "lat": -8.79497,
            "school_name": "UTENGULE USANGU",
            "country_name": "United Republic of Tanzania",
            "connectivity": false
        },
        {
            "lon": -2.3066354,
            "lat": 7.37008,
            "school_name": "Name unknown",
            "country_name": "Ghana",
            "connectivity": false
        },
        {
            "lon": -2.3793608,
            "lat": 7.9252797,
            "school_name": "Name unknown",
            "country_name": "Ghana",
            "connectivity": false
        },
        {
            "lon": -2.3153552,
            "lat": 7.3785814,
            "school_name": "Name unknown",
            "country_name": "Ghana",
            "connectivity": false
        },
        {
            "lon": -2.7880999,
            "lat": 7.5838506,
            "school_name": "Name unknown",
            "country_name": "Ghana",
            "connectivity": false
        },
        {
            "lon": 1.739602,
            "lat": 6.472306,
            "school_name": "JEDIL AGOME SEVA",
            "country_name": "Togo",
            "connectivity": false
        },
        {
            "lon": 1.62109,
            "lat": 6.41891,
            "school_name": "EPP ADEHO",
            "country_name": "Togo",
            "connectivity": false
        },
        {
            "lon": 1.427529,
            "lat": 6.300606,
            "school_name": "EPP SEVAGAN G/A",
            "country_name": "Togo",
            "connectivity": false
        },
        {
            "lon": 1.074022,
            "lat": 7.590237,
            "school_name": "EPP DEME",
            "country_name": "Togo",
            "connectivity": false
        },
        {
            "lon": 0.637287,
            "lat": 6.793926,
            "school_name": "EPP AGRIPPAKOFE G/B",
            "country_name": "Togo",
            "connectivity": false
        },
        {
            "lon": 0.826802,
            "lat": 7.73575,
            "school_name": "EPP TCHAFE HOHOE",
            "country_name": "Togo",
            "connectivity": false
        },
        {
            "lon": 0.395944,
            "lat": 10.178289,
            "school_name": "EPP FARE",
            "country_name": "Togo",
            "connectivity": false
        },
        {
            "lon": 0.071131667,
            "lat": 10.88343333,
            "school_name": "EPP TANLONA",
            "country_name": "Togo",
            "connectivity": false
        },
        {
            "lon": 0.51451,
            "lat": 10.741787,
            "school_name": "EPP BOMBENGOU",
            "country_name": "Togo",
            "connectivity": false
        },
        {
            "lon": 1.552095,
            "lat": 6.275733,
            "school_name": "CEG BADJENOPE",
            "country_name": "Togo",
            "connectivity": false
        },
        {
            "lon": 20.913796,
            "lat": 44.653691,
            "school_name": "\u0411\u0440\u0430\u043d\u0438\u0441\u043b\u0430\u0432 \u041d\u0443\u0448\u0438\u045b",
            "country_name": "Serbia",
            "connectivity": false
        },
        {
            "lon": 32.97964,
            "lat": -2.04061,
            "school_name": "HALWEGO",
            "country_name": "United Republic of Tanzania",
            "connectivity": false
        },
        {
            "lon": 36.86423,
            "lat": -9.02587,
            "school_name": "IPUTI",
            "country_name": "United Republic of Tanzania",
            "connectivity": false
        },
        {
            "lon": 30.60613,
            "lat": -2.5214,
            "school_name": "MUKIREHE",
            "country_name": "United Republic of Tanzania",
            "connectivity": false
        },
        {
            "lon": 38.04465,
            "lat": -5.48027,
            "school_name": "MSASA",
            "country_name": "United Republic of Tanzania",
            "connectivity": false
        },
        {
            "lon": 36.12606,
            "lat": -6.55005,
            "school_name": "MIMA",
            "country_name": "United Republic of Tanzania",
            "connectivity": false
        },
        {
            "lon": 39.20831,
            "lat": -6.15319,
            "school_name": "SAATENI",
            "country_name": "United Republic of Tanzania",
            "connectivity": false
        },
        {
            "lon": 1.2281,
            "lat": 6.15778,
            "school_name": "LPL LA REVELATION",
            "country_name": "Togo",
            "connectivity": false
        },
        {
            "lon": 1.214035,
            "lat": 6.408085,
            "school_name": "LYCEE DE TSEVIE VILLE III",
            "country_name": "Togo",
            "connectivity": false
        },
        {
            "lon": 0.304996,
            "lat": 10.554487,
            "school_name": "CPL SANTIBON",
            "country_name": "Togo",
            "connectivity": false
        },
        {
            "lon": 34.46568319,
            "lat": -15.59738614,
            "school_name": "Mpira",
            "country_name": "Malawi",
            "connectivity": false
        },
        {
            "lon": 33.36943192,
            "lat": -9.652713559,
            "school_name": "Chinunkha Primary",
            "country_name": "Malawi",
            "connectivity": false
        },
        {
            "lon": 35.20743041,
            "lat": -15.86975025,
            "school_name": "Mapesi CDSS",
            "country_name": "Malawi",
            "connectivity": false
        },
        {
            "lon": 35.71560755,
            "lat": -16.07852181,
            "school_name": "Muloza CDSS",
            "country_name": "Malawi",
            "connectivity": false
        },
        {
            "lon": 20.74197212,
            "lat": -5.778128311,
            "school_name": "INST LUCIANO",
            "country_name": "Democratic Republic of the Congo",
            "connectivity": false
        },
        {
            "lon": 7.171953215,
            "lat": 5.6035134,
            "school_name": "Name unknown",
            "country_name": "Nigeria",
            "connectivity": false
        },
        {
            "lon": 25.49723188,
            "lat": -6.022454659,
            "school_name": "INST MASENGO NGOY",
            "country_name": "Democratic Republic of the Congo",
            "connectivity": false
        },
        {
            "lon": 29.01590847,
            "lat": -1.68552772,
            "school_name": "INST MIRAZO",
            "country_name": "Democratic Republic of the Congo",
            "connectivity": false
        },
        {
            "lon": 7.015798,
            "lat": 5.748724,
            "school_name": "Name unknown",
            "country_name": "Nigeria",
            "connectivity": false
        },
        {
            "lon": 23.67223805,
            "lat": -9.684839776,
            "school_name": "INSTITUT TSHINKWALAL",
            "country_name": "Democratic Republic of the Congo",
            "connectivity": false
        },
        {
            "lon": 18.67799653,
            "lat": 3.226417389,
            "school_name": "INST MAWUYA",
            "country_name": "Democratic Republic of the Congo",
            "connectivity": false
        },
        {
            "lon": 29.13425,
            "lat": -3.466583333,
            "school_name": "EP KABIMBA",
            "country_name": "Democratic Republic of the Congo",
            "connectivity": false
        },
        {
            "lon": 28.78636928,
            "lat": -2.830257265,
            "school_name": "INSTITUT SHIRIKA",
            "country_name": "Democratic Republic of the Congo",
            "connectivity": false
        },
        {
            "lon": 28.4018256,
            "lat": 4.5687451,
            "school_name": "Nabima Primary School",
            "country_name": "South Sudan",
            "connectivity": false
        },
        {
            "lon": -64.868964,
            "lat": -19.148093,
            "school_name": "LAJAS",
            "country_name": "Bolivia (Plurinational State of)",
            "connectivity": false
        },
        {
            "lon": 33.16632,
            "lat": 0.50382,
            "school_name": "LIGHT N/P SCHOOL",
            "country_name": "Uganda",
            "connectivity": false
        },
        {
            "lon": 33.21537,
            "lat": 0.86159,
            "school_name": "ST KALOLI-NAMAGANDA PR SCH",
            "country_name": "Uganda",
            "connectivity": false
        },
        {
            "lon": 33.93288,
            "lat": 1.88507,
            "school_name": "ABELA PRIMARY SCHOOL",
            "country_name": "Uganda",
            "connectivity": false
        },
        {
            "lon": 34.37218,
            "lat": 1.29366,
            "school_name": "NAMUDONGO PRIMARY SCHOOL",
            "country_name": "Uganda",
            "connectivity": false
        },
        {
            "lon": 34.3182,
            "lat": 1.21526,
            "school_name": "BUMALISYA PRIMARY SCHOOL",
            "country_name": "Uganda",
            "connectivity": false
        },
        {
            "lon": 33.70122,
            "lat": 0.60148,
            "school_name": "St Ann's Vocational",
            "country_name": "Uganda",
            "connectivity": false
        },
        {
            "lon": 30.59213,
            "lat": 0.28676,
            "school_name": "Bisozi P.S.",
            "country_name": "Uganda",
            "connectivity": false
        },
        {
            "lon": 30.92912,
            "lat": 0.45489,
            "school_name": "Kibaale P.S",
            "country_name": "Uganda",
            "connectivity": false
        },
        {
            "lon": 32.54059,
            "lat": 1.98422,
            "school_name": "Apac Model P.7",
            "country_name": "Uganda",
            "connectivity": false
        },
        {
            "lon": 32.38768,
            "lat": 0.42141,
            "school_name": "Child - Care Academic Centre",
            "country_name": "Uganda",
            "connectivity": false
        },
        {
            "lon": 30.56704,
            "lat": -0.25011,
            "school_name": "Omukagyera P.S.",
            "country_name": "Uganda",
            "connectivity": false
        },
        {
            "lon": 34.15905,
            "lat": 1.30982,
            "school_name": "Kolir P.S.",
            "country_name": "Uganda",
            "connectivity": false
        },
        {
            "lon": 33.16431,
            "lat": 1.99999,
            "school_name": "Alenga P.S.",
            "country_name": "Uganda",
            "connectivity": false
        },
        {
            "lon": 34.38337,
            "lat": 1.02094,
            "school_name": "Kitsawa",
            "country_name": "Uganda",
            "connectivity": false
        },
        {
            "lon": 26.60283,
            "lat": -25.48261,
            "school_name": "Motlhaputseng",
            "country_name": "South Africa",
            "connectivity": false
        },
        {
            "lon": 18.48611,
            "lat": -33.93423,
            "school_name": "Garden Village Primary School",
            "country_name": "South Africa",
            "connectivity": false
        },
        {
            "lon": 19.4343,
            "lat": -33.66803,
            "school_name": "Avian Park Primary School",
            "country_name": "South Africa",
            "connectivity": false
        },
        {
            "lon": 19.00313,
            "lat": -33.73893,
            "school_name": "Amstelhof Primary School",
            "country_name": "South Africa",
            "connectivity": false
        },
        {
            "lon": 18.51991,
            "lat": -33.96531,
            "school_name": "Central College",
            "country_name": "South Africa",
            "connectivity": false
        },
        {
            "lon": 22.48343,
            "lat": -33.97706,
            "school_name": "Rosemoor Pre Primary School",
            "country_name": "South Africa",
            "connectivity": false
        },
        {
            "lon": 29.2551,
            "lat": -25.34917,
            "school_name": "Thabakhubedu Primary School",
            "country_name": "South Africa",
            "connectivity": false
        },
        {
            "lon": 29.27341,
            "lat": -23.81174,
            "school_name": "Hosea Ntsoane Primary School",
            "country_name": "South Africa",
            "connectivity": false
        },
        {
            "lon": 30.5002,
            "lat": -28.53777,
            "school_name": "Qiniso Primary School",
            "country_name": "South Africa",
            "connectivity": false
        },
        {
            "lon": 27.309,
            "lat": -24.57332,
            "school_name": "Kesarona Primary School",
            "country_name": "South Africa",
            "connectivity": false
        },
        {
            "lon": 30.47068,
            "lat": -23.06179,
            "school_name": "Mashawana Primary",
            "country_name": "South Africa",
            "connectivity": false
        },
        {
            "lon": 31.44076,
            "lat": -28.18321,
            "school_name": "Madaka Cr?\u0192?\u00a8che",
            "country_name": "South Africa",
            "connectivity": false
        },
        {
            "lon": 30.85436,
            "lat": -29.11776,
            "school_name": "Lilani Primary School",
            "country_name": "South Africa",
            "connectivity": false
        },
        {
            "lon": 31.36215,
            "lat": -27.2958,
            "school_name": "Siyethemba Primary School",
            "country_name": "South Africa",
            "connectivity": false
        },
        {
            "lon": 31.59841,
            "lat": -27.79969,
            "school_name": "Thokazi Primary School",
            "country_name": "South Africa",
            "connectivity": false
        },
        {
            "lon": 30.88101,
            "lat": -29.95319,
            "school_name": "Isikhwelo Senior Primary School",
            "country_name": "South Africa",
            "connectivity": false
        },
        {
            "lon": 30.94824,
            "lat": -28.95153,
            "school_name": "Vusisizwe Primary School",
            "country_name": "South Africa",
            "connectivity": false
        },
        {
            "lon": 28.22523,
            "lat": -26.01028,
            "school_name": "Child Academy Programmes",
            "country_name": "South Africa",
            "connectivity": false
        },
        {
            "lon": 27.88671,
            "lat": -26.14671,
            "school_name": "Stimu Todds",
            "country_name": "South Africa",
            "connectivity": false
        },
        {
            "lon": 28.87873,
            "lat": -31.95511,
            "school_name": "Vulinkete Senior Primary School",
            "country_name": "South Africa",
            "connectivity": false
        },
        {
            "lon": 28.13318,
            "lat": -26.29957,
            "school_name": "NOSA",
            "country_name": "South Africa",
            "connectivity": false
        },
        {
            "lon": 28.16243,
            "lat": -26.2151,
            "school_name": "Ekruhleni Development Company",
            "country_name": "South Africa",
            "connectivity": false
        },
        {
            "lon": 29.11839,
            "lat": -28.27536,
            "school_name": "New Horizen College Secondary School",
            "country_name": "South Africa",
            "connectivity": false
        },
        {
            "lon": 28.74417,
            "lat": -30.30273,
            "school_name": "Caiphus Khoapa Combined",
            "country_name": "South Africa",
            "connectivity": false
        },
        {
            "lon": 29.17135,
            "lat": -31.67591,
            "school_name": "Old Bunting Junior Secondary School",
            "country_name": "South Africa",
            "connectivity": false
        },
        {
            "lon": -63.082872,
            "lat": -17.773793,
            "school_name": "MISION SAN LORENZO",
            "country_name": "Bolivia (Plurinational State of)",
            "connectivity": false
        },
        {
            "lon": -58.65742494,
            "lat": -34.64878569,
            "school_name": "INSTITUTO PRIVADO JUAN B. ALBERDI",
            "country_name": "Argentina",
            "connectivity": false
        },
        {
            "lon": -58.56435855,
            "lat": -34.6343805,
            "school_name": "COLEGIO WARD",
            "country_name": "Argentina",
            "connectivity": false
        },
        {
            "lon": -60.71922269,
            "lat": -27.57345295,
            "school_name": "U.E.P. N\u00ba 61-EBEN-EZER",
            "country_name": "Argentina",
            "connectivity": false
        },
        {
            "lon": -58.50668768,
            "lat": -34.55303183,
            "school_name": "JARDIN DE INFANTES EL PRINCIPITO",
            "country_name": "Argentina",
            "connectivity": false
        },
        {
            "lon": -58.72482627,
            "lat": -34.51291648,
            "school_name": "INSTITUTO EVANGELICO DE LA ASAMBLEA CRISTIANA",
            "country_name": "Argentina",
            "connectivity": false
        },
        {
            "lon": -62.25649105,
            "lat": -38.73751358,
            "school_name": "JARDIN DE INFANTES N\u00ba942 ALBERTO PEDRO CABRERA",
            "country_name": "Argentina",
            "connectivity": false
        },
        {
            "lon": -60.4172359,
            "lat": -37.1276813,
            "school_name": "ESCUELA PRIMARIA N\u00ba9 BERNARDINO RIVADAVIA",
            "country_name": "Argentina",
            "connectivity": false
        },
        {
            "lon": -58.5649837,
            "lat": -34.63861532,
            "school_name": "INSTITUTO TECNICO SUPERIOR SANTA MARIA",
            "country_name": "Argentina",
            "connectivity": false
        },
        {
            "lon": -58.48231303,
            "lat": -34.79109155,
            "school_name": "ESCUELA PRIMARIA N\u00ba46 ROSARIO VERA PE\u00d1ALOZA",
            "country_name": "Argentina",
            "connectivity": false
        },
        {
            "lon": -56.9429351,
            "lat": -36.4070927,
            "school_name": "ESCUELA SECUNDARIA MEDIA N\u00ba1 GRAL. M. BELGRANO",
            "country_name": "Argentina",
            "connectivity": false
        },
        {
            "lon": -58.18787573,
            "lat": -34.79011769,
            "school_name": "JARDIN DE INFANTES N\u00ba910 DR. RENE FAVALORO",
            "country_name": "Argentina",
            "connectivity": false
        },
        {
            "lon": -59.7496425,
            "lat": -34.6088927,
            "school_name": "JARDIN DE INFANTES N\u00ba902 MALVINAS ARGENTINAS",
            "country_name": "Argentina",
            "connectivity": false
        },
        {
            "lon": -58.44551517,
            "lat": -34.71324116,
            "school_name": "ESCUELA PRIMARIA N\u00ba85 RICARDO G\u00dcIRALDES",
            "country_name": "Argentina",
            "connectivity": false
        },
        {
            "lon": -58.61911587,
            "lat": -34.77235492,
            "school_name": "ESCUELA EVANGELICA LA BUENA SEMILLA",
            "country_name": "Argentina",
            "connectivity": false
        },
        {
            "lon": -58.59835533,
            "lat": -26.96544747,
            "school_name": "E.E.P. N\u00ba 96-JUAN PASCUAL PRINGLES",
            "country_name": "Argentina",
            "connectivity": false
        },
        {
            "lon": -61.4015873,
            "lat": -26.41486988,
            "school_name": "E.E.P. N\u00ba 844",
            "country_name": "Argentina",
            "connectivity": false
        },
        {
            "lon": 7.385522,
            "lat": 5.021672,
            "school_name": "Name unknown",
            "country_name": "Nigeria",
            "connectivity": false
        },
        {
            "lon": -62.63168946,
            "lat": -32.03238132,
            "school_name": "GREGORIA MATORRAS DE SAN MARTIN",
            "country_name": "Argentina",
            "connectivity": false
        },
        {
            "lon": -57.62824567,
            "lat": -30.25353382,
            "school_name": "ESCUELA PARROQUIAL PBRO.JUAN PERELLO I.P.15",
            "country_name": "Argentina",
            "connectivity": false
        },
        {
            "lon": -60.58912675,
            "lat": -24.69660769,
            "school_name": "EPEP N\u00ba111",
            "country_name": "Argentina",
            "connectivity": false
        },
        {
            "lon": -59.48779341,
            "lat": -24.76171366,
            "school_name": "EPES N\u00ba 13 - EPEP N\u00ba392",
            "country_name": "Argentina",
            "connectivity": false
        },
        {
            "lon": -66.8599985,
            "lat": -29.42351818,
            "school_name": "ESC.N\u00b0037 PROVINCIA DE SANTA FE",
            "country_name": "Argentina",
            "connectivity": false
        },
        {
            "lon": -66.85949714,
            "lat": -29.4162311,
            "school_name": "ESC.N\u00b0243 GDOR.BENJAMIN DE LA VEGA",
            "country_name": "Argentina",
            "connectivity": false
        },
        {
            "lon": -66.84410089,
            "lat": -29.41097742,
            "school_name": "ESCUELA ESPECIAL N\u00b0371 MARIA MADRE DEL BUEN CAMINO",
            "country_name": "Argentina",
            "connectivity": false
        },
        {
            "lon": -66.37398209,
            "lat": -30.33850146,
            "school_name": "ESC.N\u00b0349",
            "country_name": "Argentina",
            "connectivity": false
        },
        {
            "lon": -66.85903749,
            "lat": -29.40915523,
            "school_name": "UNIDAD EDUCATIVA N\u00b035",
            "country_name": "Argentina",
            "connectivity": false
        },
        {
            "lon": -68.32597914,
            "lat": -33.225127,
            "school_name": "JERONIMO F. REZZOAGLI",
            "country_name": "Argentina",
            "connectivity": false
        },
        {
            "lon": -54.57740159,
            "lat": -26.55717734,
            "school_name": "AULA SAT. N\u00b0 01 ESC. N\u00b0 677",
            "country_name": "Argentina",
            "connectivity": false
        },
        {
            "lon": -55.89100982,
            "lat": -27.42913547,
            "school_name": "ESC. COMERCIO N\u00b0 8 GRANADERO LORENZO NAPUREY",
            "country_name": "Argentina",
            "connectivity": false
        },
        {
            "lon": -71.31360632,
            "lat": -40.14684726,
            "school_name": "ESCUELA ESPECIAL 8",
            "country_name": "Argentina",
            "connectivity": false
        },
        {
            "lon": -63.00762923,
            "lat": -40.80390755,
            "school_name": "INSTITUTO DE FORMACION DOCENTE CONTINUA",
            "country_name": "Argentina",
            "connectivity": false
        },
        {
            "lon": -65.40390626,
            "lat": -24.78669534,
            "school_name": "COLEGIO SECUNDARIO DR.MANUEL ANTONIO CASTRO EX N\u00b081",
            "country_name": "Argentina",
            "connectivity": false
        },
        {
            "lon": -60.76657,
            "lat": -33.00001,
            "school_name": "JARDIN DE INFANTES NRO 133 EL HORNERO",
            "country_name": "Argentina",
            "connectivity": false
        },
        {
            "lon": -61.71551388,
            "lat": -33.3791091,
            "school_name": "E.E.S. ORIENTADA PART. INC. NRO 8070 LOS QUIRQUINCHOS",
            "country_name": "Argentina",
            "connectivity": false
        },
        {
            "lon": 7.560538,
            "lat": 5.626501,
            "school_name": "Name unknown",
            "country_name": "Nigeria",
            "connectivity": false
        },
        {
            "lon": 7.39650938,
            "lat": 5.125317265,
            "school_name": "Name unknown",
            "country_name": "Nigeria",
            "connectivity": false
        },
        {
            "lon": -76.9973,
            "lat": -12.0247,
            "school_name": "ANTENOR ORREGO ESPINOZA",
            "country_name": "Peru",
            "connectivity": false
        },
        {
            "lon": 7.569953333,
            "lat": 5.946181667,
            "school_name": "Name unknown",
            "country_name": "Nigeria",
            "connectivity": false
        },
        {
            "lon": 12.49392001,
            "lat": 12.39091171,
            "school_name": "Name unknown",
            "country_name": "Nigeria",
            "connectivity": false
        },
        {
            "lon": 6.444448821,
            "lat": 7.227761584,
            "school_name": "Name unknown",
            "country_name": "Nigeria",
            "connectivity": false
        },
        {
            "lon": 5.391058333,
            "lat": 7.684316667,
            "school_name": "Name unknown",
            "country_name": "Nigeria",
            "connectivity": false
        },
        {
            "lon": 7.489794,
            "lat": 6.4126,
            "school_name": "Name unknown",
            "country_name": "Nigeria",
            "connectivity": false
        },
        {
            "lon": 3.06305,
            "lat": 6.49267,
            "school_name": "Name unknown",
            "country_name": "Nigeria",
            "connectivity": false
        },
        {
            "lon": 7.37475,
            "lat": 6.845196,
            "school_name": "Name unknown",
            "country_name": "Nigeria",
            "connectivity": false
        },
        {
            "lon": 7.37246,
            "lat": 6.296323,
            "school_name": "Name unknown",
            "country_name": "Nigeria",
            "connectivity": false
        },
        {
            "lon": 7.124658,
            "lat": 6.497765,
            "school_name": "Name unknown",
            "country_name": "Nigeria",
            "connectivity": false
        },
        {
            "lon": 11.2876383,
            "lat": 10.4491617,
            "school_name": "Name unknown",
            "country_name": "Nigeria",
            "connectivity": false
        },
        {
            "lon": 11.32821833,
            "lat": 9.682171667,
            "school_name": "Name unknown",
            "country_name": "Nigeria",
            "connectivity": false
        },
        {
            "lon": 7.199725,
            "lat": 5.771524,
            "school_name": "Name unknown",
            "country_name": "Nigeria",
            "connectivity": false
        },
        {
            "lon": 6.807278,
            "lat": 5.716977,
            "school_name": "Name unknown",
            "country_name": "Nigeria",
            "connectivity": false
        },
        {
            "lon": -77.035,
            "lat": -12.0687,
            "school_name": "030 SANTA TERESITA DEL DIVINO NI\u00d1O",
            "country_name": "Peru",
            "connectivity": false
        },
        {
            "lon": -76.5192,
            "lat": -6.7327,
            "school_name": "536",
            "country_name": "Peru",
            "connectivity": false
        },
        {
            "lon": -76.3093,
            "lat": -6.14843,
            "school_name": "565",
            "country_name": "Peru",
            "connectivity": false
        },
        {
            "lon": -76.0745,
            "lat": -7.02508,
            "school_name": "646",
            "country_name": "Peru",
            "connectivity": false
        },
        {
            "lon": -80.1972,
            "lat": -3.613,
            "school_name": "72",
            "country_name": "Peru",
            "connectivity": false
        },
        {
            "lon": -78.8051,
            "lat": -6.66089,
            "school_name": "10635",
            "country_name": "Peru",
            "connectivity": false
        },
        {
            "lon": -79.58,
            "lat": -6.94185,
            "school_name": "11115",
            "country_name": "Peru",
            "connectivity": false
        },
        {
            "lon": -76.9226,
            "lat": -11.9964,
            "school_name": "1224",
            "country_name": "Peru",
            "connectivity": false
        },
        {
            "lon": -74.9952,
            "lat": -10.9894,
            "school_name": "1415",
            "country_name": "Peru",
            "connectivity": false
        },
        {
            "lon": -79.9755,
            "lat": -4.8196,
            "school_name": "14403",
            "country_name": "Peru",
            "connectivity": false
        },
        {
            "lon": -79.0243,
            "lat": -5.90658,
            "school_name": "16088",
            "country_name": "Peru",
            "connectivity": false
        },
        {
            "lon": -78.4215,
            "lat": -6.0973,
            "school_name": "16263",
            "country_name": "Peru",
            "connectivity": false
        },
        {
            "lon": -77.7218,
            "lat": -4.3253,
            "school_name": "16360",
            "country_name": "Peru",
            "connectivity": false
        },
        {
            "lon": -78.7285,
            "lat": -6.12242,
            "school_name": "16382",
            "country_name": "Peru",
            "connectivity": false
        },
        {
            "lon": -78.0559,
            "lat": -8.33467,
            "school_name": "1681",
            "country_name": "Peru",
            "connectivity": false
        },
        {
            "lon": -77.8417,
            "lat": -6.457,
            "school_name": "18024",
            "country_name": "Peru",
            "connectivity": false
        },
        {
            "lon": -75.8613,
            "lat": -6.4233,
            "school_name": "194",
            "country_name": "Peru",
            "connectivity": false
        },
        {
            "lon": -77.2282,
            "lat": -10.7359,
            "school_name": "21008",
            "country_name": "Peru",
            "connectivity": false
        },
        {
            "lon": -75.6791,
            "lat": -14.3829,
            "school_name": "22348 SANTIAGO BARRIOS TORREALVA",
            "country_name": "Peru",
            "connectivity": false
        },
        {
            "lon": -74.7865,
            "lat": -14.272,
            "school_name": "24182",
            "country_name": "Peru",
            "connectivity": false
        },
        {
            "lon": -73.2823,
            "lat": -13.6784,
            "school_name": "277-16",
            "country_name": "Peru",
            "connectivity": false
        },
        {
            "lon": -74.884,
            "lat": -10.9281,
            "school_name": "30001-72",
            "country_name": "Peru",
            "connectivity": false
        },
        {
            "lon": -76.0405,
            "lat": -11.1689,
            "school_name": "30584",
            "country_name": "Peru",
            "connectivity": false
        },
        {
            "lon": -74.6347,
            "lat": -11.2491,
            "school_name": "30632 DIVINO NI\u00d1O JESUS",
            "country_name": "Peru",
            "connectivity": false
        },
        {
            "lon": -69.54,
            "lat": -16.1648,
            "school_name": "313",
            "country_name": "Peru",
            "connectivity": false
        },
        {
            "lon": -73.904,
            "lat": -13.8008,
            "school_name": "315 LOS ANGELES",
            "country_name": "Peru",
            "connectivity": false
        },
        {
            "lon": -76.249,
            "lat": -9.94349,
            "school_name": "32927 MIRKO A. VALVERDE ALMEIDA",
            "country_name": "Peru",
            "connectivity": false
        },
        {
            "lon": -75.5345,
            "lat": -13.2193,
            "school_name": "34030",
            "country_name": "Peru",
            "connectivity": false
        },
        {
            "lon": -74.8589,
            "lat": -12.6789,
            "school_name": "36454",
            "country_name": "Peru",
            "connectivity": false
        },
        {
            "lon": -74.182,
            "lat": -13.535,
            "school_name": "38171",
            "country_name": "Peru",
            "connectivity": false
        },
        {
            "lon": -73.0037,
            "lat": -11.3868,
            "school_name": "387",
            "country_name": "Peru",
            "connectivity": false
        },
        {
            "lon": -73.912,
            "lat": -12.4112,
            "school_name": "38859",
            "country_name": "Peru",
            "connectivity": false
        },
        {
            "lon": -71.7009,
            "lat": -15.6619,
            "school_name": "40376",
            "country_name": "Peru",
            "connectivity": false
        },
        {
            "lon": -78.0657,
            "lat": -7.32827,
            "school_name": "408",
            "country_name": "Peru",
            "connectivity": false
        },
        {
            "lon": -76.8189,
            "lat": -6.4496,
            "school_name": "412",
            "country_name": "Peru",
            "connectivity": false
        },
        {
            "lon": -74.0899,
            "lat": -13.2474,
            "school_name": "432-180",
            "country_name": "Peru",
            "connectivity": false
        },
        {
            "lon": -73.7592,
            "lat": -13.6077,
            "school_name": "475-3",
            "country_name": "Peru",
            "connectivity": false
        },
        {
            "lon": -71.9931,
            "lat": -13.4754,
            "school_name": "501358 SALKANTAY",
            "country_name": "Peru",
            "connectivity": false
        },
        {
            "lon": -73.5612,
            "lat": -12.8668,
            "school_name": "501383",
            "country_name": "Peru",
            "connectivity": false
        },
        {
            "lon": -71.8106,
            "lat": -13.572,
            "school_name": "50500 SAN MARTIN DE PORRES",
            "country_name": "Peru",
            "connectivity": false
        },
        {
            "lon": -72.0849,
            "lat": -14.1427,
            "school_name": "50673",
            "country_name": "Peru",
            "connectivity": false
        },
        {
            "lon": -71.9603,
            "lat": -13.5121,
            "school_name": "50966",
            "country_name": "Peru",
            "connectivity": false
        },
        {
            "lon": -77.1384,
            "lat": -11.8214,
            "school_name": "5123 FRANCISCO BOLOGNESI CERVANTES",
            "country_name": "Peru",
            "connectivity": false
        },
        {
            "lon": -73.3211,
            "lat": -14.1178,
            "school_name": "54304 VIRGEN DEL CARMEN",
            "country_name": "Peru",
            "connectivity": false
        },
        {
            "lon": -73.5544,
            "lat": -13.5309,
            "school_name": "54611",
            "country_name": "Peru",
            "connectivity": false
        },
        {
            "lon": -72.6945,
            "lat": -13.5672,
            "school_name": "54735",
            "country_name": "Peru",
            "connectivity": false
        },
        {
            "lon": -72.1361,
            "lat": -14.5722,
            "school_name": "56428",
            "country_name": "Peru",
            "connectivity": false
        },
        {
            "lon": -77.4524,
            "lat": -8.90165,
            "school_name": "593",
            "country_name": "Peru",
            "connectivity": false
        },
        {
            "lon": -74.9014,
            "lat": -4.71977,
            "school_name": "6010140",
            "country_name": "Peru",
            "connectivity": false
        },
        {
            "lon": -73.2821,
            "lat": -3.78157,
            "school_name": "6010227 CLUB DE LEONES DE LEMGO ALEMANIA",
            "country_name": "Peru",
            "connectivity": false
        },
        {
            "lon": -76.2736,
            "lat": -9.25453,
            "school_name": "607",
            "country_name": "Peru",
            "connectivity": false
        },
        {
            "lon": -73.8566,
            "lat": -5.06627,
            "school_name": "61025 ISAURA CASIANA MAFALDO GORDON",
            "country_name": "Peru",
            "connectivity": false
        },
        {
            "lon": -77.4182,
            "lat": -4.56694,
            "school_name": "62141",
            "country_name": "Peru",
            "connectivity": false
        },
        {
            "lon": -75.3559,
            "lat": -7.83471,
            "school_name": "64224-B",
            "country_name": "Peru",
            "connectivity": false
        },
        {
            "lon": -75.237,
            "lat": -7.26838,
            "school_name": "64232",
            "country_name": "Peru",
            "connectivity": false
        },
        {
            "lon": -73.7784,
            "lat": -10.7066,
            "school_name": "65306",
            "country_name": "Peru",
            "connectivity": false
        },
        {
            "lon": -76.7296,
            "lat": -9.59356,
            "school_name": "694",
            "country_name": "Peru",
            "connectivity": false
        },
        {
            "lon": -77.0245,
            "lat": -12.1658,
            "school_name": "7036 ANGELICA RECHARTE CORRALES",
            "country_name": "Peru",
            "connectivity": false
        },
        {
            "lon": -71.52,
            "lat": -14.8727,
            "school_name": "723",
            "country_name": "Peru",
            "connectivity": false
        },
        {
            "lon": -79.1096,
            "lat": -7.7136,
            "school_name": "80021 STA. TERESITA DEL NI\u00d1O JESUS",
            "country_name": "Peru",
            "connectivity": false
        },
        {
            "lon": -79.0011,
            "lat": -8.08008,
            "school_name": "80819 FRANCISCO LIZARZABURO",
            "country_name": "Peru",
            "connectivity": false
        },
        {
            "lon": -79.5632,
            "lat": -7.4133,
            "school_name": "80880 CONSUELO SOLANO DE VILLON",
            "country_name": "Peru",
            "connectivity": false
        },
        {
            "lon": -70.3262,
            "lat": -14.5789,
            "school_name": "810",
            "country_name": "Peru",
            "connectivity": false
        },
        {
            "lon": -78.2361,
            "lat": -8.07343,
            "school_name": "82074 PEDRO RUIZ GALLO",
            "country_name": "Peru",
            "connectivity": false
        },
        {
            "lon": -78.133,
            "lat": -6.92421,
            "school_name": "82417 HUACAPAMPA",
            "country_name": "Peru",
            "connectivity": false
        },
        {
            "lon": -78.3257,
            "lat": -6.80298,
            "school_name": "82474",
            "country_name": "Peru",
            "connectivity": false
        },
        {
            "lon": -78.2263,
            "lat": -6.77904,
            "school_name": "82497",
            "country_name": "Peru",
            "connectivity": false
        },
        {
            "lon": -77.7298,
            "lat": -9.09514,
            "school_name": "86652",
            "country_name": "Peru",
            "connectivity": false
        },
        {
            "lon": -77.1208,
            "lat": -9.35895,
            "school_name": "86726",
            "country_name": "Peru",
            "connectivity": false
        },
        {
            "lon": -78.0714,
            "lat": -8.9423,
            "school_name": "88092",
            "country_name": "Peru",
            "connectivity": false
        },
        {
            "lon": -78.1849,
            "lat": -7.13688,
            "school_name": "916",
            "country_name": "Peru",
            "connectivity": false
        },
        {
            "lon": -78.1715,
            "lat": -7.33133,
            "school_name": "ALBERTO BUENO TIRADO",
            "country_name": "Peru",
            "connectivity": false
        },
        {
            "lon": -69.3706,
            "lat": -15.1313,
            "school_name": "ALTO GRANDE",
            "country_name": "Peru",
            "connectivity": false
        },
        {
            "lon": 3.17982,
            "lat": 6.50271,
            "school_name": "Name unknown",
            "country_name": "Nigeria",
            "connectivity": false
        },
        {
            "lon": -80.4489,
            "lat": -3.57558,
            "school_name": "CEBA - LAS MERCEDES",
            "country_name": "Peru",
            "connectivity": false
        },
        {
            "lon": -74.5269,
            "lat": -12.5148,
            "school_name": "CEBA - PACHAMARCA",
            "country_name": "Peru",
            "connectivity": false
        },
        {
            "lon": -79.8696,
            "lat": -6.79013,
            "school_name": "CEIBOS",
            "country_name": "Peru",
            "connectivity": false
        },
        {
            "lon": -77.8209,
            "lat": -7.86567,
            "school_name": "EL CEDRO",
            "country_name": "Peru",
            "connectivity": false
        },
        {
            "lon": -77.1204,
            "lat": -11.9959,
            "school_name": "EL MUNDO DE LOS NI\u00d1OS",
            "country_name": "Peru",
            "connectivity": false
        },
        {
            "lon": -77.0282,
            "lat": -12.0265,
            "school_name": "FAMILIA UNIVERSAL SCHOOL",
            "country_name": "Peru",
            "connectivity": false
        },
        {
            "lon": -78.5278,
            "lat": -9.11343,
            "school_name": "FE Y ALEGRIA 14",
            "country_name": "Peru",
            "connectivity": false
        },
        {
            "lon": -77.0275,
            "lat": -11.9123,
            "school_name": "GETSEMANI",
            "country_name": "Peru",
            "connectivity": false
        },
        {
            "lon": -75.1843,
            "lat": -12.0248,
            "school_name": "HAPPY BABY KIDS",
            "country_name": "Peru",
            "connectivity": false
        },
        {
            "lon": -78.1978,
            "lat": -8.14167,
            "school_name": "HUELLITAS",
            "country_name": "Peru",
            "connectivity": false
        },
        {
            "lon": -72.695,
            "lat": -12.8578,
            "school_name": "JESUS DE NAZARET",
            "country_name": "Peru",
            "connectivity": false
        },
        {
            "lon": -80.5463,
            "lat": -4.87267,
            "school_name": "JESUS DE NAZARETH",
            "country_name": "Peru",
            "connectivity": false
        },
        {
            "lon": -74.1243,
            "lat": -14.683,
            "school_name": "JOSE MARIA ARGUEDAS",
            "country_name": "Peru",
            "connectivity": false
        },
        {
            "lon": -76.7925,
            "lat": -12.4908,
            "school_name": "JUGAR PARA CRECER",
            "country_name": "Peru",
            "connectivity": false
        },
        {
            "lon": -72.4946,
            "lat": -16.0782,
            "school_name": "LOS MAJE\u00d1ITOS",
            "country_name": "Peru",
            "connectivity": false
        },
        {
            "lon": -80.4783,
            "lat": -3.60085,
            "school_name": "LOS PATITOS",
            "country_name": "Peru",
            "connectivity": false
        },
        {
            "lon": -75.0083,
            "lat": -7.34471,
            "school_name": "MANUEL ENRIQUE ROJAS VELA",
            "country_name": "Peru",
            "connectivity": false
        },
        {
            "lon": -79.8332,
            "lat": -6.76043,
            "school_name": "MARIA REICHE NEUMAN",
            "country_name": "Peru",
            "connectivity": false
        },
        {
            "lon": -72.251,
            "lat": -3.58021,
            "school_name": "MAZAN",
            "country_name": "Peru",
            "connectivity": false
        },
        {
            "lon": -77.1152,
            "lat": -11.9746,
            "school_name": "MIS ESPONJITAS",
            "country_name": "Peru",
            "connectivity": false
        },
        {
            "lon": -78.6742,
            "lat": -6.64106,
            "school_name": "RAYITOS DE SOL",
            "country_name": "Peru",
            "connectivity": false
        },
        {
            "lon": -71.9703,
            "lat": -13.5291,
            "school_name": "REINA DE LOS CIELOS",
            "country_name": "Peru",
            "connectivity": false
        },
        {
            "lon": -76.1993,
            "lat": -13.7116,
            "school_name": "REYNA DE LA PAZ",
            "country_name": "Peru",
            "connectivity": false
        },
        {
            "lon": -75.644,
            "lat": -11.2662,
            "school_name": "SAN MARTIN DE PORRES",
            "country_name": "Peru",
            "connectivity": false
        },
        {
            "lon": -74.8662,
            "lat": -8.20551,
            "school_name": "SANTA CLARA",
            "country_name": "Peru",
            "connectivity": false
        },
        {
            "lon": -73.9891,
            "lat": -10.3176,
            "school_name": "SANTA ELENA DE PUNTIJAO-B",
            "country_name": "Peru",
            "connectivity": false
        },
        {
            "lon": -77.551,
            "lat": -6.28937,
            "school_name": "SANTA ROSA",
            "country_name": "Peru",
            "connectivity": false
        },
        {
            "lon": -71.526,
            "lat": -16.4351,
            "school_name": "WOLFANG AMADEUS MOZART",
            "country_name": "Peru",
            "connectivity": false
        },
        {
            "lon": 8.9692049,
            "lat": 12.3498945,
            "school_name": "Name unknown",
            "country_name": "Nigeria",
            "connectivity": false
        },
        {
            "lon": 9.1382914,
            "lat": 12.6381826,
            "school_name": "Name unknown",
            "country_name": "Nigeria",
            "connectivity": false
        },
        {
            "lon": 7.76747764,
            "lat": 10.75125971,
            "school_name": "Name unknown",
            "country_name": "Nigeria",
            "connectivity": false
        },
        {
            "lon": 7.79530953,
            "lat": 9.729015131,
            "school_name": "Name unknown",
            "country_name": "Nigeria",
            "connectivity": false
        },
        {
            "lon": 7.976626754,
            "lat": 9.666879773,
            "school_name": "Name unknown",
            "country_name": "Nigeria",
            "connectivity": false
        },
        {
            "lon": 7.410211852,
            "lat": 10.51981275,
            "school_name": "Name unknown",
            "country_name": "Nigeria",
            "connectivity": false
        },
        {
            "lon": 8.25070323,
            "lat": 10.87537325,
            "school_name": "Name unknown",
            "country_name": "Nigeria",
            "connectivity": false
        },
        {
            "lon": 8.49470843,
            "lat": 10.83119157,
            "school_name": "Name unknown",
            "country_name": "Nigeria",
            "connectivity": false
        },
        {
            "lon": 8.57252083,
            "lat": 9.336499331,
            "school_name": "Name unknown",
            "country_name": "Nigeria",
            "connectivity": false
        },
        {
            "lon": 8.547633,
            "lat": 11.94953,
            "school_name": "Name unknown",
            "country_name": "Nigeria",
            "connectivity": false
        },
        {
            "lon": 8.507483,
            "lat": 11.98596,
            "school_name": "Name unknown",
            "country_name": "Nigeria",
            "connectivity": false
        },
        {
            "lon": 8.595285,
            "lat": 11.52391,
            "school_name": "Name unknown",
            "country_name": "Nigeria",
            "connectivity": false
        },
        {
            "lon": 7.934003,
            "lat": 11.90826,
            "school_name": "Name unknown",
            "country_name": "Nigeria",
            "connectivity": false
        },
        {
            "lon": 8.628595,
            "lat": 10.70086,
            "school_name": "Name unknown",
            "country_name": "Nigeria",
            "connectivity": false
        },
        {
            "lon": 8.385723,
            "lat": 11.56986,
            "school_name": "Name unknown",
            "country_name": "Nigeria",
            "connectivity": false
        },
        {
            "lon": 8.695268,
            "lat": 11.56492,
            "school_name": "Name unknown",
            "country_name": "Nigeria",
            "connectivity": false
        },
        {
            "lon": 8.39021,
            "lat": 11.90742,
            "school_name": "Name unknown",
            "country_name": "Nigeria",
            "connectivity": false
        },
        {
            "lon": 8.396987,
            "lat": 11.88826,
            "school_name": "Name unknown",
            "country_name": "Nigeria",
            "connectivity": false
        },
        {
            "lon": 12.47723762,
            "lat": 10.14744858,
            "school_name": "Name unknown",
            "country_name": "Nigeria",
            "connectivity": false
        },
        {
            "lon": 11.870364,
            "lat": 9.81225,
            "school_name": "Name unknown",
            "country_name": "Nigeria",
            "connectivity": false
        },
        {
            "lon": 11.932763,
            "lat": 9.856338,
            "school_name": "Name unknown",
            "country_name": "Nigeria",
            "connectivity": false
        },
        {
            "lon": 7.259822,
            "lat": 7.195766,
            "school_name": "Name unknown",
            "country_name": "Nigeria",
            "connectivity": false
        },
        {
            "lon": 6.198678,
            "lat": 7.604511,
            "school_name": "Name unknown",
            "country_name": "Nigeria",
            "connectivity": false
        },
        {
            "lon": 3.197364,
            "lat": 9.228656,
            "school_name": "Name unknown",
            "country_name": "Nigeria",
            "connectivity": false
        },
        {
            "lon": 4.870698,
            "lat": 8.394358,
            "school_name": "Name unknown",
            "country_name": "Nigeria",
            "connectivity": false
        },
        {
            "lon": 5.0375,
            "lat": 8.310772,
            "school_name": "Name unknown",
            "country_name": "Nigeria",
            "connectivity": false
        },
        {
            "lon": 5.144359,
            "lat": 8.088518,
            "school_name": "Name unknown",
            "country_name": "Nigeria",
            "connectivity": false
        },
        {
            "lon": 4.731796,
            "lat": 8.165525,
            "school_name": "Name unknown",
            "country_name": "Nigeria",
            "connectivity": false
        },
        {
            "lon": 3.243215,
            "lat": 6.637115,
            "school_name": "Name unknown",
            "country_name": "Nigeria",
            "connectivity": false
        },
        {
            "lon": 3.522977267,
            "lat": 6.430828192,
            "school_name": "Name unknown",
            "country_name": "Nigeria",
            "connectivity": false
        },
        {
            "lon": 3.51424,
            "lat": 6.62072,
            "school_name": "Name unknown",
            "country_name": "Nigeria",
            "connectivity": false
        },
        {
            "lon": 3.52079,
            "lat": 6.63228,
            "school_name": "Name unknown",
            "country_name": "Nigeria",
            "connectivity": false
        },
        {
            "lon": 3.6147,
            "lat": 6.60643,
            "school_name": "Name unknown",
            "country_name": "Nigeria",
            "connectivity": false
        },
        {
            "lon": 3.392066666,
            "lat": 6.574128518,
            "school_name": "Name unknown",
            "country_name": "Nigeria",
            "connectivity": false
        },
        {
            "lon": 3.361554,
            "lat": 6.535663,
            "school_name": "Name unknown",
            "country_name": "Nigeria",
            "connectivity": false
        },
        {
            "lon": 3.173628712,
            "lat": 6.475919121,
            "school_name": "Name unknown",
            "country_name": "Nigeria",
            "connectivity": false
        },
        {
            "lon": 3.307657778,
            "lat": 6.554410622,
            "school_name": "Name unknown",
            "country_name": "Nigeria",
            "connectivity": false
        },
        {
            "lon": 3.395617349,
            "lat": 6.450640206,
            "school_name": "Name unknown",
            "country_name": "Nigeria",
            "connectivity": false
        },
        {
            "lon": 7.575975,
            "lat": 8.609658,
            "school_name": "Name unknown",
            "country_name": "Nigeria",
            "connectivity": false
        },
        {
            "lon": 8.449737,
            "lat": 8.663559,
            "school_name": "Name unknown",
            "country_name": "Nigeria",
            "connectivity": false
        },
        {
            "lon": 3.073478937,
            "lat": 7.239823937,
            "school_name": "Name unknown",
            "country_name": "Nigeria",
            "connectivity": false
        },
        {
            "lon": 3.31646357,
            "lat": 6.71514904,
            "school_name": "Name unknown",
            "country_name": "Nigeria",
            "connectivity": false
        },
        {
            "lon": 3.20283,
            "lat": 6.796083333,
            "school_name": "Name unknown",
            "country_name": "Nigeria",
            "connectivity": false
        },
        {
            "lon": 3.99147531,
            "lat": 6.98367587,
            "school_name": "Name unknown",
            "country_name": "Nigeria",
            "connectivity": false
        },
        {
            "lon": 3.329539833,
            "lat": 7.134268085,
            "school_name": "Name unknown",
            "country_name": "Nigeria",
            "connectivity": false
        },
        {
            "lon": 4.495173,
            "lat": 6.331666,
            "school_name": "Name unknown",
            "country_name": "Nigeria",
            "connectivity": false
        },
        {
            "lon": 4.86535,
            "lat": 6.796731,
            "school_name": "Name unknown",
            "country_name": "Nigeria",
            "connectivity": false
        },
        {
            "lon": 4.67717,
            "lat": 7.472012,
            "school_name": "Name unknown",
            "country_name": "Nigeria",
            "connectivity": false
        },
        {
            "lon": 4.740046,
            "lat": 7.606178,
            "school_name": "Name unknown",
            "country_name": "Nigeria",
            "connectivity": false
        },
        {
            "lon": 7.72787,
            "lat": 5.19105,
            "school_name": "Name unknown",
            "country_name": "Nigeria",
            "connectivity": false
        },
        {
            "lon": 3.33839,
            "lat": 8.043995,
            "school_name": "Name unknown",
            "country_name": "Nigeria",
            "connectivity": false
        },
        {
            "lon": 3.909783064,
            "lat": 7.843941717,
            "school_name": "Name unknown",
            "country_name": "Nigeria",
            "connectivity": false
        },
        {
            "lon": 3.530798,
            "lat": 8.874633,
            "school_name": "Name unknown",
            "country_name": "Nigeria",
            "connectivity": false
        },
        {
            "lon": 8.943063,
            "lat": 9.919845,
            "school_name": "Name unknown",
            "country_name": "Nigeria",
            "connectivity": false
        },
        {
            "lon": 8.867517,
            "lat": 9.93782,
            "school_name": "Name unknown",
            "country_name": "Nigeria",
            "connectivity": false
        },
        {
            "lon": 8.862933,
            "lat": 9.923602,
            "school_name": "Name unknown",
            "country_name": "Nigeria",
            "connectivity": false
        },
        {
            "lon": 9.885414,
            "lat": 9.322724,
            "school_name": "Name unknown",
            "country_name": "Nigeria",
            "connectivity": false
        },
        {
            "lon": 11.428962,
            "lat": 9.275376,
            "school_name": "Name unknown",
            "country_name": "Nigeria",
            "connectivity": false
        },
        {
            "lon": 11.45460676,
            "lat": 6.825284307,
            "school_name": "Name unknown",
            "country_name": "Nigeria",
            "connectivity": false
        },
        {
            "lon": 7.100706,
            "lat": 5.947,
            "school_name": "Name unknown",
            "country_name": "Nigeria",
            "connectivity": false
        },
        {
            "lon": 6.871213,
            "lat": 6.147103,
            "school_name": "Name unknown",
            "country_name": "Nigeria",
            "connectivity": false
        },
        {
            "lon": 7.61325873,
            "lat": 12.98797721,
            "school_name": "Name unknown",
            "country_name": "Nigeria",
            "connectivity": false
        },
        {
            "lon": 10.04346096,
            "lat": 11.50081596,
            "school_name": "Name unknown",
            "country_name": "Nigeria",
            "connectivity": false
        },
        {
            "lon": 10.38158119,
            "lat": 12.02492237,
            "school_name": "Name unknown",
            "country_name": "Nigeria",
            "connectivity": false
        },
        {
            "lon": 4.74202173,
            "lat": 12.43454208,
            "school_name": "Name unknown",
            "country_name": "Nigeria",
            "connectivity": false
        },
        {
            "lon": 5.28313565,
            "lat": 12.94739263,
            "school_name": "Name unknown",
            "country_name": "Nigeria",
            "connectivity": false
        },
        {
            "lon": 8.18174,
            "lat": 7.79176,
            "school_name": "Name unknown",
            "country_name": "Nigeria",
            "connectivity": false
        },
        {
            "lon": 7.897719,
            "lat": 7.354168,
            "school_name": "Name unknown",
            "country_name": "Nigeria",
            "connectivity": false
        },
        {
            "lon": 6.139281392,
            "lat": 12.32020676,
            "school_name": "Name unknown",
            "country_name": "Nigeria",
            "connectivity": false
        },
        {
            "lon": 6.844,
            "lat": 12.69855,
            "school_name": "Name unknown",
            "country_name": "Nigeria",
            "connectivity": false
        },
        {
            "lon": 8.4527747,
            "lat": 4.8240473,
            "school_name": "Name unknown",
            "country_name": "Nigeria",
            "connectivity": false
        },
        {
            "lon": 8.454566,
            "lat": 6.303308,
            "school_name": "Name unknown",
            "country_name": "Nigeria",
            "connectivity": false
        },
        {
            "lon": -78.5858,
            "lat": -9.06422,
            "school_name": "89009 8 DE OCTUBRE",
            "country_name": "Peru",
            "connectivity": false
        },
        {
            "lon": -77.0608,
            "lat": -12.0384,
            "school_name": "SANTA ROSITA I",
            "country_name": "Peru",
            "connectivity": false
        },
        {
            "lon": 8.23982222,
            "lat": 10.3444363,
            "school_name": "Name unknown",
            "country_name": "Nigeria",
            "connectivity": false
        },
        {
            "lon": 8.212958409,
            "lat": 9.56172374,
            "school_name": "Name unknown",
            "country_name": "Nigeria",
            "connectivity": false
        },
        {
            "lon": 12.500121,
            "lat": 9.530271,
            "school_name": "Name unknown",
            "country_name": "Nigeria",
            "connectivity": false
        },
        {
            "lon": 4.650127,
            "lat": 8.904559,
            "school_name": "Name unknown",
            "country_name": "Nigeria",
            "connectivity": false
        },
        {
            "lon": 3.34023296,
            "lat": 7.15987698,
            "school_name": "Name unknown",
            "country_name": "Nigeria",
            "connectivity": false
        },
        {
            "lon": 3.215805,
            "lat": 6.76538,
            "school_name": "Name unknown",
            "country_name": "Nigeria",
            "connectivity": false
        },
        {
            "lon": 3.37503,
            "lat": 8.046949,
            "school_name": "Name unknown",
            "country_name": "Nigeria",
            "connectivity": false
        },
        {
            "lon": 4.224839,
            "lat": 8.123765,
            "school_name": "Name unknown",
            "country_name": "Nigeria",
            "connectivity": false
        },
        {
            "lon": 11.3707,
            "lat": 8.880711,
            "school_name": "Name unknown",
            "country_name": "Nigeria",
            "connectivity": false
        },
        {
            "lon": 4.38695974,
            "lat": 12.26229997,
            "school_name": "Name unknown",
            "country_name": "Nigeria",
            "connectivity": false
        },
        {
            "lon": 8.444196667,
            "lat": 5.916641667,
            "school_name": "Name unknown",
            "country_name": "Nigeria",
            "connectivity": false
        },
        {
            "lon": 68.10793,
            "lat": 38.36524,
            "school_name": "62 -  sonli umumta\u2018lim maktabi",
            "country_name": "Uzbekistan",
            "connectivity": false
        },
        {
            "lon": 66.11346,
            "lat": 39.16359,
            "school_name": "116 -  sonli umumta\u2018lim maktabi",
            "country_name": "Uzbekistan",
            "connectivity": false
        },
        {
            "lon": 60.59718489,
            "lat": 41.54622627,
            "school_name": "4 -  sonli umumta\u2018lim maktabi",
            "country_name": "Uzbekistan",
            "connectivity": false
        },
        {
            "lon": 71.53045845,
            "lat": 41.01503082,
            "school_name": "60 -  sonli umumta\u2018lim maktabi",
            "country_name": "Uzbekistan",
            "connectivity": false
        },
        {
            "lon": 71.280936,
            "lat": 40.391004,
            "school_name": "58 -  sonli umumta\u2018lim maktabi",
            "country_name": "Uzbekistan",
            "connectivity": false
        },
        {
            "lon": -98.934306,
            "lat": 21.157831,
            "school_name": "TELESECUNDARIA 494",
            "country_name": "Mexico",
            "connectivity": false
        },
        {
            "lon": -103.045949,
            "lat": 20.904171,
            "school_name": "FRANCISCO I MADERO",
            "country_name": "Mexico",
            "connectivity": false
        },
        {
            "lon": -100.503281,
            "lat": 27.026092,
            "school_name": "SECUNDARIA NUM. 1 PROFR. Y GRAL. ANTONIO I. VILLARREAL",
            "country_name": "Mexico",
            "connectivity": false
        },
        {
            "lon": -109.739353,
            "lat": 28.595814,
            "school_name": "CENTRO DE ESTUDIOS TECNOLOGICOS DEL MAR NUM. 3 EXT. SAN JAVIER SONORA",
            "country_name": "Mexico",
            "connectivity": false
        },
        {
            "lon": -109.301389,
            "lat": 29.906667,
            "school_name": "SIETE DE NOVIEMBRE",
            "country_name": "Mexico",
            "connectivity": false
        },
        {
            "lon": -98.15215,
            "lat": 21.00305,
            "school_name": "BELISARIO DOMINGUEZ",
            "country_name": "Mexico",
            "connectivity": false
        },
        {
            "lon": -95.95264,
            "lat": 18.67767,
            "school_name": "GUADALUPE VICTORIA",
            "country_name": "Mexico",
            "connectivity": false
        },
        {
            "lon": 68.9228,
            "lat": 24.3914,
            "school_name": "GBPS - HAJI MUHAMMAD TALPUR",
            "country_name": "Pakistan",
            "connectivity": false
        },
        {
            "lon": 68.7181,
            "lat": 24.5631,
            "school_name": "GBPS - JALALUDDIN RAHEMOON",
            "country_name": "Pakistan",
            "connectivity": false
        },
        {
            "lon": 68.5297,
            "lat": 24.6771,
            "school_name": "GGPS - BHAGWAN DAS",
            "country_name": "Pakistan",
            "connectivity": false
        },
        {
            "lon": 68.9469,
            "lat": 25.0433,
            "school_name": "GBPS - DHANI BUX BUBAR",
            "country_name": "Pakistan",
            "connectivity": false
        },
        {
            "lon": 68.8286,
            "lat": 25.0864,
            "school_name": "GBPS - MUHAMMAD SOOMAR LUND",
            "country_name": "Pakistan",
            "connectivity": false
        },
        {
            "lon": 68.9867,
            "lat": 24.7422,
            "school_name": "GBPS - BACHOO HALEPOTO",
            "country_name": "Pakistan",
            "connectivity": false
        },
        {
            "lon": 67.0314,
            "lat": 24.8992,
            "school_name": "GBPS - FEDRAL NO.1",
            "country_name": "Pakistan",
            "connectivity": false
        },
        {
            "lon": 67.0703,
            "lat": 24.9696,
            "school_name": "KMC - MOLANA ZAFAR ALI KHAN BOYS PRIMARY SCHOOL",
            "country_name": "Pakistan",
            "connectivity": false
        },
        {
            "lon": 67.4955,
            "lat": 26.5582,
            "school_name": "GBPS - SAINDAD ALKHANI",
            "country_name": "Pakistan",
            "connectivity": false
        },
        {
            "lon": 67.8474,
            "lat": 27.0369,
            "school_name": "GBPS - MEMON MOHA",
            "country_name": "Pakistan",
            "connectivity": false
        },
        {
            "lon": 67.6058,
            "lat": 27.2538,
            "school_name": "GBPS - ALI GOHAR",
            "country_name": "Pakistan",
            "connectivity": false
        },
        {
            "lon": 69.6306,
            "lat": 27.9881,
            "school_name": "GBLSS - KAMAL KHAN LAGHARI",
            "country_name": "Pakistan",
            "connectivity": false
        },
        {
            "lon": 68.5584,
            "lat": 25.3201,
            "school_name": "GGPS - GHOTANA",
            "country_name": "Pakistan",
            "connectivity": false
        },
        {
            "lon": 68.8306,
            "lat": 28.1722,
            "school_name": "GBPS - ALI NAWAZ SAMEJO",
            "country_name": "Pakistan",
            "connectivity": false
        },
        {
            "lon": 68.7793,
            "lat": 28.2417,
            "school_name": "GGPS - ALLAH RATTO NOONARI  (BR:)",
            "country_name": "Pakistan",
            "connectivity": false
        },
        {
            "lon": 68.322,
            "lat": 25.3399,
            "school_name": "GGPS - SAJAN SHORO",
            "country_name": "Pakistan",
            "connectivity": false
        },
        {
            "lon": 67.8283,
            "lat": 26.4224,
            "school_name": "GGPS - BAGH YOUSI",
            "country_name": "Pakistan",
            "connectivity": false
        },
        {
            "lon": 69.1633,
            "lat": 28.1807,
            "school_name": "GBPS - ALI MUHAMMAD KHAN KHOSO",
            "country_name": "Pakistan",
            "connectivity": false
        },
        {
            "lon": 68.3328,
            "lat": 27.4778,
            "school_name": "GBPS - MUHAMMAD ACHAR JATOI",
            "country_name": "Pakistan",
            "connectivity": false
        },
        {
            "lon": 68.7396,
            "lat": 27.5075,
            "school_name": "GBPS - ALI JANWARY",
            "country_name": "Pakistan",
            "connectivity": false
        },
        {
            "lon": 68.4336,
            "lat": 26.9941,
            "school_name": "GBPS - BAQI",
            "country_name": "Pakistan",
            "connectivity": false
        },
        {
            "lon": 68.9377,
            "lat": 26.8206,
            "school_name": "GBPS - SUHRAB WARI AT KHALIQUE RAJPER",
            "country_name": "Pakistan",
            "connectivity": false
        },
        {
            "lon": 68.1511,
            "lat": 27.3314,
            "school_name": "GBPS - BAHAN.",
            "country_name": "Pakistan",
            "connectivity": false
        },
        {
            "lon": 68.1243432,
            "lat": 27.3481035,
            "school_name": "GBPS -DHANI BUX JUNEJO",
            "country_name": "Pakistan",
            "connectivity": false
        },
        {
            "lon": 67.2824,
            "lat": 24.8628,
            "school_name": "GBPS - ABDUL KARIM GOTH",
            "country_name": "Pakistan",
            "connectivity": false
        },
        {
            "lon": 68.5453,
            "lat": 25.7039,
            "school_name": "GBPS - SHER MUHAMMAD THORHA",
            "country_name": "Pakistan",
            "connectivity": false
        },
        {
            "lon": 68.0838,
            "lat": 26.9541,
            "school_name": "GBPS - MUHAMMAD JURIAL SOLANGI",
            "country_name": "Pakistan",
            "connectivity": false
        },
        {
            "lon": 68.264,
            "lat": 27.0743,
            "school_name": "GBPS - GHULLAM NABI CHOHAN",
            "country_name": "Pakistan",
            "connectivity": false
        },
        {
            "lon": 68.3444,
            "lat": 27.0986,
            "school_name": "GGLSS - BEHLANI",
            "country_name": "Pakistan",
            "connectivity": false
        },
        {
            "lon": 67.9344,
            "lat": 26.7011,
            "school_name": "GBPS - NEW KANDHARA",
            "country_name": "Pakistan",
            "connectivity": false
        },
        {
            "lon": 68.5814,
            "lat": 25.9227,
            "school_name": "GBPS - MUHAMMAD IBRAHIM BALADI",
            "country_name": "Pakistan",
            "connectivity": false
        },
        {
            "lon": 68.6803,
            "lat": 25.7196,
            "school_name": "GBPS - HAJI DOST MUHAMMAD BALOCH",
            "country_name": "Pakistan",
            "connectivity": false
        },
        {
            "lon": 69.5002,
            "lat": 24.8885,
            "school_name": "GBLSS - JANHAN",
            "country_name": "Pakistan",
            "connectivity": false
        },
        {
            "lon": 68.2404,
            "lat": 24.221,
            "school_name": "GBPS - HAJI DOONGAR JAT",
            "country_name": "Pakistan",
            "connectivity": false
        },