{
    "name": "Patchwork Kingdom #635 | Melsandra",
    "description": "The twin kingdoms of Melsandra, separated by a digital divide. A bustling kingdom of 209 schools on top that are all connected to the internet, and 153 schools, not connected, hidden in the upside down kingdom | Created for Giga (GigaConnect.org) \u2014 connecting every school in the world \u2014 in celebration of UNICEF's 75th birthday, by Nadieh Bremer",
    "external_url": "https://dummyURL.com/patchwork_kingdoms_635",
    "image": "https://dummy-storage-url.com/patchwork_kingdoms_635.png",
    "attributes": [
        {
            "trait_type": "Color palette",
            "value": "kaleidoscope"
        },
        {
            "display_type": "number",
            "trait_type": "Schools",
            "value": 383,
            "max_value": 460
        },
        {
            "display_type": "number",
            "trait_type": "Ratio - Connected",
            "value": 0.55,
            "max_value": 1
        },
        {
            "display_type": "number",
            "trait_type": "Ratio - Unconnected",
            "value": 0.4,
            "max_value": 1
        },
        {
            "display_type": "number",
            "trait_type": "Ratio - Data unavailable",
            "value": 0.05,
            "max_value": 1
        },
        {
            "trait_type": "Countries",
            "value": "BJ-BR-CO-CR-HN-KG-KZ-LC-PH-RW-SL-VG-ZW"
        },
        {
            "display_type": "number",
            "trait_type": "Symbols",
            "value": 49,
            "max_value": 51
        }
    ],
    "cluster_id": 635,
    "num_schools": 383,
    "num_schools_connected": 209,
    "num_schools_unconnected": 153,
    "num_schools_unknown": 21,
    "schools": [
        {
            "lon": -46.8841,
            "lat": -23.2237,
            "school_name": "JOCENY VILLELA CURADO PROFESSORA",
            "country_name": "Brazil",
            "connectivity": true
        },
        {
            "lon": -88.04691,
            "lat": 14.22005,
            "school_name": "FABIO ANTONIO CABALLERO",
            "country_name": "Honduras",
            "connectivity": true
        },
        {
            "lon": -86.15388,
            "lat": 15.02375,
            "school_name": "FRAY BARTOLOME DE LAS CASAS",
            "country_name": "Honduras",
            "connectivity": true
        },
        {
            "lon": -52.8508,
            "lat": -25.113,
            "school_name": "COHAPAR C M E I",
            "country_name": "Brazil",
            "connectivity": true
        },
        {
            "lon": -87.43149,
            "lat": 13.60593,
            "school_name": "CANDIDA ROSA RODRIGUEZ",
            "country_name": "Honduras",
            "connectivity": true
        },
        {
            "lon": -50.1746,
            "lat": -30.0104,
            "school_name": "EMEI PEIXINHO DOURADO",
            "country_name": "Brazil",
            "connectivity": true
        },
        {
            "lon": -87.64774,
            "lat": 13.50502,
            "school_name": "EL PROGRESO",
            "country_name": "Honduras",
            "connectivity": true
        },
        {
            "lon": -87.68756,
            "lat": 13.57986,
            "school_name": "LEMPIRA",
            "country_name": "Honduras",
            "connectivity": true
        },
        {
            "lon": -61.043672,
            "lat": 13.939495,
            "school_name": "Anse La Raye Infant",
            "country_name": "Saint Lucia",
            "connectivity": true
        },
        {
            "lon": -48.6154,
            "lat": -27.3786,
            "school_name": "CEI PROF\u00aa LUCIA FRANCISCA SAGAS",
            "country_name": "Brazil",
            "connectivity": true
        },
        {
            "lon": -87.28924,
            "lat": 15.14154,
            "school_name": "ROBERTO SOSA",
            "country_name": "Honduras",
            "connectivity": true
        },
        {
            "lon": -55.8165,
            "lat": -29.8176,
            "school_name": "EMEB ALCY VARGAS CHEUICHE",
            "country_name": "Brazil",
            "connectivity": true
        },
        {
            "lon": -86.36056,
            "lat": 15.53493,
            "school_name": "SIMON BOLIVAR",
            "country_name": "Honduras",
            "connectivity": true
        },
        {
            "lon": -89.09444,
            "lat": 14.83166,
            "school_name": "17 DE SEPTIMBRE",
            "country_name": "Honduras",
            "connectivity": true
        },
        {
            "lon": -87.24555,
            "lat": 13.24787,
            "school_name": "FREDY OMAR CHAVARRIA",
            "country_name": "Honduras",
            "connectivity": true
        },
        {
            "lon": -86.17953,
            "lat": 14.03677,
            "school_name": "DIONISIO DE HERRERA",
            "country_name": "Honduras",
            "connectivity": true
        },
        {
            "lon": -86.81192,
            "lat": 14.44238,
            "school_name": "MARCOS CARIAS REYES",
            "country_name": "Honduras",
            "connectivity": true
        },
        {
            "lon": 31.88992,
            "lat": -19.52691,
            "school_name": "GOTORA",
            "country_name": "Zimbabwe",
            "connectivity": true
        },
        {
            "lon": -41.1179,
            "lat": -20.8512,
            "school_name": "EMEB OSCAR MONTENEGRO FILHO",
            "country_name": "Brazil",
            "connectivity": true
        },
        {
            "lon": 29.774,
            "lat": -1.5812222,
            "school_name": "MBATABATA",
            "country_name": "Rwanda",
            "connectivity": false
        },
        {
            "lon": -84.0917144,
            "lat": 9.81251747,
            "school_name": "EL TIGRE",
            "country_name": "Costa Rica",
            "connectivity": true
        },
        {
            "lon": -84.3167706,
            "lat": 9.76229678,
            "school_name": "BAJOS DE PLOMO",
            "country_name": "Costa Rica",
            "connectivity": true
        },
        {
            "lon": -84.39229349,
            "lat": 10.22959874,
            "school_name": "LA BRISA",
            "country_name": "Costa Rica",
            "connectivity": true
        },
        {
            "lon": -84.39394116,
            "lat": 10.13987429,
            "school_name": "REPUBLICA DE CUBA",
            "country_name": "Costa Rica",
            "connectivity": true
        },
        {
            "lon": -85.14028491,
            "lat": 10.49820722,
            "school_name": "SAN ISIDRO",
            "country_name": "Costa Rica",
            "connectivity": true
        },
        {
            "lon": -83.60013642,
            "lat": 8.75264077,
            "school_name": "ESTERO GUERRA",
            "country_name": "Costa Rica",
            "connectivity": true
        },
        {
            "lon": -85.19765532,
            "lat": 10.91063533,
            "school_name": "LICEO CUATRO BOCAS",
            "country_name": "Costa Rica",
            "connectivity": true
        },
        {
            "lon": -83.94947435,
            "lat": 9.79854492,
            "school_name": "CONVENTILLO",
            "country_name": "Costa Rica",
            "connectivity": true
        },
        {
            "lon": -54.77742,
            "lat": -22.265717,
            "school_name": "EM PROF\u00aa MARIA DA CONCEICAO ANGELICA",
            "country_name": "Brazil",
            "connectivity": true
        },
        {
            "lon": 31.30993,
            "lat": -19.55631,
            "school_name": "RAFOMOYO",
            "country_name": "Zimbabwe",
            "connectivity": true
        },
        {
            "lon": 31.08856,
            "lat": -20.80937,
            "school_name": "TOKWANE NGUNDU",
            "country_name": "Zimbabwe",
            "connectivity": true
        },
        {
            "lon": -51.0887,
            "lat": -30.0912,
            "school_name": "ESC EST ENS MED MINUANO",
            "country_name": "Brazil",
            "connectivity": true
        },
        {
            "lon": 30.59691667,
            "lat": -1.865805556,
            "school_name": "GS NYAMUGARI",
            "country_name": "Rwanda",
            "connectivity": true
        },
        {
            "lon": -34.8996,
            "lat": -8.0593,
            "school_name": "COLEGIO DA POLICIA MILITAR DE PERNAMBUCO",
            "country_name": "Brazil",
            "connectivity": true
        },
        {
            "lon": -78.10470314,
            "lat": 1.565064234,
            "school_name": "Name unknown",
            "country_name": "Colombia",
            "connectivity": false
        },
        {
            "lon": -74.13516599,
            "lat": 4.584590873,
            "school_name": "Name unknown",
            "country_name": "Colombia",
            "connectivity": false
        },
        {
            "lon": 121.9806944,
            "lat": 18.27694444,
            "school_name": "Callao PS",
            "country_name": "Philippines",
            "connectivity": true
        },
        {
            "lon": 122.6062915,
            "lat": 12.3045921,
            "school_name": "Don Carlos M. Mejias Memorial NHS",
            "country_name": "Philippines",
            "connectivity": true
        },
        {
            "lon": 122.029411,
            "lat": 13.502211,
            "school_name": "Hupi ES",
            "country_name": "Philippines",
            "connectivity": true
        },
        {
            "lon": 117.773282,
            "lat": 8.729511,
            "school_name": "Proyekto Setias Mem. ES (Tagpirara ES)",
            "country_name": "Philippines",
            "connectivity": true
        },
        {
            "lon": 123.007113,
            "lat": 14.109268,
            "school_name": "Hinipaan Elementary School",
            "country_name": "Philippines",
            "connectivity": true
        },
        {
            "lon": 124.328697,
            "lat": 13.601385,
            "school_name": "San Roque ES",
            "country_name": "Philippines",
            "connectivity": true
        },
        {
            "lon": 123.9602778,
            "lat": 10.25694444,
            "school_name": "Alegria ES",
            "country_name": "Philippines",
            "connectivity": true
        },
        {
            "lon": 124.9194574,
            "lat": 11.04482959,
            "school_name": "Bolirao Elementary School",
            "country_name": "Philippines",
            "connectivity": true
        },
        {
            "lon": 125.6832,
            "lat": 10.7455,
            "school_name": "Canawayon ES",
            "country_name": "Philippines",
            "connectivity": true
        },
        {
            "lon": 125.06287,
            "lat": 11.781661,
            "school_name": "Cantao-An PS",
            "country_name": "Philippines",
            "connectivity": true
        },
        {
            "lon": 125.712502,
            "lat": 9.575924,
            "school_name": "Magallanes ES",
            "country_name": "Philippines",
            "connectivity": true
        },
        {
            "lon": 125.528999,
            "lat": 9.66,
            "school_name": "San Pablo ES",
            "country_name": "Philippines",
            "connectivity": true
        },
        {
            "lon": 125.538277,
            "lat": 9.664853,
            "school_name": "Tinogpahan ES",
            "country_name": "Philippines",
            "connectivity": true
        },
        {
            "lon": 121.606389,
            "lat": 6.671609,
            "school_name": "Lubukan CES",
            "country_name": "Philippines",
            "connectivity": true
        },
        {
            "lon": 121.2198,
            "lat": 17.8416,
            "school_name": "Manag ES",
            "country_name": "Philippines",
            "connectivity": true
        },
        {
            "lon": 121.576339,
            "lat": 18.382435,
            "school_name": "Aparri West National High School",
            "country_name": "Philippines",
            "connectivity": true
        },
        {
            "lon": -46.673,
            "lat": -18.945784,
            "school_name": "CENTRO DE EDUCACAO INFANTIL MUNICIPAL VANY MARIA MACHADO DE ANDRADE",
            "country_name": "Brazil",
            "connectivity": false
        },
        {
            "lon": -43.142548,
            "lat": -22.432009,
            "school_name": "E M MAGDALENA TAGLIAFERRO",
            "country_name": "Brazil",
            "connectivity": true
        },
        {
            "lon": -49.211323,
            "lat": -28.188663,
            "school_name": "ESC MUN PROF\u00ba GREGORIO WESSLER",
            "country_name": "Brazil",
            "connectivity": true
        },
        {
            "lon": -54.647938,
            "lat": -20.436354,
            "school_name": "COLEGIO MILITAR DE CAMPO GRANDE",
            "country_name": "Brazil",
            "connectivity": true
        },
        {
            "lon": -86.55987,
            "lat": 15.46763,
            "school_name": "ADALID OSEGUERA",
            "country_name": "Honduras",
            "connectivity": true
        },
        {
            "lon": 121.687334,
            "lat": 17.759826,
            "school_name": "Agguirit ES",
            "country_name": "Philippines",
            "connectivity": true
        },
        {
            "lon": 123.310895,
            "lat": 13.330308,
            "school_name": "Carlos Nardo Elementary School",
            "country_name": "Philippines",
            "connectivity": true
        },
        {
            "lon": -72.396944,
            "lat": 5.013611,
            "school_name": "I.E. CUPIAGUA - SEDE PRINCIPAL",
            "country_name": "Colombia",
            "connectivity": true
        },
        {
            "lon": -72.48265687,
            "lat": 7.507297431,
            "school_name": "COL INTEGRADO PERPETUO SOCORRO",
            "country_name": "Colombia",
            "connectivity": true
        },
        {
            "lon": -72.92221463,
            "lat": 6.235985426,
            "school_name": "ESCUELA RURAL EL PLAYON",
            "country_name": "Colombia",
            "connectivity": true
        },
        {
            "lon": -72.86669792,
            "lat": 7.991969746,
            "school_name": "SEDE SAN ISIDRO",
            "country_name": "Colombia",
            "connectivity": true
        },
        {
            "lon": -72.86804,
            "lat": 8.04081,
            "school_name": "SEDE EL ALTO",
            "country_name": "Colombia",
            "connectivity": true
        },
        {
            "lon": -73.10433584,
            "lat": 5.034086248,
            "school_name": "CONC URB MIX",
            "country_name": "Colombia",
            "connectivity": true
        },
        {
            "lon": -73.33855722,
            "lat": 8.056581296,
            "school_name": "SEDE FILO DEL CORDON",
            "country_name": "Colombia",
            "connectivity": true
        },
        {
            "lon": -73.61416667,
            "lat": 5.932777778,
            "school_name": "ESCUELA URBANA CENTRO",
            "country_name": "Colombia",
            "connectivity": true
        },
        {
            "lon": -74.07473381,
            "lat": 6.767377971,
            "school_name": "ESCUELA RURAL BOCAS DEL CARARE",
            "country_name": "Colombia",
            "connectivity": true
        },
        {
            "lon": -74.36479165,
            "lat": 4.337582349,
            "school_name": "POTOSI",
            "country_name": "Colombia",
            "connectivity": true
        },
        {
            "lon": -74.779993,
            "lat": 2.538392,
            "school_name": "LAS PERLAS",
            "country_name": "Colombia",
            "connectivity": true
        },
        {
            "lon": -75.18031807,
            "lat": 5.536720227,
            "school_name": "C. E. R. VENECIA",
            "country_name": "Colombia",
            "connectivity": true
        },
        {
            "lon": -75.19,
            "lat": 5.52,
            "school_name": "E R SABANETA",
            "country_name": "Colombia",
            "connectivity": true
        },
        {
            "lon": -75.58375569,
            "lat": 8.407834315,
            "school_name": "INST.EDUC. LA ESPERANZA",
            "country_name": "Colombia",
            "connectivity": true
        },
        {
            "lon": -75.92077448,
            "lat": 4.298294166,
            "school_name": "FRAY BARTOLOME DE DE LAS CASAS",
            "country_name": "Colombia",
            "connectivity": true
        },
        {
            "lon": -76.19638889,
            "lat": 1.8875,
            "school_name": "VEGAS DE ISNOS",
            "country_name": "Colombia",
            "connectivity": true
        },
        {
            "lon": -76.318143,
            "lat": 2.631347,
            "school_name": "C.E. SAN PEDRO - PE\u00d1A DEL CORAZON",
            "country_name": "Colombia",
            "connectivity": true
        },
        {
            "lon": -76.170833,
            "lat": 7.091667,
            "school_name": "C. E. R. EL AGUILA",
            "country_name": "Colombia",
            "connectivity": true
        },
        {
            "lon": -76.32,
            "lat": 2.89,
            "school_name": "CENTRO DOCENTE RURAL MIXTA EL TABLON",
            "country_name": "Colombia",
            "connectivity": true
        },
        {
            "lon": -76.47549874,
            "lat": 7.187979926,
            "school_name": "C. E. R. CHONTADURAL",
            "country_name": "Colombia",
            "connectivity": true
        },
        {
            "lon": -76.61518731,
            "lat": 2.434148763,
            "school_name": "SEDE ANTONIO GARCIA PAREDES",
            "country_name": "Colombia",
            "connectivity": true
        },
        {
            "lon": -76.42877666,
            "lat": 8.849508688,
            "school_name": "E U SANTA MARIA GORETTI",
            "country_name": "Colombia",
            "connectivity": true
        },
        {
            "lon": -76.57233,
            "lat": 7.865632,
            "school_name": "C.E.R. LA PANCHA",
            "country_name": "Colombia",
            "connectivity": true
        },
        {
            "lon": -77.116667,
            "lat": 1.366389,
            "school_name": "ESCUELA RURAL MIXTA DIVINO NI\u00d1O JESUS",
            "country_name": "Colombia",
            "connectivity": true
        },
        {
            "lon": -77.26527,
            "lat": 2.35764,
            "school_name": "ESC RUR MIX LAS IGLESIAS",
            "country_name": "Colombia",
            "connectivity": true
        },
        {
            "lon": -77.21252231,
            "lat": 1.265086052,
            "school_name": "ESC RUR MIX EL CARMELO",
            "country_name": "Colombia",
            "connectivity": true
        },
        {
            "lon": -51.2152,
            "lat": -29.6662,
            "school_name": "EMEF PREFEITO REINATO ENIO TREIN",
            "country_name": "Brazil",
            "connectivity": true
        },
        {
            "lon": -77.51511111,
            "lat": 1.41783333,
            "school_name": "CENTRO EDUCATIVO TAMBILLO DE BRAVOS",
            "country_name": "Colombia",
            "connectivity": true
        },
        {
            "lon": -67.7716,
            "lat": -10.0018,
            "school_name": "ESC BEIJA FLOR",
            "country_name": "Brazil",
            "connectivity": false
        },
        {
            "lon": -68.2246,
            "lat": -3.4089,
            "school_name": "ESC MUN INDIGENA SANTA FE",
            "country_name": "Brazil",
            "connectivity": false
        },
        {
            "lon": -58.1752,
            "lat": -3.5933,
            "school_name": "ESC MUN JURACEMA LIRA NEGREIROS",
            "country_name": "Brazil",
            "connectivity": false
        },
        {
            "lon": -52.9399,
            "lat": -1.926,
            "school_name": "E M E F LARANJAL",
            "country_name": "Brazil",
            "connectivity": false
        },
        {
            "lon": -50.5059,
            "lat": -1.5634,
            "school_name": "E M E F VISTA ALEGRE - RIO JEJUTEUA",
            "country_name": "Brazil",
            "connectivity": false
        },
        {
            "lon": -48.9194,
            "lat": -11.1027,
            "school_name": "ESCOLA ESTADUAL OLAVO BILAC",
            "country_name": "Brazil",
            "connectivity": true
        },
        {
            "lon": -48.4599,
            "lat": -1.4473,
            "school_name": "EEEFM AUGUSTO OLIMPIO",
            "country_name": "Brazil",
            "connectivity": true
        },
        {
            "lon": -49.4775,
            "lat": -18.9581,
            "school_name": "ESCOLA MUNICIPAL AIDA ANDRADE CHAVES",
            "country_name": "Brazil",
            "connectivity": true
        },
        {
            "lon": -47.7844,
            "lat": -1.3039,
            "school_name": "E M E F SAO JORGE",
            "country_name": "Brazil",
            "connectivity": false
        },
        {
            "lon": -48.7692,
            "lat": -1.8904,
            "school_name": "E M E F JANDIRA HENDERSON E SILVA",
            "country_name": "Brazil",
            "connectivity": true
        },
        {
            "lon": -48.2676,
            "lat": -2.6361,
            "school_name": "E M E F ZEFERINO SANTOS MACIEL",
            "country_name": "Brazil",
            "connectivity": false
        },
        {
            "lon": -53.6691,
            "lat": -27.5291,
            "school_name": "ESC EST IND EM ANTONIO KASIN MIG",
            "country_name": "Brazil",
            "connectivity": true
        },
        {
            "lon": -48.3742,
            "lat": -1.3508,
            "school_name": "CMREI MARIA ALZENIRA PINHEIRO CANAVARRO",
            "country_name": "Brazil",
            "connectivity": false
        },
        {
            "lon": -53.8519,
            "lat": -1.5731,
            "school_name": "E M E F SANTA LUZIA - KM 13",
            "country_name": "Brazil",
            "connectivity": false
        },
        {
            "lon": -55.692,
            "lat": -2.2718,
            "school_name": "E M E F SANTANA",
            "country_name": "Brazil",
            "connectivity": false
        },
        {
            "lon": -51.5727,
            "lat": -0.4989,
            "school_name": "ESC MUL SANTA MARIA DO FURO DO MARACA",
            "country_name": "Brazil",
            "connectivity": false
        },
        {
            "lon": -49.1106,
            "lat": -8.1404,
            "school_name": "ESC MUL BOA UNIAO",
            "country_name": "Brazil",
            "connectivity": true
        },
        {
            "lon": -43.4582,
            "lat": -2.6021,
            "school_name": "JI GIRASSOL",
            "country_name": "Brazil",
            "connectivity": false
        },
        {
            "lon": -43.0012,
            "lat": -3.0227,
            "school_name": "UI JOAO BERNARDO FRANCISCO DOS SANTOS",
            "country_name": "Brazil",
            "connectivity": false
        },
        {
            "lon": -44.8419,
            "lat": -3.0439,
            "school_name": "GE ANTONIO AUGUSTO CAMPOS",
            "country_name": "Brazil",
            "connectivity": false
        },
        {
            "lon": -45.8182,
            "lat": -2.0617,
            "school_name": "ESCOLA DE ENSINO FUNDAMENTAL BOM JESUS II",
            "country_name": "Brazil",
            "connectivity": false
        },
        {
            "lon": -47.4064,
            "lat": -5.4384,
            "school_name": "U E FRANCISCO ASSIS XIMENES",
            "country_name": "Brazil",
            "connectivity": false
        },
        {
            "lon": -44.4334,
            "lat": -4.0185,
            "school_name": "UI MUNICIPAL PAULO FREIRE",
            "country_name": "Brazil",
            "connectivity": false
        },
        {
            "lon": -43.9119,
            "lat": -4.5369,
            "school_name": "EM MOISES ALVES DOS REIS",
            "country_name": "Brazil",
            "connectivity": false
        },
        {
            "lon": -45.8415,
            "lat": -2.3056,
            "school_name": "CRECHE MUNICIPAL OS PINPOLHOS",
            "country_name": "Brazil",
            "connectivity": false
        },
        {
            "lon": -43.1247,
            "lat": -2.8232,
            "school_name": "EM PAULO FREIRE",
            "country_name": "Brazil",
            "connectivity": false
        },
        {
            "lon": -45.1465,
            "lat": -2.7039,
            "school_name": "EM SERRARIINHA",
            "country_name": "Brazil",
            "connectivity": false
        },
        {
            "lon": -41.6673,
            "lat": -2.8906,
            "school_name": "ESCOLA MUNICIPAL DEPUTADO PINHEIRO MACHADO",
            "country_name": "Brazil",
            "connectivity": true
        },
        {
            "lon": -42.9507,
            "lat": -6.8074,
            "school_name": "ESCOLA MUNICIPAL THERMUTES PONTES",
            "country_name": "Brazil",
            "connectivity": false
        },
        {
            "lon": -45.4784,
            "lat": -9.924,
            "school_name": "ESC MUL LUIZ DE FRANCA",
            "country_name": "Brazil",
            "connectivity": false
        },
        {
            "lon": -46.6696,
            "lat": -23.6667,
            "school_name": "ZENAIDE LOPES DE OLIVEIRA GODOY PROFESSORA",
            "country_name": "Brazil",
            "connectivity": true
        },
        {
            "lon": -41.3244,
            "lat": -6.9446,
            "school_name": "U E JOMASIO DOS SANTOS BARROS",
            "country_name": "Brazil",
            "connectivity": true
        },
        {
            "lon": -41.7304,
            "lat": -4.9104,
            "school_name": "U E DR JERONIMO DOS SANTOS E SILVA",
            "country_name": "Brazil",
            "connectivity": true
        },
        {
            "lon": -48.1532,
            "lat": -21.7331,
            "school_name": "ALTAMIRA AMORIM MANTESE PROFA EMEF",
            "country_name": "Brazil",
            "connectivity": true
        },
        {
            "lon": -41.4795,
            "lat": -3.1639,
            "school_name": "ESCOLA RURAL CARNAUBA BAIXA",
            "country_name": "Brazil",
            "connectivity": false
        },
        {
            "lon": -38.3048,
            "lat": -4.0899,
            "school_name": "JOAQUIM NUNES VIEIRA EMEF",
            "country_name": "Brazil",
            "connectivity": true
        },
        {
            "lon": -40.4372,
            "lat": -7.209,
            "school_name": "LUIZ SANTIAGO DOS SANTOS EMEIF",
            "country_name": "Brazil",
            "connectivity": true
        },
        {
            "lon": -39.094,
            "lat": -7.3338,
            "school_name": "MUNDO DO SABER EM",
            "country_name": "Brazil",
            "connectivity": false
        },
        {
            "lon": -36.696,
            "lat": -6.1286,
            "school_name": "ESC MUL SILVINO GARCIA DO AMARAL",
            "country_name": "Brazil",
            "connectivity": true
        },
        {
            "lon": -35.2092,
            "lat": -6.2681,
            "school_name": "ESCOLA DE MUSICA MAESTRO CLAUDIONOR DE OLIVEIRA",
            "country_name": "Brazil",
            "connectivity": true
        },
        {
            "lon": -37.3916,
            "lat": -7.6824,
            "school_name": "ESCOLA MUNICIPAL ALAIDE BARBOSA DE LIMA",
            "country_name": "Brazil",
            "connectivity": true
        },
        {
            "lon": -49.9354,
            "lat": -7.0874,
            "school_name": "E M E F RAIMUNDO HENRIQUE DE MIRANDA",
            "country_name": "Brazil",
            "connectivity": true
        },
        {
            "lon": -35.9093,
            "lat": -8.2275,
            "school_name": "ESCOLA MUNICIPAL FORTUNATO RIBEIRO DA SILVA",
            "country_name": "Brazil",
            "connectivity": false
        },
        {
            "lon": -36.3879,
            "lat": -8.9505,
            "school_name": "ESCOLA MUNICIPAL DEPUTADO JOAQUIM COUTINHO",
            "country_name": "Brazil",
            "connectivity": true
        },
        {
            "lon": -35.2262,
            "lat": -7.7398,
            "school_name": "COLEGIO MUNICIPAL DOM MOTA",
            "country_name": "Brazil",
            "connectivity": true
        },
        {
            "lon": -49.8587,
            "lat": -6.5194,
            "school_name": "EMEF BENEDITA TORRES",
            "country_name": "Brazil",
            "connectivity": true
        },
        {
            "lon": -49.8894,
            "lat": -6.0414,
            "school_name": "E M E I CORA CORALINA",
            "country_name": "Brazil",
            "connectivity": true
        },
        {
            "lon": -34.8659,
            "lat": -8.0282,
            "school_name": "ESCOLA MUNICIPAL PROFESSOR MARCOLINO BOTELHO",
            "country_name": "Brazil",
            "connectivity": true
        },
        {
            "lon": -34.8983,
            "lat": -7.6142,
            "school_name": "ESCOLA MUNICIPAL ARCENDRINO CESAR DE ALBUQUERQUE",
            "country_name": "Brazil",
            "connectivity": true
        },
        {
            "lon": -38.05,
            "lat": -9.3986,
            "school_name": "ESCOLA MUNICIPAL DE EDUCACAO BASICA MARIA DULCE CAVALCANTE FEITOZA",
            "country_name": "Brazil",
            "connectivity": false
        },
        {
            "lon": -35.4854,
            "lat": -7.8286,
            "school_name": "CENTRO DE PETI 7 CABECA DE VACA",
            "country_name": "Brazil",
            "connectivity": false
        },
        {
            "lon": -37.2137,
            "lat": -10.9994,
            "school_name": "ESCOLA MUNICIPAL CARINHO",
            "country_name": "Brazil",
            "connectivity": false
        },
        {
            "lon": -37.8265,
            "lat": -11.3818,
            "school_name": "ESCOLA MUNICIPAL DE EDUCACAO INFANTIL LEONOR BARRETO FRANCO",
            "country_name": "Brazil",
            "connectivity": false
        },
        {
            "lon": -37.5158,
            "lat": -10.8816,
            "school_name": "COLEGIO ESTADUAL PROFESSOR JOSE CLAUDIO MONTEIRO",
            "country_name": "Brazil",
            "connectivity": true
        },
        {
            "lon": -44.1038,
            "lat": -12.9736,
            "school_name": "CENTRO EDUCACIONAL MUNICIPAL HENRIQUE FERREIRA DA SILVA",
            "country_name": "Brazil",
            "connectivity": false
        },
        {
            "lon": -41.4963,
            "lat": -11.7065,
            "school_name": "ESCOLA MUNICIPAL AGOSTINHO JOSE DE SOUZA",
            "country_name": "Brazil",
            "connectivity": true
        },
        {
            "lon": -40.1456,
            "lat": -12.9351,
            "school_name": "ESCOLA MUNICIPAL SAO JUDAS TADEU",
            "country_name": "Brazil",
            "connectivity": false
        },
        {
            "lon": -39.5007,
            "lat": -12.8681,
            "school_name": "ESCOLA HUGO AZEVEDO COSTA",
            "country_name": "Brazil",
            "connectivity": false
        },
        {
            "lon": -39.4301,
            "lat": -10.8234,
            "school_name": "ESCOLA MUNICIPAL MARIA VICTORIA DIAS",
            "country_name": "Brazil",
            "connectivity": true
        },
        {
            "lon": -39.1927,
            "lat": -11.475,
            "school_name": "ESCOLA ALIPIO CERQUEIRA DA SILVA",
            "country_name": "Brazil",
            "connectivity": true
        },
        {
            "lon": -39.1491,
            "lat": -13.7416,
            "school_name": "EMEF NELSON DAVID RIBEIRO",
            "country_name": "Brazil",
            "connectivity": true
        },
        {
            "lon": -40.3316,
            "lat": -17.1686,
            "school_name": "GRUPO ESCOLAR SIMPLICIO BINAS",
            "country_name": "Brazil",
            "connectivity": true
        },
        {
            "lon": -38.5304,
            "lat": -12.6778,
            "school_name": "ESCOLA MUNICIPAL EGBERTO DE CARVALHO FERREIRA",
            "country_name": "Brazil",
            "connectivity": true
        },
        {
            "lon": -43.5872,
            "lat": -12.9509,
            "school_name": "ESCOLA MUNICIPAL SAO FELIPE",
            "country_name": "Brazil",
            "connectivity": false
        },
        {
            "lon": -39.5552,
            "lat": -18.0673,
            "school_name": "ESCOLA MUNICIPAL ISMAR TEIXEIRA GUEDES",
            "country_name": "Brazil",
            "connectivity": true
        },
        {
            "lon": -40.8579,
            "lat": -14.8325,
            "school_name": "ESCOLA MUNICIPAL BATISTA PENIEL",
            "country_name": "Brazil",
            "connectivity": true
        },
        {
            "lon": -36.4264,
            "lat": -9.537,
            "school_name": "CENTRO DE EDUCACAO INFANTIL DULCE FERREIRA GOMES",
            "country_name": "Brazil",
            "connectivity": true
        },
        {
            "lon": -38.3749,
            "lat": -9.5303,
            "school_name": "ESCOLA MUNICIPAL LUIZ VIANA FILHO",
            "country_name": "Brazil",
            "connectivity": false
        },
        {
            "lon": -43.9848,
            "lat": -19.7964,
            "school_name": "ESCOLA MUNICIPAL MILTON CAMPOS",
            "country_name": "Brazil",
            "connectivity": true
        },
        {
            "lon": -42.3638,
            "lat": -19.4464,
            "school_name": "EE EMILIA CABRAL MOTA",
            "country_name": "Brazil",
            "connectivity": true
        },
        {
            "lon": -41.7002,
            "lat": -19.529,
            "school_name": "EE RICARDO NEIVA",
            "country_name": "Brazil",
            "connectivity": false
        },
        {
            "lon": -42.4648,
            "lat": -16.953,
            "school_name": "EE PROFESSOR JASON DE MORAIS",
            "country_name": "Brazil",
            "connectivity": true
        },
        {
            "lon": -42.356,
            "lat": -17.1047,
            "school_name": "EE PRESIDENTE JUSCELINO KUBITSCHEK",
            "country_name": "Brazil",
            "connectivity": true
        },
        {
            "lon": -42.3983,
            "lat": -17.6912,
            "school_name": "EM CAMARINHAS",
            "country_name": "Brazil",
            "connectivity": false
        },
        {
            "lon": -42.407,
            "lat": -17.3181,
            "school_name": "EE SANTOS COSTA",
            "country_name": "Brazil",
            "connectivity": true
        },
        {
            "lon": -44.8563,
            "lat": -19.9885,
            "school_name": "EE BENEDITO VALADARES",
            "country_name": "Brazil",
            "connectivity": true
        },
        {
            "lon": -41.3022,
            "lat": -18.4971,
            "school_name": "EE JOAO AMANCIO SOBRINHO",
            "country_name": "Brazil",
            "connectivity": true
        },
        {
            "lon": -43.3821,
            "lat": -21.7579,
            "school_name": "EE SAO VICENTE DE PAULO",
            "country_name": "Brazil",
            "connectivity": true
        },
        {
            "lon": -42.8014,
            "lat": -15.0895,
            "school_name": "EM SARA KUBITSCHEK",
            "country_name": "Brazil",
            "connectivity": false
        },
        {
            "lon": -43.2608,
            "lat": -16.5603,
            "school_name": "EM PROF CATAO",
            "country_name": "Brazil",
            "connectivity": false
        },
        {
            "lon": -42.376,
            "lat": -21.1399,
            "school_name": "EM PROF NILZA PAIXAO DE OLIVEIRA ALVES",
            "country_name": "Brazil",
            "connectivity": true
        },
        {
            "lon": -42.876,
            "lat": -20.7635,
            "school_name": "EE DR RAIMUNDO ALVES TORRES",
            "country_name": "Brazil",
            "connectivity": true
        },
        {
            "lon": -44.9804,
            "lat": -22.4183,
            "school_name": "EM JOAQUIM ALFREDO DA MOTTA",
            "country_name": "Brazil",
            "connectivity": true
        },
        {
            "lon": -44.8734,
            "lat": -20.5486,
            "school_name": "CENTRO MUNICIPAL DE EDUCACAO INFANTIL DONA CONCEICAO GUERRA",
            "country_name": "Brazil",
            "connectivity": true
        },
        {
            "lon": -44.576,
            "lat": -16.9798,
            "school_name": "ESCOLA MUNICIPAL MARIA DILMA FERNANDES FONSECA",
            "country_name": "Brazil",
            "connectivity": true
        },
        {
            "lon": -43.9134,
            "lat": -19.8309,
            "school_name": "ESCOLA MUNICIPAL SERGIO MIRANDA",
            "country_name": "Brazil",
            "connectivity": true
        },
        {
            "lon": -43.6608,
            "lat": -16.8087,
            "school_name": "EM PROFESSOR GERALDO ALVES MARTINS",
            "country_name": "Brazil",
            "connectivity": false
        },
        {
            "lon": -40.8623,
            "lat": -18.5841,
            "school_name": "EM PORANGA",
            "country_name": "Brazil",
            "connectivity": false
        },
        {
            "lon": -36.8255,
            "lat": -10.216,
            "school_name": "ESCOLA ESTADUAL DOM ANTONIO DOS SANTOS CABRAL",
            "country_name": "Brazil",
            "connectivity": true
        },
        {
            "lon": -40.513,
            "lat": -20.3524,
            "school_name": "EMPEF NALY DO SACRAMENTO FREITAS",
            "country_name": "Brazil",
            "connectivity": false
        },
        {
            "lon": -37.6794,
            "lat": -10.9203,
            "school_name": "ESCOLA MUL LUIZA PEREIRA DO NASCIMENTO RODRIGUES",
            "country_name": "Brazil",
            "connectivity": true
        },
        {
            "lon": -51.1757,
            "lat": -29.8827,
            "school_name": "COL ESTADUAL MIGUEL LAMPERT",
            "country_name": "Brazil",
            "connectivity": true
        },
        {
            "lon": -43.2907,
            "lat": -22.8853,
            "school_name": "CE OLINTO DA GAMA BOTELHO",
            "country_name": "Brazil",
            "connectivity": true
        },
        {
            "lon": -43.2357,
            "lat": -22.9936,
            "school_name": "CE ALMIRANTE TAMANDARE",
            "country_name": "Brazil",
            "connectivity": true
        },
        {
            "lon": -42.9687,
            "lat": -22.7778,
            "school_name": "ESCOLA ESTADUAL MUNICIPALIZADA GUAXINDIBA",
            "country_name": "Brazil",
            "connectivity": true
        },
        {
            "lon": -43.3636,
            "lat": -22.8804,
            "school_name": "0515601 CRECHE MUNICIPAL OLGA BENARIO",
            "country_name": "Brazil",
            "connectivity": true
        },
        {
            "lon": -43.5565,
            "lat": -22.7245,
            "school_name": "CIEP 341 SEBASTIAO PEREIRA PORTES",
            "country_name": "Brazil",
            "connectivity": true
        },
        {
            "lon": -42.5221,
            "lat": -22.2439,
            "school_name": "J I LETICIA COUTINHO SOARES",
            "country_name": "Brazil",
            "connectivity": true
        },
        {
            "lon": -43.3247,
            "lat": -22.7612,
            "school_name": "CRECHE MUNICIPAL PROFESSORA LAURA D AQUINO LONGO",
            "country_name": "Brazil",
            "connectivity": true
        },
        {
            "lon": -43.8087,
            "lat": -22.8703,
            "school_name": "CRECHE MUNICIPAL PROFESSOR RENATO BARBOSA LADISLAU",
            "country_name": "Brazil",
            "connectivity": true
        },
        {
            "lon": -38.7888,
            "lat": -10.9687,
            "school_name": "EE - COLEGIO ESTADUAL LUIS EDUARDO MAGALHAES",
            "country_name": "Brazil",
            "connectivity": true
        },
        {
            "lon": -46.801,
            "lat": -23.7579,
            "school_name": "ESCOLA MUNICIPAL JESUS MARIA MOREIRA",
            "country_name": "Brazil",
            "connectivity": true
        },
        {
            "lon": -43.2976,
            "lat": -22.788,
            "school_name": "E M VILA OPERARIA",
            "country_name": "Brazil",
            "connectivity": true
        },
        {
            "lon": -46.9212,
            "lat": -23.5352,
            "school_name": "CELINA DE BARROS BAIRAO PROFESSORA",
            "country_name": "Brazil",
            "connectivity": true
        },
        {
            "lon": -47.3865,
            "lat": -22.5769,
            "school_name": "RUTH RAMOS CAPPI PROFESSORA",
            "country_name": "Brazil",
            "connectivity": true
        },
        {
            "lon": -38.4813,
            "lat": -12.9609,
            "school_name": "ESCOLA MUNICIPAL PROFESSORA SUZANA IMBASSAHY",
            "country_name": "Brazil",
            "connectivity": true
        },
        {
            "lon": -46.8889,
            "lat": -23.526,
            "school_name": "THOMAZ VICTORIA RODRIGUES EMEI",
            "country_name": "Brazil",
            "connectivity": false
        },
        {
            "lon": -46.8553,
            "lat": -23.2233,
            "school_name": "AMELIA LIMA LOPES EMEB",
            "country_name": "Brazil",
            "connectivity": true
        },
        {
            "lon": -46.8021,
            "lat": -23.6952,
            "school_name": "PINTASSILGO EM",
            "country_name": "Brazil",
            "connectivity": true
        },
        {
            "lon": -46.5676,
            "lat": -23.6664,
            "school_name": "NEUSA BASSETTO EMEBB",
            "country_name": "Brazil",
            "connectivity": true
        },
        {
            "lon": -47.4958,
            "lat": -23.527,
            "school_name": "MARIA PEDROSO BELLOTTI CEI 30",
            "country_name": "Brazil",
            "connectivity": true
        },
        {
            "lon": -47.1719,
            "lat": -22.7807,
            "school_name": "FRANCISCA RUBINO LOZANO ARAUJO EMEI",
            "country_name": "Brazil",
            "connectivity": true
        },
        {
            "lon": -48.3188,
            "lat": -20.3145,
            "school_name": "EUNISSE ESPERANCINE MOREIRA PROFA CEMEI",
            "country_name": "Brazil",
            "connectivity": false
        },
        {
            "lon": -46.5404,
            "lat": -23.713,
            "school_name": "ALDINO PINOTTI PREFEITO EMEB",
            "country_name": "Brazil",
            "connectivity": true
        },
        {
            "lon": -48.2504,
            "lat": -21.9783,
            "school_name": "EM PROFA MARIA APPARECIDA SOUSA CAMPOS",
            "country_name": "Brazil",
            "connectivity": true
        },
        {
            "lon": -47.3812,
            "lat": -21.0248,
            "school_name": "ERMELINDA ROSALINA SAMMARCO DE FIGUEIREDO EMEFEI",
            "country_name": "Brazil",
            "connectivity": true
        },
        {
            "lon": -51.603,
            "lat": -21.8394,
            "school_name": "MARIA BENVENHO LENZONI EMEF",
            "country_name": "Brazil",
            "connectivity": true
        },
        {
            "lon": -45.4359,
            "lat": -23.6286,
            "school_name": "CEI PROFA TELMA DO AMARANTE VEIGA SANTOS",
            "country_name": "Brazil",
            "connectivity": true
        },
        {
            "lon": -50.4941,
            "lat": -21.9229,
            "school_name": "THIAGO ALVES DA SILVA LEANDRO PROFESSOR EMEIEF",
            "country_name": "Brazil",
            "connectivity": true
        },
        {
            "lon": -55.0279,
            "lat": -28.1333,
            "school_name": "ESC EST ED BAS ERICO VERISSIMO",
            "country_name": "Brazil",
            "connectivity": true
        },
        {
            "lon": -38.6803,
            "lat": -12.8937,
            "school_name": "ESCOLA MUNICIPAL DE PORTO DOS SANTOS",
            "country_name": "Brazil",
            "connectivity": true
        },
        {
            "lon": -40.4139,
            "lat": -20.5535,
            "school_name": "EMEF JOAO BATISTA CELESTINO",
            "country_name": "Brazil",
            "connectivity": true
        },
        {
            "lon": -50.7818,
            "lat": -25.7732,
            "school_name": "GETULIO VARGAS E R M DR EI EF",
            "country_name": "Brazil",
            "connectivity": true
        },
        {
            "lon": -49.5151,
            "lat": -26.2652,
            "school_name": "CMEI ARCO IRIS",
            "country_name": "Brazil",
            "connectivity": true
        },
        {
            "lon": -49.3603,
            "lat": -25.4389,
            "school_name": "SAO LEONARDO C M E I",
            "country_name": "Brazil",
            "connectivity": true
        },
        {
            "lon": -52.9956,
            "lat": -24.5344,
            "school_name": "ARTE DE CRESCER C M E I",
            "country_name": "Brazil",
            "connectivity": true
        },
        {
            "lon": -49.7906,
            "lat": -27.3009,
            "school_name": "CENTRO DE EDUCACAO INFANTIL MENINO JESUS",
            "country_name": "Brazil",
            "connectivity": true
        },
        {
            "lon": -50.9279,
            "lat": -27.1934,
            "school_name": "JI ILCE REGADALLI",
            "country_name": "Brazil",
            "connectivity": false
        },
        {
            "lon": -47.5018,
            "lat": -23.6955,
            "school_name": "LEONOR OLIVEIRA MARTINS PROFESSORA",
            "country_name": "Brazil",
            "connectivity": true
        },
        {
            "lon": -49.2533,
            "lat": -26.1835,
            "school_name": "EMEB ANTONIO DOMINGOS CORREA",
            "country_name": "Brazil",
            "connectivity": false
        },
        {
            "lon": -49.5446,
            "lat": -27.5881,
            "school_name": "CENTRO EDUCACIONAL DE ENSINO FUNDAMENTAL PROFESSOR VERNY PASSIG",
            "country_name": "Brazil",
            "connectivity": true
        },
        {
            "lon": -49.2899,
            "lat": -28.7133,
            "school_name": "CEJAI- CENTRO DE EDUCACAO DE JOVENS E ADULTOS DE ICARA",
            "country_name": "Brazil",
            "connectivity": true
        },
        {
            "lon": -48.9657,
            "lat": -26.9275,
            "school_name": "UD DE GASPAR",
            "country_name": "Brazil",
            "connectivity": true
        },
        {
            "lon": -50.0854,
            "lat": -29.4285,
            "school_name": "EMEI RUBEM BREHM JUSTO",
            "country_name": "Brazil",
            "connectivity": true
        },
        {
            "lon": -53.0488,
            "lat": -27.7845,
            "school_name": "EMEF HUMBERTO CAMPOS",
            "country_name": "Brazil",
            "connectivity": true
        },
        {
            "lon": -53.3669,
            "lat": -27.4039,
            "school_name": "EMEF FRANCISCO COCCO",
            "country_name": "Brazil",
            "connectivity": false
        },
        {
            "lon": -43.3686,
            "lat": -22.8262,
            "school_name": "0625204 CIEP RUBENS GOMES",
            "country_name": "Brazil",
            "connectivity": true
        },
        {
            "lon": -44.0753,
            "lat": -22.502,
            "school_name": "CRECHE MUN AMOR PERFEITO",
            "country_name": "Brazil",
            "connectivity": true
        },
        {
            "lon": -44.0532,
            "lat": -22.4872,
            "school_name": "E M LIONS CLUBE",
            "country_name": "Brazil",
            "connectivity": true
        },
        {
            "lon": -51.2159,
            "lat": -30.0466,
            "school_name": "EMEI DOS MUNICIPARIOS TIO BARNABE",
            "country_name": "Brazil",
            "connectivity": true
        },
        {
            "lon": -43.2951,
            "lat": -22.7675,
            "school_name": "CRECHE E PRE ESCOLA MUNICIPAL GRACIESSE LUIZA SILVA LOURENCO",
            "country_name": "Brazil",
            "connectivity": true
        },
        {
            "lon": -43.3935,
            "lat": -21.7436,
            "school_name": "EE DOUTOR CLEMENTE MARIANI",
            "country_name": "Brazil",
            "connectivity": true
        },
        {
            "lon": -55.1453,
            "lat": -27.9043,
            "school_name": "EMEI CANTINHO DO CEU",
            "country_name": "Brazil",
            "connectivity": true
        },
        {
            "lon": -46.2958,
            "lat": -23.6223,
            "school_name": "ROBERTO BIANCHI",
            "country_name": "Brazil",
            "connectivity": true
        },
        {
            "lon": -46.1369,
            "lat": -23.8423,
            "school_name": "ARMANDO BELLEGARD PROFESSOR",
            "country_name": "Brazil",
            "connectivity": true
        },
        {
            "lon": -47.0417,
            "lat": -14.4562,
            "school_name": "ESCOLA MUNICIPAL SINDOVAL CARNEIRO DE ARAUJO",
            "country_name": "Brazil",
            "connectivity": true
        },
        {
            "lon": -51.1813,
            "lat": -23.2657,
            "school_name": "SONIA PARREIRA DEBEI E M EF",
            "country_name": "Brazil",
            "connectivity": true
        },
        {
            "lon": -46.2967,
            "lat": -23.5158,
            "school_name": "OSWALDO DE OLIVEIRA LIMA",
            "country_name": "Brazil",
            "connectivity": true
        },
        {
            "lon": -47.4595,
            "lat": -2.2556,
            "school_name": "E M E I F RIO JABUTI",
            "country_name": "Brazil",
            "connectivity": true
        },
        {
            "lon": -61.9541,
            "lat": -10.8843,
            "school_name": "EEEFM RIO URUPA",
            "country_name": "Brazil",
            "connectivity": true
        },
        {
            "lon": -45.1736,
            "lat": -3.287,
            "school_name": "CENTRO DE ENSINO DR TANCREDO NEVES CEMA",
            "country_name": "Brazil",
            "connectivity": true
        },
        {
            "lon": -47.456,
            "lat": -23.482,
            "school_name": "BALTAZAR FERNANDES",
            "country_name": "Brazil",
            "connectivity": true
        },
        {
            "lon": -51.1483,
            "lat": -23.2628,
            "school_name": "FERNANDO DE B PINTO E E DR EF",
            "country_name": "Brazil",
            "connectivity": true
        },
        {
            "lon": -41.2442,
            "lat": -7.681,
            "school_name": "ESCOLA MUNICIPAL TIA MARIA DE JESUS TEIXEIRA",
            "country_name": "Brazil",
            "connectivity": true
        },
        {
            "lon": -42.1108,
            "lat": -3.8453,
            "school_name": "U E MARIA DO AMPARO OLIVEIRA",
            "country_name": "Brazil",
            "connectivity": true
        },
        {
            "lon": -52.9951,
            "lat": -26.93,
            "school_name": "ESCOLA MUNICIPAL DE ENSINO FUNDAMENTAL SAUDADES",
            "country_name": "Brazil",
            "connectivity": true
        },
        {
            "lon": -49.3894,
            "lat": -16.4326,
            "school_name": "COLEGIO ESTADUAL DE BRAZABRANTES",
            "country_name": "Brazil",
            "connectivity": true
        },
        {
            "lon": -40.7056,
            "lat": -5.8457,
            "school_name": "MARIA SALVENI DE SOUSA MORENO EEIF",
            "country_name": "Brazil",
            "connectivity": true
        },
        {
            "lon": -35.5178,
            "lat": -6.4719,
            "school_name": "ESC MUL PROFESSOR MANOEL ELIAS DA COSTA",
            "country_name": "Brazil",
            "connectivity": true
        },
        {
            "lon": -35.2588,
            "lat": -6.8094,
            "school_name": "EMEF MANOEL SOARES DE OLIVEIRA",
            "country_name": "Brazil",
            "connectivity": true
        },
        {
            "lon": -46.483,
            "lat": -18.5738,
            "school_name": "EM PROF ARISTIDES MEMORIA",
            "country_name": "Brazil",
            "connectivity": true
        }
    ],
    "num_countries": 13,
    "countries": [
        "Benin",
        "Brazil",
        "British Virgin Islands",
        "Colombia",
        "Costa Rica",
        "Honduras",
        "Kazakhstan",
        "Kyrgyzstan",
        "Philippines",
        "Rwanda",
        "Saint Lucia",
        "Sierra Leone",
        "Zimbabwe"
    ],
    "schools_no_data": [
        {
            "lon": -10.009048,
            "lat": 6.281889,
            "school_name": "Juah Town Public",
            "country_name": "Liberia",
            "connectivity": false
        },
        {
            "lon": -77.6429,
            "lat": -7.8325,
            "school_name": "82157 RAFAEL LARCO HOYLE",
            "country_name": "Peru",
            "connectivity": false
        },
        {
            "lon": -9.852953,
            "lat": 5.794887,
            "school_name": "Gio Town Public",
            "country_name": "Liberia",
            "connectivity": false
        },
        {
            "lon": -57.55444873,
            "lat": -37.99216103,
            "school_name": "INSTITUTO DOMINGO FAUSTINO SARMIENTO",
            "country_name": "Argentina",
            "connectivity": false
        },
        {
            "lon": -0.8318351,
            "lat": 9.3988023,
            "school_name": "Name unknown",
            "country_name": "Ghana",
            "connectivity": false
        },
        {
            "lon": -0.1993699,
            "lat": 5.5711564,
            "school_name": "Name unknown",
            "country_name": "Ghana",
            "connectivity": false
        },
        {
            "lon": 32.71355617,
            "lat": 19.2489382,
            "school_name": "Name unknown",
            "country_name": "Sudan",
            "connectivity": false
        },
        {
            "lon": 33.4774037833333,
            "lat": 14.72381915,
            "school_name": "Name unknown",
            "country_name": "Sudan",
            "connectivity": false
        },
        {
            "lon": 32.80166625,
            "lat": 13.9585132,
            "school_name": "Name unknown",
            "country_name": "Sudan",
            "connectivity": false
        },
        {
            "lon": 34.52843923,
            "lat": 11.55261478,
            "school_name": "Name unknown",
            "country_name": "Sudan",
            "connectivity": false
        },
        {
            "lon": 34.29581223,
            "lat": 11.62311882,
            "school_name": "Name unknown",
            "country_name": "Sudan",
            "connectivity": false
        },
        {
            "lon": -1.4670282,
            "lat": 6.6598482,
            "school_name": "Name unknown",
            "country_name": "Ghana",
            "connectivity": false
        },
        {
            "lon": -1.6082934,
            "lat": 6.7348145,
            "school_name": "Name unknown",
            "country_name": "Ghana",
            "connectivity": false
        },
        {
            "lon": -1.5406823,
            "lat": 6.7250599,
            "school_name": "Name unknown",
            "country_name": "Ghana",
            "connectivity": false
        },
        {
            "lon": -1.6474954,
            "lat": 6.661307,
            "school_name": "Name unknown",
            "country_name": "Ghana",
            "connectivity": false
        },
        {
            "lon": 35.36713,
            "lat": -8.76567,
            "school_name": "LUGALA",
            "country_name": "United Republic of Tanzania",
            "connectivity": false
        },
        {
            "lon": 32.94187,
            "lat": -2.49178,
            "school_name": "SAVANNA",
            "country_name": "United Republic of Tanzania",
            "connectivity": false
        },
        {
            "lon": 39.69622,
            "lat": -7.97105,
            "school_name": "KIBAONI",
            "country_name": "United Republic of Tanzania",
            "connectivity": false
        },
        {
            "lon": 33.30864,
            "lat": -8.47438,
            "school_name": "MAWELU",
            "country_name": "United Republic of Tanzania",
            "connectivity": false
        },
        {
            "lon": 35.93947,
            "lat": -7.37431,
            "school_name": "IHOMINYI",
            "country_name": "United Republic of Tanzania",
            "connectivity": false
        },
        {
            "lon": 36.94741,
            "lat": -3.25452,
            "school_name": "LEGURUKI",
            "country_name": "United Republic of Tanzania",
            "connectivity": false
        },
        {
            "lon": 31.7357,
            "lat": -1.09109,
            "school_name": "KIKUKWE",
            "country_name": "United Republic of Tanzania",
            "connectivity": false
        },
        {
            "lon": 37.33538,
            "lat": -4.11816,
            "school_name": "NGAMA",
            "country_name": "United Republic of Tanzania",
            "connectivity": false
        },
        {
            "lon": 34.64896,
            "lat": -1.47324,
            "school_name": "NYANTARE",
            "country_name": "United Republic of Tanzania",
            "connectivity": false
        },
        {
            "lon": 37.65744,
            "lat": -6.79733,
            "school_name": "WESLEY",
            "country_name": "United Republic of Tanzania",
            "connectivity": false
        },
        {
            "lon": 33.60494,
            "lat": -8.89613,
            "school_name": "MKAPA",
            "country_name": "United Republic of Tanzania",
            "connectivity": false
        },
        {
            "lon": 33.16463,
            "lat": -4.7245,
            "school_name": "UPUNGU",
            "country_name": "United Republic of Tanzania",
            "connectivity": false
        },
        {
            "lon": 37.6867,
            "lat": -4.5578,
            "school_name": "RUVU REMIT",
            "country_name": "United Republic of Tanzania",
            "connectivity": false
        },
        {
            "lon": 34.46255,
            "lat": -1.40668,
            "school_name": "MONANKA",
            "country_name": "United Republic of Tanzania",
            "connectivity": false
        },
        {
            "lon": 31.30778,
            "lat": -2.63361,
            "school_name": "UMOJA - B",
            "country_name": "United Republic of Tanzania",
            "connectivity": false
        },
        {
            "lon": 33.64673,
            "lat": -2.12324,
            "school_name": "BUZIMBWE",
            "country_name": "United Republic of Tanzania",
            "connectivity": false
        },
        {
            "lon": 33.04831,
            "lat": -1.97567,
            "school_name": "BUGUZA",
            "country_name": "United Republic of Tanzania",
            "connectivity": false
        },
        {
            "lon": -0.1831752,
            "lat": 5.767019,
            "school_name": "Name unknown",
            "country_name": "Ghana",
            "connectivity": false
        },
        {
            "lon": 32.55341,
            "lat": -2.69271,
            "school_name": "IJINGA",
            "country_name": "United Republic of Tanzania",
            "connectivity": false
        },
        {
            "lon": 1.220426667,
            "lat": 6.31944,
            "school_name": "JEPL ASTUCE ANNEXE",
            "country_name": "Togo",
            "connectivity": false
        },
        {
            "lon": 1.500182,
            "lat": 7.013403,
            "school_name": "JEP NYILE",
            "country_name": "Togo",
            "connectivity": false
        },
        {
            "lon": 1.23102,
            "lat": 6.1468,
            "school_name": "EPL LE MIROIR",
            "country_name": "Togo",
            "connectivity": false
        },
        {
            "lon": 1.646584,
            "lat": 6.299242,
            "school_name": "EPP TOKPO G/B",
            "country_name": "Togo",
            "connectivity": false
        },
        {
            "lon": 0.7785,
            "lat": 6.8899,
            "school_name": "EDIL AKPLOLO",
            "country_name": "Togo",
            "connectivity": false
        },
        {
            "lon": 1.274241667,
            "lat": 9.672521667,
            "school_name": "EPP DEWA",
            "country_name": "Togo",
            "connectivity": false
        },
        {
            "lon": 33.64278,
            "lat": -3.69169,
            "school_name": "BULIMBA",
            "country_name": "United Republic of Tanzania",
            "connectivity": false
        },
        {
            "lon": 39.19215,
            "lat": -7.85965,
            "school_name": "MTUNDA",
            "country_name": "United Republic of Tanzania",
            "connectivity": false
        },
        {
            "lon": 0.136076,
            "lat": 10.853619,
            "school_name": "LYCEE KOMBONLOAGA",
            "country_name": "Togo",
            "connectivity": false
        },
        {
            "lon": 33.64091573,
            "lat": -11.72188551,
            "school_name": "Kapoli",
            "country_name": "Malawi",
            "connectivity": false
        },
        {
            "lon": 35.28347084,
            "lat": -16.75503463,
            "school_name": "Mguda",
            "country_name": "Malawi",
            "connectivity": false
        },
        {
            "lon": 33.68972021,
            "lat": -10.36172334,
            "school_name": "Lukulu",
            "country_name": "Malawi",
            "connectivity": false
        },
        {
            "lon": 35.52564738,
            "lat": -14.87710987,
            "school_name": "Destiny_Pri_Pvt",
            "country_name": "Malawi",
            "connectivity": false
        },
        {
            "lon": 23.94210318,
            "lat": 0.7742422,
            "school_name": "INST MAKANISI",
            "country_name": "Democratic Republic of the Congo",
            "connectivity": false
        },
        {
            "lon": 26.64223836,
            "lat": -8.08743231,
            "school_name": "INSTITUT KIMBI",
            "country_name": "Democratic Republic of the Congo",
            "connectivity": false
        },
        {
            "lon": 15.30588792,
            "lat": -4.347005486,
            "school_name": "CS LA PROVIDENCE DIVINE",
            "country_name": "Democratic Republic of the Congo",
            "connectivity": false
        },
        {
            "lon": 7.082904593,
            "lat": 5.619959076,
            "school_name": "Name unknown",
            "country_name": "Nigeria",
            "connectivity": false
        },
        {
            "lon": 23.1241,
            "lat": -6.743,
            "school_name": "EP KAMPEMBA",
            "country_name": "Democratic Republic of the Congo",
            "connectivity": false
        },
        {
            "lon": 27.55644575,
            "lat": -11.66099944,
            "school_name": "COLLEGE  SAINT  CLEMENT",
            "country_name": "Democratic Republic of the Congo",
            "connectivity": false
        },
        {
            "lon": 27.27658759,
            "lat": -8.416275257,
            "school_name": "EP NKONGA",
            "country_name": "Democratic Republic of the Congo",
            "connectivity": false
        },
        {
            "lon": 26.62059444,
            "lat": -2.570508333,
            "school_name": "IPK",
            "country_name": "Democratic Republic of the Congo",
            "connectivity": false
        },
        {
            "lon": 27.18375679,
            "lat": -3.46391989,
            "school_name": "INST NYOTA YA ASUBUI",
            "country_name": "Democratic Republic of the Congo",
            "connectivity": false
        },
        {
            "lon": -91.49213,
            "lat": 18.793077,
            "school_name": "ELVIRA CASTILLO ARCE",
            "country_name": "Mexico",
            "connectivity": false
        },
        {
            "lon": -99.22337,
            "lat": 18.845281,
            "school_name": "ESCUELA DE BELLEZA OSQUITA",
            "country_name": "Mexico",
            "connectivity": false
        },
        {
            "lon": -15.97922,
            "lat": 18.09413,
            "school_name": "LYCEE PRIVE DU SAHEL",
            "country_name": "Mauritania",
            "connectivity": false
        },
        {
            "lon": 33.23526,
            "lat": 0.46912,
            "school_name": "KARISTAD DAY CARE",
            "country_name": "Uganda",
            "connectivity": false
        },
        {
            "lon": 31.52406,
            "lat": -0.51398,
            "school_name": "NAKATOOGO PRI SCHOOL",
            "country_name": "Uganda",
            "connectivity": false
        },
        {
            "lon": 31.48134,
            "lat": -0.78412,
            "school_name": "NYANGA MUSLIM P/SCHOOL",
            "country_name": "Uganda",
            "connectivity": false
        },
        {
            "lon": 30.22372,
            "lat": -0.63594,
            "school_name": "St. Charles Lwanga H.S.",
            "country_name": "Uganda",
            "connectivity": false
        },
        {
            "lon": 32.32956,
            "lat": -0.66801,
            "school_name": "Mazinga",
            "country_name": "Uganda",
            "connectivity": false
        },
        {
            "lon": 32.32639,
            "lat": 0.22689,
            "school_name": "MPIGI QUARAN",
            "country_name": "Uganda",
            "connectivity": false
        },
        {
            "lon": 31.26363,
            "lat": 0.37562,
            "school_name": "Kiwuuba P.S",
            "country_name": "Uganda",
            "connectivity": false
        },
        {
            "lon": 33.21088,
            "lat": 0.58157,
            "school_name": "Mutai Victory P.S",
            "country_name": "Uganda",
            "connectivity": false
        },
        {
            "lon": -76.2383,
            "lat": -10.539,
            "school_name": "34022 ISAAC NEWTON",
            "country_name": "Peru",
            "connectivity": false
        },
        {
            "lon": 33.88583,
            "lat": 0.34077,
            "school_name": "Nekuku P.S.",
            "country_name": "Uganda",
            "connectivity": false
        },
        {
            "lon": 33.94254,
            "lat": 0.38953,
            "school_name": "Busonga P.S.",
            "country_name": "Uganda",
            "connectivity": false
        },
        {
            "lon": 34.34563,
            "lat": 0.94107,
            "school_name": "Bukhabusi P.S.",
            "country_name": "Uganda",
            "connectivity": false
        },
        {
            "lon": 31.10047,
            "lat": -0.68458,
            "school_name": "Kamutiganzi P.S.",
            "country_name": "Uganda",
            "connectivity": false
        },
        {
            "lon": 28.75811,
            "lat": -25.10626,
            "school_name": "Loding Primary School",
            "country_name": "South Africa",
            "connectivity": false
        },
        {
            "lon": 29.24816,
            "lat": -26.95014,
            "school_name": "Pre-Pre Mer Haas Das",
            "country_name": "South Africa",
            "connectivity": false
        },
        {
            "lon": 27.99327,
            "lat": -25.48857,
            "school_name": "Tlapa-la-Thuto Primary School",
            "country_name": "South Africa",
            "connectivity": false
        },
        {
            "lon": 26.54686,
            "lat": -33.29475,
            "school_name": "Tantyi Primary School",
            "country_name": "South Africa",
            "connectivity": false
        },
        {
            "lon": 26.45744,
            "lat": -25.46426,
            "school_name": "Morare High School",
            "country_name": "South Africa",
            "connectivity": false
        },
        {
            "lon": 24.77212,
            "lat": -28.73257,
            "school_name": "Val's New Beginings Daycare Centre",
            "country_name": "South Africa",
            "connectivity": false
        },
        {
            "lon": 30.08302,
            "lat": -23.23576,
            "school_name": "Tshivhuyuni Primary",
            "country_name": "South Africa",
            "connectivity": false
        },
        {
            "lon": 30.17086,
            "lat": -24.52265,
            "school_name": "Kgokodibeng Secondary School",
            "country_name": "South Africa",
            "connectivity": false
        },
        {
            "lon": 18.65415,
            "lat": -34.01375,
            "school_name": "Zizamele Educare Centre",
            "country_name": "South Africa",
            "connectivity": false
        },
        {
            "lon": 18.69864,
            "lat": -34.03168,
            "school_name": "Academia Primary School",
            "country_name": "South Africa",
            "connectivity": false
        },
        {
            "lon": 18.96536,
            "lat": -33.88702,
            "school_name": "Pniel Primary School",
            "country_name": "South Africa",
            "connectivity": false
        },
        {
            "lon": 30.86552,
            "lat": -29.80049,
            "school_name": "Fairy Glen Play Centre",
            "country_name": "South Africa",
            "connectivity": false
        },
        {
            "lon": 26.13624,
            "lat": -32.63565,
            "school_name": "Cowie Bush Primary School",
            "country_name": "South Africa",
            "connectivity": false
        },
        {
            "lon": 30.71427,
            "lat": -27.98659,
            "school_name": "Khondlo Senior Secondary School",
            "country_name": "South Africa",
            "connectivity": false
        },
        {
            "lon": 30.73235,
            "lat": -23.00227,
            "school_name": "Mdanisi Primary",
            "country_name": "South Africa",
            "connectivity": false
        },
        {
            "lon": 30.57676,
            "lat": -28.7846,
            "school_name": "Kubuyakwezwe Primary School",
            "country_name": "South Africa",
            "connectivity": false
        },
        {
            "lon": 32.18136,
            "lat": -28.08916,
            "school_name": "Dulikhulu Primary School",
            "country_name": "South Africa",
            "connectivity": false
        },
        {
            "lon": 31.50357,
            "lat": -28.80995,
            "school_name": "Maguqu Primary School",
            "country_name": "South Africa",
            "connectivity": false
        },
        {
            "lon": 31.85998,
            "lat": -28.79714,
            "school_name": "Ndabayakhe Primary Scool",
            "country_name": "South Africa",
            "connectivity": false
        },
        {
            "lon": 30.98694,
            "lat": -29.75881,
            "school_name": "Doctor Jl Dube High",
            "country_name": "South Africa",
            "connectivity": false
        },
        {
            "lon": 28.11235,
            "lat": -25.99306,
            "school_name": "Bettewia Schools",
            "country_name": "South Africa",
            "connectivity": false
        },
        {
            "lon": 32.95248,
            "lat": 0.20466,
            "school_name": "Nyemerwa P.S",
            "country_name": "Uganda",
            "connectivity": false
        },
        {
            "lon": 27.81286,
            "lat": -26.52047,
            "school_name": "Poelano Secondary School",
            "country_name": "South Africa",
            "connectivity": false
        },
        {
            "lon": 28.29863,
            "lat": -25.7613,
            "school_name": "Lynnwood Ridge Primary School",
            "country_name": "South Africa",
            "connectivity": false
        },
        {
            "lon": 27.64173,
            "lat": -26.31734,
            "school_name": "Mama's Angels",
            "country_name": "South Africa",
            "connectivity": false
        },
        {
            "lon": 28.05526,
            "lat": -32.2369,
            "school_name": "Nqamakwe Combined School",
            "country_name": "South Africa",
            "connectivity": false
        },
        {
            "lon": 28.17625,
            "lat": -32.32369,
            "school_name": "Msobomvu Senior Secondary School",
            "country_name": "South Africa",
            "connectivity": false
        },
        {
            "lon": 27.50889,
            "lat": -31.57505,
            "school_name": "Upper Indwana Junior Secondary School",
            "country_name": "South Africa",
            "connectivity": false
        },
        {
            "lon": 27.10942,
            "lat": -33.26625,
            "school_name": "Mgwalana Primary School",
            "country_name": "South Africa",
            "connectivity": false
        },
        {
            "lon": 29.51534,
            "lat": -30.68896,
            "school_name": "Govalele Nomake Junior Secondary School",
            "country_name": "South Africa",
            "connectivity": false
        },
        {
            "lon": 29.12,
            "lat": -31.56596,
            "school_name": "Ntlaza Junior Secondary School",
            "country_name": "South Africa",
            "connectivity": false
        },
        {
            "lon": -59.7831187,
            "lat": -35.3198064,
            "school_name": "ESCUELA PRIMARIA N\u00ba52 UNESCO",
            "country_name": "Argentina",
            "connectivity": false
        },
        {
            "lon": -60.21745812,
            "lat": -33.33987767,
            "school_name": "COLEGIO DE LA CUIDAD",
            "country_name": "Argentina",
            "connectivity": false
        },
        {
            "lon": -58.48910566,
            "lat": -34.5730864,
            "school_name": "INST. OBRA DE LA CONSERVACION DE LA FE 08",
            "country_name": "Argentina",
            "connectivity": false
        },
        {
            "lon": -58.8265384,
            "lat": -36.0545523,
            "school_name": "ESCUELA PRIMARIA N\u00ba29 PABLO PIZZURNO",
            "country_name": "Argentina",
            "connectivity": false
        },
        {
            "lon": -57.55387832,
            "lat": -38.00788187,
            "school_name": "ESCUELA SECUNDARIA N\u00ba24 MANUEL BELGRANO",
            "country_name": "Argentina",
            "connectivity": false
        },
        {
            "lon": -61.93885937,
            "lat": -37.45971445,
            "school_name": "JARDIN DE INFANTES N\u00ba908 SARA CH. DE ECLESTON",
            "country_name": "Argentina",
            "connectivity": false
        },
        {
            "lon": -61.48528815,
            "lat": -31.59015674,
            "school_name": "C.E.R. NRO 323 GENERAL MANUEL BELGRANO",
            "country_name": "Argentina",
            "connectivity": false
        },
        {
            "lon": -60.1677588,
            "lat": -33.7342377,
            "school_name": "JARDIN DE INFANTES N\u00ba916 NI\u00d1AS DE AYOHUMA",
            "country_name": "Argentina",
            "connectivity": false
        },
        {
            "lon": -58.53170286,
            "lat": -34.65579557,
            "school_name": "ESCUELA PRIMARIA N\u00ba30 SANTA MARIA DE LOS BUENOS AIRES",
            "country_name": "Argentina",
            "connectivity": false
        },
        {
            "lon": -60.9542284,
            "lat": -34.56700012,
            "school_name": "ANEXO DE ESCUELA SECUNDARIA N\u00ba1",
            "country_name": "Argentina",
            "connectivity": false
        },
        {
            "lon": -58.58311007,
            "lat": -34.42023358,
            "school_name": "COLEGIO SANTA TERESA",
            "country_name": "Argentina",
            "connectivity": false
        },
        {
            "lon": -57.95721868,
            "lat": -34.94061858,
            "school_name": "INSTITUTO BIVONGI",
            "country_name": "Argentina",
            "connectivity": false
        },
        {
            "lon": -58.58056804,
            "lat": -34.89405919,
            "school_name": "ESCUELA PRIMARIA N\u00ba23",
            "country_name": "Argentina",
            "connectivity": false
        },
        {
            "lon": -58.40315927,
            "lat": -34.67468095,
            "school_name": "JARDIN DE INFANTES ARCO IRIS",
            "country_name": "Argentina",
            "connectivity": false
        },
        {
            "lon": -58.74355407,
            "lat": -38.53673494,
            "school_name": "JARDIN DE INFANTES N\u00ba918 RIO QUEQU\u00c9N",
            "country_name": "Argentina",
            "connectivity": false
        },
        {
            "lon": -62.27246703,
            "lat": -38.71682139,
            "school_name": "INSTITUTO GABRIELE D'ANNUNZIO",
            "country_name": "Argentina",
            "connectivity": false
        },
        {
            "lon": -59.43234081,
            "lat": -34.64987253,
            "school_name": "ESC. SECUNDARIA BASICA N\u00ba3",
            "country_name": "Argentina",
            "connectivity": false
        },
        {
            "lon": -58.7066117,
            "lat": -34.5350938,
            "school_name": "INSTITUTO NACIONES UNIDAS",
            "country_name": "Argentina",
            "connectivity": false
        },
        {
            "lon": -65.7939537,
            "lat": -28.4666696,
            "school_name": "ESCUELA N\u00b0 271 PCIA. SGO. DEL ESTERO",
            "country_name": "Argentina",
            "connectivity": false
        },
        {
            "lon": -64.18410091,
            "lat": -31.44334935,
            "school_name": "J.DE INF. 20 DE JUNIO",
            "country_name": "Argentina",
            "connectivity": false
        },
        {
            "lon": -64.26146157,
            "lat": -32.19236668,
            "school_name": "C.E.N.M.A. ALMAFUERTE - ANEXO A DISTANCIA",
            "country_name": "Argentina",
            "connectivity": false
        },
        {
            "lon": -58.9163659,
            "lat": -28.4123468,
            "school_name": "ESCUELA AGROTECNICA de COLONIA 3 DE ABRIL",
            "country_name": "Argentina",
            "connectivity": false
        },
        {
            "lon": -59.7264529,
            "lat": -32.1606144,
            "school_name": "ELEUTERIO TISCORNIA 21",
            "country_name": "Argentina",
            "connectivity": false
        },
        {
            "lon": -67.59971383,
            "lat": -29.31856017,
            "school_name": "ESC.N\u00b0194 BARTOLOME MITRE",
            "country_name": "Argentina",
            "connectivity": false
        },
        {
            "lon": -66.32199661,
            "lat": -30.51117417,
            "school_name": "J.I.N. N\u00b017 EXTENSION 02",
            "country_name": "Argentina",
            "connectivity": false
        },
        {
            "lon": -68.45280812,
            "lat": -33.07817812,
            "school_name": "SAN MARTIN PADRE EJEMPLAR (ESC. 1-113)",
            "country_name": "Argentina",
            "connectivity": false
        },
        {
            "lon": -68.12276227,
            "lat": -38.94917314,
            "school_name": "JARDIN DE INFANTES 33 TRAFUL",
            "country_name": "Argentina",
            "connectivity": false
        },
        {
            "lon": -68.05565598,
            "lat": -38.95169233,
            "school_name": "CENTRO EDUCATIVO PROVINCIAL INTEGRAL 1 (U 31)",
            "country_name": "Argentina",
            "connectivity": false
        },
        {
            "lon": -71.4899264,
            "lat": -41.06131546,
            "school_name": "ANEXO - TALLER DE CAPACITACION INTEGRAL P.CARLOS MUGICA",
            "country_name": "Argentina",
            "connectivity": false
        },
        {
            "lon": -63.34046,
            "lat": -23.25028,
            "school_name": "ESCUELA AGROTECNICA ROBERTO ROMERO N\u00ba 3154 EX N\u00b0 5019",
            "country_name": "Argentina",
            "connectivity": false
        },
        {
            "lon": -60.6384702,
            "lat": -32.94470196,
            "school_name": "JARDIN DE INFANTES NRO 1391 COLEGIO SAN BARTOLOME",
            "country_name": "Argentina",
            "connectivity": false
        },
        {
            "lon": -78.7258,
            "lat": -6.94242,
            "school_name": "358",
            "country_name": "Peru",
            "connectivity": false
        },
        {
            "lon": -64.39739,
            "lat": -26.20683,
            "school_name": "ESCUELA N\u00ba405 NUESTRA SE\u00d1ORA DE LUJAN",
            "country_name": "Argentina",
            "connectivity": false
        },
        {
            "lon": 6.261633,
            "lat": 5.403267,
            "school_name": "Name unknown",
            "country_name": "Nigeria",
            "connectivity": false
        },
        {
            "lon": 6.433303,
            "lat": 5.700074,
            "school_name": "Name unknown",
            "country_name": "Nigeria",
            "connectivity": false
        },
        {
            "lon": 5.682003,
            "lat": 5.887169,
            "school_name": "Name unknown",
            "country_name": "Nigeria",
            "connectivity": false
        },
        {
            "lon": 7.332656667,
            "lat": 5.080406667,
            "school_name": "Name unknown",
            "country_name": "Nigeria",
            "connectivity": false
        },
        {
            "lon": 5.819311,
            "lat": 5.404235,
            "school_name": "Name unknown",
            "country_name": "Nigeria",
            "connectivity": false
        },
        {
            "lon": 6.154897,
            "lat": 5.840247,
            "school_name": "Name unknown",
            "country_name": "Nigeria",
            "connectivity": false
        },
        {
            "lon": 7.406236667,
            "lat": 5.127436667,
            "school_name": "Name unknown",
            "country_name": "Nigeria",
            "connectivity": false
        },
        {
            "lon": 14.20706068,
            "lat": 11.32493684,
            "school_name": "Name unknown",
            "country_name": "Nigeria",
            "connectivity": false
        },
        {
            "lon": 7.526141667,
            "lat": 5.996441667,
            "school_name": "Name unknown",
            "country_name": "Nigeria",
            "connectivity": false
        },
        {
            "lon": 6.157086,
            "lat": 6.740371,
            "school_name": "Name unknown",
            "country_name": "Nigeria",
            "connectivity": false
        },
        {
            "lon": 6.212307,
            "lat": 6.764295,
            "school_name": "Name unknown",
            "country_name": "Nigeria",
            "connectivity": false
        },
        {
            "lon": 6.248084,
            "lat": 6.606291,
            "school_name": "Name unknown",
            "country_name": "Nigeria",
            "connectivity": false
        },
        {
            "lon": 5.657251,
            "lat": 6.392033,
            "school_name": "Name unknown",
            "country_name": "Nigeria",
            "connectivity": false
        },
        {
            "lon": 4.919265,
            "lat": 7.64713,
            "school_name": "Name unknown",
            "country_name": "Nigeria",
            "connectivity": false
        },
        {
            "lon": 7.494825,
            "lat": 9.022288,
            "school_name": "Name unknown",
            "country_name": "Nigeria",
            "connectivity": false
        },
        {
            "lon": 11.08603833,
            "lat": 9.569568333,
            "school_name": "Name unknown",
            "country_name": "Nigeria",
            "connectivity": false
        },
        {
            "lon": 7.224580491,
            "lat": 5.3606121,
            "school_name": "Name unknown",
            "country_name": "Nigeria",
            "connectivity": false
        },
        {
            "lon": -76.7344,
            "lat": -7.19526,
            "school_name": "0013 MAXIMINO CEREZO BARREDO",
            "country_name": "Peru",
            "connectivity": false
        },
        {
            "lon": -80.487,
            "lat": -3.6009,
            "school_name": "022 HEREDEROS DEL GRAN CHILIMASA",
            "country_name": "Peru",
            "connectivity": false
        },
        {
            "lon": -76.7302,
            "lat": -8.35083,
            "school_name": "233",
            "country_name": "Peru",
            "connectivity": false
        },
        {
            "lon": -78.2693,
            "lat": -7.45063,
            "school_name": "43",
            "country_name": "Peru",
            "connectivity": false
        },
        {
            "lon": -76.413,
            "lat": -7.55427,
            "school_name": "0489 JORGE CHAVEZ DARNELL",
            "country_name": "Peru",
            "connectivity": false
        },
        {
            "lon": -80.4725,
            "lat": -4.0428,
            "school_name": "090 TENIENTE ASTETE",
            "country_name": "Peru",
            "connectivity": false
        },
        {
            "lon": -79.6457,
            "lat": -6.1002,
            "school_name": "11190 MARIA AUXILIADORA",
            "country_name": "Peru",
            "connectivity": false
        },
        {
            "lon": -79.3228,
            "lat": -6.18465,
            "school_name": "11235",
            "country_name": "Peru",
            "connectivity": false
        },
        {
            "lon": -77.0356,
            "lat": -12.049,
            "school_name": "1162 DIVINO NI\u00d1O JESUS",
            "country_name": "Peru",
            "connectivity": false
        },
        {
            "lon": -69.7771,
            "lat": -16.1932,
            "school_name": "1237 VIRGEN DEL ROSARIO",
            "country_name": "Peru",
            "connectivity": false
        },
        {
            "lon": -78.7945,
            "lat": -5.34221,
            "school_name": "128",
            "country_name": "Peru",
            "connectivity": false
        },
        {
            "lon": -81.1047,
            "lat": -5.09671,
            "school_name": "14744 JUAN PABLO II",
            "country_name": "Peru",
            "connectivity": false
        },
        {
            "lon": -80.7704,
            "lat": -4.86221,
            "school_name": "1500",
            "country_name": "Peru",
            "connectivity": false
        },
        {
            "lon": -79.1069,
            "lat": -5.38873,
            "school_name": "16926",
            "country_name": "Peru",
            "connectivity": false
        },
        {
            "lon": -77.3863,
            "lat": -6.4434,
            "school_name": "18272",
            "country_name": "Peru",
            "connectivity": false
        },
        {
            "lon": -76.6299,
            "lat": -12.7173,
            "school_name": "20236 JOSE OLAYA BALANDRA",
            "country_name": "Peru",
            "connectivity": false
        },
        {
            "lon": -79.0218,
            "lat": -8.11656,
            "school_name": "210 DULCE VIRGEN DE FATIMA",
            "country_name": "Peru",
            "connectivity": false
        },
        {
            "lon": -78.3609,
            "lat": -5.6618,
            "school_name": "237",
            "country_name": "Peru",
            "connectivity": false
        },
        {
            "lon": -76.5879,
            "lat": -4.85627,
            "school_name": "252",
            "country_name": "Peru",
            "connectivity": false
        },
        {
            "lon": -70.2333,
            "lat": -18.0154,
            "school_name": "301 SANTA MARIA GORETTI",
            "country_name": "Peru",
            "connectivity": false
        },
        {
            "lon": -73.6963,
            "lat": -11.269,
            "school_name": "31252",
            "country_name": "Peru",
            "connectivity": false
        },
        {
            "lon": -76.3076,
            "lat": -10.0916,
            "school_name": "32826",
            "country_name": "Peru",
            "connectivity": false
        },
        {
            "lon": -69.9868,
            "lat": -17.5516,
            "school_name": "338 TALABAYA",
            "country_name": "Peru",
            "connectivity": false
        },
        {
            "lon": -76.3808,
            "lat": -10.7833,
            "school_name": "34038 MIGUEL GRAU",
            "country_name": "Peru",
            "connectivity": false
        },
        {
            "lon": -76.5243,
            "lat": -10.4884,
            "school_name": "34155",
            "country_name": "Peru",
            "connectivity": false
        },
        {
            "lon": -74.8297,
            "lat": -10.2151,
            "school_name": "34687",
            "country_name": "Peru",
            "connectivity": false
        },
        {
            "lon": -74.5944,
            "lat": -13.5476,
            "school_name": "38202",
            "country_name": "Peru",
            "connectivity": false
        },
        {
            "lon": -70.6052,
            "lat": -17.5278,
            "school_name": "42051",
            "country_name": "Peru",
            "connectivity": false
        },
        {
            "lon": -74.2757,
            "lat": -4.6671,
            "school_name": "425",
            "country_name": "Peru",
            "connectivity": false
        },
        {
            "lon": -79.8318,
            "lat": -6.74697,
            "school_name": "430",
            "country_name": "Peru",
            "connectivity": false
        },
        {
            "lon": -79.2642,
            "lat": -5.93935,
            "school_name": "469",
            "country_name": "Peru",
            "connectivity": false
        },
        {
            "lon": -69.2965,
            "lat": -16.3467,
            "school_name": "496",
            "country_name": "Peru",
            "connectivity": false
        },
        {
            "lon": -71.6702,
            "lat": -13.874,
            "school_name": "50075",
            "country_name": "Peru",
            "connectivity": false
        },
        {
            "lon": -73.5711,
            "lat": -12.8577,
            "school_name": "501370",
            "country_name": "Peru",
            "connectivity": false
        },
        {
            "lon": -72.9617,
            "lat": -13.7098,
            "school_name": "54901",
            "country_name": "Peru",
            "connectivity": false
        },
        {
            "lon": -78.5724,
            "lat": -6.70216,
            "school_name": "551",
            "country_name": "Peru",
            "connectivity": false
        },
        {
            "lon": -74.2938,
            "lat": -4.3217,
            "school_name": "60558",
            "country_name": "Peru",
            "connectivity": false
        },
        {
            "lon": -81.2636,
            "lat": -4.5853,
            "school_name": "608",
            "country_name": "Peru",
            "connectivity": false
        },
        {
            "lon": -75.1088,
            "lat": -6.28049,
            "school_name": "64289",
            "country_name": "Peru",
            "connectivity": false
        },
        {
            "lon": -70.1207,
            "lat": -15.4978,
            "school_name": "70561",
            "country_name": "Peru",
            "connectivity": false
        },
        {
            "lon": -70.2875,
            "lat": -14.6856,
            "school_name": "72514",
            "country_name": "Peru",
            "connectivity": false
        },
        {
            "lon": -73.2515,
            "lat": -3.76185,
            "school_name": "757 SANTO CRISTO DE BAGAZAN",
            "country_name": "Peru",
            "connectivity": false
        },
        {
            "lon": -78.9929,
            "lat": -8.08362,
            "school_name": "80028 FRANCISCO DE ZELA",
            "country_name": "Peru",
            "connectivity": false
        },
        {
            "lon": 3.55977,
            "lat": 6.61115,
            "school_name": "Name unknown",
            "country_name": "Nigeria",
            "connectivity": false
        },
        {
            "lon": -77.705,
            "lat": -7.89133,
            "school_name": "81673",
            "country_name": "Peru",
            "connectivity": false
        },
        {
            "lon": -78.9061,
            "lat": -7.29572,
            "school_name": "82649",
            "country_name": "Peru",
            "connectivity": false
        },
        {
            "lon": -70.0276,
            "lat": -14.3585,
            "school_name": "AGRO INDUSTRIAL",
            "country_name": "Peru",
            "connectivity": false
        },
        {
            "lon": -78.6909,
            "lat": -5.75554,
            "school_name": "AMIGUITOS DE JESUS",
            "country_name": "Peru",
            "connectivity": false
        },
        {
            "lon": -75.6804,
            "lat": -5.2343,
            "school_name": "CEBA - PADRE JUAN LORENZO LUCERO",
            "country_name": "Peru",
            "connectivity": false
        },
        {
            "lon": -77.1272,
            "lat": -11.8757,
            "school_name": "CESCA",
            "country_name": "Peru",
            "connectivity": false
        },
        {
            "lon": -77.0052,
            "lat": -12.0764,
            "school_name": "EBEN EZER",
            "country_name": "Peru",
            "connectivity": false
        },
        {
            "lon": -74.1971,
            "lat": -13.1723,
            "school_name": "EL EDEN",
            "country_name": "Peru",
            "connectivity": false
        },
        {
            "lon": 3.37032,
            "lat": 6.49319,
            "school_name": "Name unknown",
            "country_name": "Nigeria",
            "connectivity": false
        },
        {
            "lon": -76.8289,
            "lat": -12.0079,
            "school_name": "ESTRELLITAS DEL SABER",
            "country_name": "Peru",
            "connectivity": false
        },
        {
            "lon": -77.019,
            "lat": -11.8733,
            "school_name": "GENERAL OLLANTAY",
            "country_name": "Peru",
            "connectivity": false
        },
        {
            "lon": -71.948,
            "lat": -13.5261,
            "school_name": "GIRASOLES",
            "country_name": "Peru",
            "connectivity": false
        },
        {
            "lon": -71.9346,
            "lat": -13.5293,
            "school_name": "HAPPY KIDS CUSCO",
            "country_name": "Peru",
            "connectivity": false
        },
        {
            "lon": -79.8359,
            "lat": -6.76979,
            "school_name": "HIPOLITO UNANUE",
            "country_name": "Peru",
            "connectivity": false
        },
        {
            "lon": -76.5119,
            "lat": -8.18417,
            "school_name": "HUELLITAS",
            "country_name": "Peru",
            "connectivity": false
        },
        {
            "lon": -74.5543,
            "lat": -8.36386,
            "school_name": "HUELLITAS DE AMOR II",
            "country_name": "Peru",
            "connectivity": false
        },
        {
            "lon": -77.1066,
            "lat": -11.8359,
            "school_name": "INGENIERIA DE ZAPALLAL",
            "country_name": "Peru",
            "connectivity": false
        },
        {
            "lon": -78.565,
            "lat": -7.90557,
            "school_name": "JOSE MARIA ALVAREZ",
            "country_name": "Peru",
            "connectivity": false
        },
        {
            "lon": -80.1041,
            "lat": -5.14309,
            "school_name": "JOSE MARIA ARGUEDAS ALTAMIRANO",
            "country_name": "Peru",
            "connectivity": false
        },
        {
            "lon": -76.8757,
            "lat": -12.1046,
            "school_name": "JOSE MARIA ARGUEDAS DE MANCHAY",
            "country_name": "Peru",
            "connectivity": false
        },
        {
            "lon": -76.9472,
            "lat": -12.1392,
            "school_name": "LEONCIO PRADO",
            "country_name": "Peru",
            "connectivity": false
        },
        {
            "lon": -75.6722,
            "lat": -5.22423,
            "school_name": "LOS LORITOS",
            "country_name": "Peru",
            "connectivity": false
        },
        {
            "lon": -77.0129,
            "lat": -12.0012,
            "school_name": "MI CASITA FELIZ",
            "country_name": "Peru",
            "connectivity": false
        },
        {
            "lon": -77.0884,
            "lat": -12.0125,
            "school_name": "MI JARDINCITO",
            "country_name": "Peru",
            "connectivity": false
        },
        {
            "lon": -77.0255,
            "lat": -12.084,
            "school_name": "NUEVOS HORIZONTES",
            "country_name": "Peru",
            "connectivity": false
        },
        {
            "lon": -76.0251,
            "lat": -9.04372,
            "school_name": "PAMPA HERMOSA",
            "country_name": "Peru",
            "connectivity": false
        },