{
    "name": "Patchwork Kingdom #668 | Minyobo",
    "description": "The twin kingdoms of Minyobo, separated by a digital divide. A bustling kingdom of 182 schools on top that are all connected to the internet, and 146 schools, not connected, hidden in the upside down kingdom | Created for Giga (GigaConnect.org) \u2014 connecting every school in the world \u2014 in celebration of UNICEF's 75th birthday, by Nadieh Bremer",
    "external_url": "https://dummyURL.com/patchwork_kingdoms_668",
    "image": "https://dummy-storage-url.com/patchwork_kingdoms_668.png",
    "attributes": [
        {
            "trait_type": "Color palette",
            "value": "chaos"
        },
        {
            "display_type": "number",
            "trait_type": "Schools",
            "value": 356,
            "max_value": 460
        },
        {
            "display_type": "number",
            "trait_type": "Ratio - Connected",
            "value": 0.51,
            "max_value": 1
        },
        {
            "display_type": "number",
            "trait_type": "Ratio - Unconnected",
            "value": 0.41,
            "max_value": 1
        },
        {
            "display_type": "number",
            "trait_type": "Ratio - Data unavailable",
            "value": 0.08,
            "max_value": 1
        },
        {
            "trait_type": "Countries",
            "value": "BJ-BR-CO-CR-HN-KG-KZ-LC-NA-PH-PS-RW-SL-ZW"
        },
        {
            "display_type": "number",
            "trait_type": "Symbols",
            "value": 45,
            "max_value": 51
        }
    ],
    "cluster_id": 668,
    "num_schools": 356,
    "num_schools_connected": 182,
    "num_schools_unconnected": 146,
    "num_schools_unknown": 28,
    "schools": [
        {
            "lon": -43.2364,
            "lat": -22.8731,
            "school_name": "0430020 ESCOLA MUNICIPAL VEREADORA MARIELLE FRANCO",
            "country_name": "Brazil",
            "connectivity": true
        },
        {
            "lon": -87.89771,
            "lat": 14.2984,
            "school_name": "LUIS ALONSO FLORES",
            "country_name": "Honduras",
            "connectivity": true
        },
        {
            "lon": -88.07166,
            "lat": 14.06147,
            "school_name": "TESORO INFANTIL",
            "country_name": "Honduras",
            "connectivity": true
        },
        {
            "lon": -88.78038,
            "lat": 14.41822,
            "school_name": "ERICK MAURICIO RODRIGUEZ",
            "country_name": "Honduras",
            "connectivity": true
        },
        {
            "lon": -86.28834,
            "lat": 14.90607,
            "school_name": "MANUEL BONILLA",
            "country_name": "Honduras",
            "connectivity": true
        },
        {
            "lon": -49.0853,
            "lat": -26.5035,
            "school_name": "CMEI MARCIO KLINKOSKI",
            "country_name": "Brazil",
            "connectivity": true
        },
        {
            "lon": -52.3908,
            "lat": -26.8942,
            "school_name": "EMEB JOAO DA CRUZ E SOUZA",
            "country_name": "Brazil",
            "connectivity": true
        },
        {
            "lon": -87.35196,
            "lat": 15.40303,
            "school_name": "MIGUEL PAZ BARAHONA",
            "country_name": "Honduras",
            "connectivity": true
        },
        {
            "lon": -43.6911,
            "lat": -22.7169,
            "school_name": "ESCOLA ESTADUAL MUNICIPALIZADA PROFESSOR PAULO DE ASSIS RIBEIRO",
            "country_name": "Brazil",
            "connectivity": true
        },
        {
            "lon": -61.040746,
            "lat": 13.775331,
            "school_name": "Dugard Combined",
            "country_name": "Saint Lucia",
            "connectivity": true
        },
        {
            "lon": -50.9835,
            "lat": -27.2242,
            "school_name": "EEBM MARIA DO ROSARIO FISCHER",
            "country_name": "Brazil",
            "connectivity": true
        },
        {
            "lon": -87.93972,
            "lat": 14.69641,
            "school_name": "REPUBLICA DE HONDURAS",
            "country_name": "Honduras",
            "connectivity": true
        },
        {
            "lon": -73.32138889,
            "lat": 6.451666667,
            "school_name": "Name unknown",
            "country_name": "Colombia",
            "connectivity": false
        },
        {
            "lon": -51.056484,
            "lat": -30.00089,
            "school_name": "EMEF PODALIRIO INACIO DE BARCELLOS",
            "country_name": "Brazil",
            "connectivity": true
        },
        {
            "lon": -88.84776,
            "lat": 14.86632,
            "school_name": "XIOMARA CASTRO DE ZELAYA",
            "country_name": "Honduras",
            "connectivity": true
        },
        {
            "lon": -86.97965,
            "lat": 13.24741,
            "school_name": "ROGER ARQUIMIDES QUIROZ",
            "country_name": "Honduras",
            "connectivity": true
        },
        {
            "lon": -87.11465,
            "lat": 14.99959,
            "school_name": "MARCELO GOMEZ",
            "country_name": "Honduras",
            "connectivity": true
        },
        {
            "lon": -87.10466,
            "lat": 14.00395,
            "school_name": "DIONISIO DE HERRERA",
            "country_name": "Honduras",
            "connectivity": true
        },
        {
            "lon": -84.34839,
            "lat": 15.49193,
            "school_name": "SANNILY",
            "country_name": "Honduras",
            "connectivity": true
        },
        {
            "lon": 32.5389,
            "lat": -18.47028,
            "school_name": "MBAZA ST ROBERTS",
            "country_name": "Zimbabwe",
            "connectivity": true
        },
        {
            "lon": 30.98895,
            "lat": -17.17303,
            "school_name": "MUSARARA",
            "country_name": "Zimbabwe",
            "connectivity": true
        },
        {
            "lon": -38.6245,
            "lat": -3.7929,
            "school_name": "ESCOLA MUNICIPAL RACHEL VIANA MARTINS",
            "country_name": "Brazil",
            "connectivity": true
        },
        {
            "lon": -83.76413564,
            "lat": 9.86129923,
            "school_name": "SAN MIGUEL",
            "country_name": "Costa Rica",
            "connectivity": true
        },
        {
            "lon": -84.79872539,
            "lat": 10.09487323,
            "school_name": "EL BRILLANTE",
            "country_name": "Costa Rica",
            "connectivity": true
        },
        {
            "lon": -83.63046425,
            "lat": 10.51874805,
            "school_name": "EL PARQUE",
            "country_name": "Costa Rica",
            "connectivity": true
        },
        {
            "lon": 35.151219,
            "lat": 32.468167,
            "school_name": "tora sec boys",
            "country_name": "Palestine",
            "connectivity": true
        },
        {
            "lon": 35.386935,
            "lat": 32.420705,
            "school_name": "Al mghaier basic boys",
            "country_name": "Palestine",
            "connectivity": true
        },
        {
            "lon": 35.294897,
            "lat": 32.082712,
            "school_name": "talfeet sec co-ad",
            "country_name": "Palestine",
            "connectivity": true
        },
        {
            "lon": -85.56778566,
            "lat": 10.14750283,
            "school_name": "LICEO RURAL LA ESPERANZA",
            "country_name": "Costa Rica",
            "connectivity": true
        },
        {
            "lon": 30.06493,
            "lat": -17.37323,
            "school_name": "ALASKA",
            "country_name": "Zimbabwe",
            "connectivity": true
        },
        {
            "lon": 31.82586,
            "lat": -19.99447,
            "school_name": "RUPARE HIGH",
            "country_name": "Zimbabwe",
            "connectivity": true
        },
        {
            "lon": 31.72108,
            "lat": -20.33404,
            "school_name": "TURGWI",
            "country_name": "Zimbabwe",
            "connectivity": true
        },
        {
            "lon": 27.45607,
            "lat": -19.13407,
            "school_name": "NGAMO",
            "country_name": "Zimbabwe",
            "connectivity": true
        },
        {
            "lon": 30.39386111,
            "lat": -2.03625,
            "school_name": "GS RUBONA",
            "country_name": "Rwanda",
            "connectivity": true
        },
        {
            "lon": -43.5281,
            "lat": -3.3316,
            "school_name": "CENTRO DE ENSINO PROFESSOR LUIZ PINHO RODRIGUES",
            "country_name": "Brazil",
            "connectivity": true
        },
        {
            "lon": -78.27722222,
            "lat": 2.473055556,
            "school_name": "Name unknown",
            "country_name": "Colombia",
            "connectivity": false
        },
        {
            "lon": -74.14421559,
            "lat": 4.618971371,
            "school_name": "Name unknown",
            "country_name": "Colombia",
            "connectivity": false
        },
        {
            "lon": 14.28792,
            "lat": -22.12227,
            "school_name": "Christelike Priv. PS (Hent",
            "country_name": "Namibia",
            "connectivity": false
        },
        {
            "lon": 15.953431,
            "lat": -17.603297,
            "school_name": "Eenghushe PS",
            "country_name": "Namibia",
            "connectivity": false
        },
        {
            "lon": 120.650997,
            "lat": 15.922696,
            "school_name": "Casanicolasan ES",
            "country_name": "Philippines",
            "connectivity": true
        },
        {
            "lon": 121.197792,
            "lat": 13.326054,
            "school_name": "Managpi National High School",
            "country_name": "Philippines",
            "connectivity": true
        },
        {
            "lon": 120.9357669,
            "lat": 15.02206478,
            "school_name": "Maguinao Elementary School",
            "country_name": "Philippines",
            "connectivity": true
        },
        {
            "lon": 123.324934,
            "lat": 13.493199,
            "school_name": "Agdangan ES",
            "country_name": "Philippines",
            "connectivity": true
        },
        {
            "lon": 123.592197,
            "lat": 13.729088,
            "school_name": "San Sebastian ES",
            "country_name": "Philippines",
            "connectivity": true
        },
        {
            "lon": 121.3682692,
            "lat": 12.07699418,
            "school_name": "Villarises ES",
            "country_name": "Philippines",
            "connectivity": true
        },
        {
            "lon": 123.987947,
            "lat": 10.293397,
            "school_name": "Abuno ES",
            "country_name": "Philippines",
            "connectivity": true
        },
        {
            "lon": 123.906442,
            "lat": 9.781712,
            "school_name": "Can-omay PS",
            "country_name": "Philippines",
            "connectivity": true
        },
        {
            "lon": 124.44997,
            "lat": 9.86201,
            "school_name": "Pagahat ES",
            "country_name": "Philippines",
            "connectivity": true
        },
        {
            "lon": 124.8900015,
            "lat": 11.05711787,
            "school_name": "Hitomnog Elementary School",
            "country_name": "Philippines",
            "connectivity": true
        },
        {
            "lon": 124.8551996,
            "lat": 10.64184709,
            "school_name": "Imelda ES",
            "country_name": "Philippines",
            "connectivity": true
        },
        {
            "lon": 124.937579,
            "lat": 7.589421,
            "school_name": "Malinao ES",
            "country_name": "Philippines",
            "connectivity": true
        },
        {
            "lon": 125.933334,
            "lat": 7.500008,
            "school_name": "Sawangan ES",
            "country_name": "Philippines",
            "connectivity": true
        },
        {
            "lon": 125.8871877,
            "lat": 8.262713439,
            "school_name": "Kimondo ES",
            "country_name": "Philippines",
            "connectivity": true
        },
        {
            "lon": 120.703,
            "lat": 17.7477,
            "school_name": "Kiwas PS",
            "country_name": "Philippines",
            "connectivity": true
        },
        {
            "lon": 120.833352,
            "lat": 16.499995,
            "school_name": "Pidile PS",
            "country_name": "Philippines",
            "connectivity": true
        },
        {
            "lon": -45.548824,
            "lat": -20.45159,
            "school_name": "EM TEREZA MARIA DE FARIA VAZ",
            "country_name": "Brazil",
            "connectivity": true
        },
        {
            "lon": -49.620842,
            "lat": -22.903873,
            "school_name": "LEONIDAS DO AMARAL VIEIRA",
            "country_name": "Brazil",
            "connectivity": true
        },
        {
            "lon": -77.35778651,
            "lat": 2.945379801,
            "school_name": "CASAS VIEJAS",
            "country_name": "Colombia",
            "connectivity": true
        },
        {
            "lon": -72.82731996,
            "lat": 7.609636543,
            "school_name": "SEDE LA POTRERA",
            "country_name": "Colombia",
            "connectivity": true
        },
        {
            "lon": -72.96,
            "lat": 4.93,
            "school_name": "PLANADAS",
            "country_name": "Colombia",
            "connectivity": true
        },
        {
            "lon": -73.046407,
            "lat": 6.525015,
            "school_name": "ESCUELA RURAL CA\u00d1AVERAL  ALTO",
            "country_name": "Colombia",
            "connectivity": true
        },
        {
            "lon": -73.04855035,
            "lat": 7.962183183,
            "school_name": "SEDE EL MOLINO",
            "country_name": "Colombia",
            "connectivity": true
        },
        {
            "lon": -73.01303688,
            "lat": 10.55776705,
            "school_name": "COLEGIO DE EDUCACION BAS DOMINGO SAVIO",
            "country_name": "Colombia",
            "connectivity": true
        },
        {
            "lon": -73.15811778,
            "lat": 7.989391515,
            "school_name": "SEDE EL PURGATORIO",
            "country_name": "Colombia",
            "connectivity": true
        },
        {
            "lon": -73.22924463,
            "lat": 10.03940617,
            "school_name": "ESC URB MIX EL ESTADIO",
            "country_name": "Colombia",
            "connectivity": true
        },
        {
            "lon": -73.22998348,
            "lat": 10.03213636,
            "school_name": "SEDE NUEVA ANTONIO NARI\u00d1O",
            "country_name": "Colombia",
            "connectivity": true
        },
        {
            "lon": -73.55586688,
            "lat": 5.308024648,
            "school_name": "CENT EDUC JURPA",
            "country_name": "Colombia",
            "connectivity": true
        },
        {
            "lon": -73.40045929,
            "lat": 11.2170972,
            "school_name": "INSTITUCI\u00c0N EDUCATIVA RURALAGROPECUARIA DE MINGUEO",
            "country_name": "Colombia",
            "connectivity": true
        },
        {
            "lon": -74.00805485,
            "lat": 10.78775356,
            "school_name": "E.R.M. EL TR\u00c9BOL",
            "country_name": "Colombia",
            "connectivity": true
        },
        {
            "lon": -73.97314122,
            "lat": 10.12591306,
            "school_name": "SEDE SANTA RITA",
            "country_name": "Colombia",
            "connectivity": true
        },
        {
            "lon": -75.034722,
            "lat": 7.326944,
            "school_name": "C. E. R. PROVIDENCIA",
            "country_name": "Colombia",
            "connectivity": true
        },
        {
            "lon": -75.21308516,
            "lat": 6.264056749,
            "school_name": "C. E. R. EL MARIAL",
            "country_name": "Colombia",
            "connectivity": true
        },
        {
            "lon": -75.221667,
            "lat": 6.912778,
            "school_name": "C. E. R.  SAN PABLO ABAJO",
            "country_name": "Colombia",
            "connectivity": true
        },
        {
            "lon": -75.26190047,
            "lat": 4.281311307,
            "school_name": "EL CEDRAL",
            "country_name": "Colombia",
            "connectivity": true
        },
        {
            "lon": -75.11637114,
            "lat": 9.831391158,
            "school_name": "ANTONIO JOSE DE SUCRE",
            "country_name": "Colombia",
            "connectivity": true
        },
        {
            "lon": -75.32905913,
            "lat": 10.56587742,
            "school_name": "INSTITUCION EDUCATIVA TECNICO AGROPUECUARIA SAN JOSE DE CLEMENCIA - SEDE PRINCIPAL",
            "country_name": "Colombia",
            "connectivity": true
        },
        {
            "lon": -75.68909751,
            "lat": 4.540628341,
            "school_name": "CAMARA JUNIOR",
            "country_name": "Colombia",
            "connectivity": true
        },
        {
            "lon": -75.49825513,
            "lat": 10.51515909,
            "school_name": "I.E. MANZANILLO DEL MAR - SEDE PRINCIPAL",
            "country_name": "Colombia",
            "connectivity": true
        },
        {
            "lon": -76.11445761,
            "lat": 4.045934806,
            "school_name": "SEDE NO. 29 GUILLERMO MART\u00cdNEZ N\u00da\u00d1EZ",
            "country_name": "Colombia",
            "connectivity": true
        },
        {
            "lon": -76.29174562,
            "lat": 3.524089661,
            "school_name": "MATER DEI",
            "country_name": "Colombia",
            "connectivity": true
        },
        {
            "lon": -76.3,
            "lat": 3.39,
            "school_name": "POLICARPA SALAVARRIETA",
            "country_name": "Colombia",
            "connectivity": true
        },
        {
            "lon": -76.32875199,
            "lat": 4.349750468,
            "school_name": "MARIA INMACULADA",
            "country_name": "Colombia",
            "connectivity": true
        },
        {
            "lon": -76.511397,
            "lat": 2.180518,
            "school_name": "ESCUELA RURAL MIXTA EL DEPOSITO",
            "country_name": "Colombia",
            "connectivity": true
        },
        {
            "lon": -76.41,
            "lat": 8.89,
            "school_name": "ESC NVA PTO REY",
            "country_name": "Colombia",
            "connectivity": true
        },
        {
            "lon": -77.21833333,
            "lat": 2.391944444,
            "school_name": "BUENAVISTA",
            "country_name": "Colombia",
            "connectivity": true
        },
        {
            "lon": -77.46321472,
            "lat": 2.613466651,
            "school_name": "BRISA LOS GRILLOS",
            "country_name": "Colombia",
            "connectivity": true
        },
        {
            "lon": -77.43305556,
            "lat": 1.316666667,
            "school_name": "INSTITUCION EDUCATIVA GUSTIN SANTACRUZ",
            "country_name": "Colombia",
            "connectivity": true
        },
        {
            "lon": -78.55481687,
            "lat": 1.327262052,
            "school_name": "SEDE # 2 ADUANA UNO",
            "country_name": "Colombia",
            "connectivity": true
        },
        {
            "lon": -60.801,
            "lat": -10.9879,
            "school_name": "EIEEF MAAMNZEEP CINTA LARGA",
            "country_name": "Brazil",
            "connectivity": false
        },
        {
            "lon": -60.0112,
            "lat": -2.0508,
            "school_name": "ESCOLA MUNICIPAL PAULO DE OLIVEIRA BRITO",
            "country_name": "Brazil",
            "connectivity": false
        },
        {
            "lon": -60.6039,
            "lat": 3.8417,
            "school_name": "ESCOLA ESTADUAL INDIGENA JOSE JOAQUIM",
            "country_name": "Brazil",
            "connectivity": false
        },
        {
            "lon": -54.8516,
            "lat": -1.5062,
            "school_name": "E M E I F SANTA RITA DE CASSIA III",
            "country_name": "Brazil",
            "connectivity": false
        },
        {
            "lon": -51.0337,
            "lat": -2.3053,
            "school_name": "E M E F PRINCESA IZABEL",
            "country_name": "Brazil",
            "connectivity": false
        },
        {
            "lon": -47.7634,
            "lat": -0.677,
            "school_name": "E M E F AUGUSTO DE SOUZA SANTOS",
            "country_name": "Brazil",
            "connectivity": false
        },
        {
            "lon": -47.6852,
            "lat": -0.6606,
            "school_name": "EMEF CARMEM REBELO MAGALHAES",
            "country_name": "Brazil",
            "connectivity": false
        },
        {
            "lon": -47.0284,
            "lat": -0.8164,
            "school_name": "E M E I F BENEDITO RAMOS DA SILVA",
            "country_name": "Brazil",
            "connectivity": true
        },
        {
            "lon": -47.7913,
            "lat": -1.509,
            "school_name": "E M E F FELICIANO FERNANDES DOS SANTOS",
            "country_name": "Brazil",
            "connectivity": false
        },
        {
            "lon": -50.2619,
            "lat": -0.5049,
            "school_name": "EMEF MANOEL FERREIRA DOS SANTOS",
            "country_name": "Brazil",
            "connectivity": false
        },
        {
            "lon": -47.9171,
            "lat": -1.1016,
            "school_name": "EMEIF TEREZINHA NASCIMENTO SILVA",
            "country_name": "Brazil",
            "connectivity": true
        },
        {
            "lon": -47.065,
            "lat": -1.7467,
            "school_name": "E M E F PASTOR FRANCISCO PAZ",
            "country_name": "Brazil",
            "connectivity": false
        },
        {
            "lon": -50.8896,
            "lat": -4.6405,
            "school_name": "E M E F PASSOS PARA O SABER",
            "country_name": "Brazil",
            "connectivity": false
        },
        {
            "lon": -49.327,
            "lat": -16.7014,
            "school_name": "ESCOLA MUNICIPAL TARGINO DE AGUIAR",
            "country_name": "Brazil",
            "connectivity": true
        },
        {
            "lon": -51.0874,
            "lat": -29.7558,
            "school_name": "EMEF PROFESSORA DILZA FLORES ALBRECHT",
            "country_name": "Brazil",
            "connectivity": true
        },
        {
            "lon": -54.5306,
            "lat": -28.5087,
            "school_name": "ESCOLA MUNICIPAL DE ENSINO FUNDAMENTAL EDUARDO DAMIAO",
            "country_name": "Brazil",
            "connectivity": true
        },
        {
            "lon": -44.8531,
            "lat": -2.5692,
            "school_name": "EM SAO JOAO BATISTA",
            "country_name": "Brazil",
            "connectivity": false
        },
        {
            "lon": -44.7174,
            "lat": -3.6177,
            "school_name": "EM LIDIA MARIA MENDES",
            "country_name": "Brazil",
            "connectivity": false
        },
        {
            "lon": -45.1301,
            "lat": -3.3577,
            "school_name": "EM SAO MIGUEL DOS CORREIAS",
            "country_name": "Brazil",
            "connectivity": true
        },
        {
            "lon": -44.9881,
            "lat": -2.5718,
            "school_name": "JARDIM DE INFANCIA BALAO MAGICO",
            "country_name": "Brazil",
            "connectivity": false
        },
        {
            "lon": -47.1513,
            "lat": -5.5152,
            "school_name": "EM SAO FRANCISCO",
            "country_name": "Brazil",
            "connectivity": false
        },
        {
            "lon": -51.1291,
            "lat": -29.7175,
            "school_name": "EMEI ALDO POHLMANN",
            "country_name": "Brazil",
            "connectivity": true
        },
        {
            "lon": -44.1816,
            "lat": -6.0557,
            "school_name": "UE NUNES FREIRE",
            "country_name": "Brazil",
            "connectivity": true
        },
        {
            "lon": -41.9146,
            "lat": -20.3648,
            "school_name": "EM ASSIS BRASIL",
            "country_name": "Brazil",
            "connectivity": false
        },
        {
            "lon": -44.9234,
            "lat": -4.5568,
            "school_name": "COL PRESIDENTE CASTELO BRANCO IV",
            "country_name": "Brazil",
            "connectivity": true
        },
        {
            "lon": -42.5512,
            "lat": -3.7704,
            "school_name": "UNIDADE ESCOLAR AURELIO DE FRANCA",
            "country_name": "Brazil",
            "connectivity": false
        },
        {
            "lon": -44.5617,
            "lat": -7.2321,
            "school_name": "UNID ESC ELZA PIRES",
            "country_name": "Brazil",
            "connectivity": false
        },
        {
            "lon": -44.199,
            "lat": -8.9808,
            "school_name": "UNID ESC JOAO VIEIRA DA SILVA",
            "country_name": "Brazil",
            "connectivity": false
        },
        {
            "lon": -42.8105,
            "lat": -5.0407,
            "school_name": "CENTRO MUNICIPAL DE EDUCACAO INFANTIL JOSE DE FATIMA DE SOUSA BEZERRA",
            "country_name": "Brazil",
            "connectivity": false
        },
        {
            "lon": -42.7355,
            "lat": -5.1016,
            "school_name": "U E SAO SEBASTIAO",
            "country_name": "Brazil",
            "connectivity": false
        },
        {
            "lon": -40.7483,
            "lat": -3.8983,
            "school_name": "ANTONIO FRANCISCO ARAUJO EEIEF",
            "country_name": "Brazil",
            "connectivity": false
        },
        {
            "lon": -38.5397,
            "lat": -3.7541,
            "school_name": "ESCOLA MUNICIPAL MOZART PINTO",
            "country_name": "Brazil",
            "connectivity": true
        },
        {
            "lon": -40.1165,
            "lat": -4.8723,
            "school_name": "ANTONIO PEREIRA DE CASTRO EMEIF",
            "country_name": "Brazil",
            "connectivity": true
        },
        {
            "lon": -39.2441,
            "lat": -6.6855,
            "school_name": "SOCORRO ESCOLA DE ENSINO FUNDAMENTAL DO",
            "country_name": "Brazil",
            "connectivity": false
        },
        {
            "lon": -40.7108,
            "lat": -6.1514,
            "school_name": "CRIANCA FELIZ PRE ESCOLA",
            "country_name": "Brazil",
            "connectivity": false
        },
        {
            "lon": -39.804,
            "lat": -3.2832,
            "school_name": "RITA PINTO DE SOUSA CEI",
            "country_name": "Brazil",
            "connectivity": false
        },
        {
            "lon": -38.3547,
            "lat": -6.788,
            "school_name": "EMEF DE RIACHAO DOS RIBEIROS",
            "country_name": "Brazil",
            "connectivity": false
        },
        {
            "lon": -38.257,
            "lat": -6.5026,
            "school_name": "EMEI HENRIQUE ALVES SANTANA",
            "country_name": "Brazil",
            "connectivity": true
        },
        {
            "lon": -37.9438,
            "lat": -6.9832,
            "school_name": "ESC MUL FRANCISCO MARTINS",
            "country_name": "Brazil",
            "connectivity": false
        },
        {
            "lon": -36.5786,
            "lat": -7.0767,
            "school_name": "ESCOLA MUNICIPAL DE ENSINO FUNDAMENTAL JOAQUIM MEDEIROS",
            "country_name": "Brazil",
            "connectivity": true
        },
        {
            "lon": -36.0641,
            "lat": -7.0772,
            "school_name": "EMEIEF JOSE MANOEL DOS SANTOS",
            "country_name": "Brazil",
            "connectivity": false
        },
        {
            "lon": -35.7412,
            "lat": -7.3442,
            "school_name": "GR ESC SANTINA MARIA DA CONCEICAO",
            "country_name": "Brazil",
            "connectivity": false
        },
        {
            "lon": -35.8504,
            "lat": -7.515,
            "school_name": "EMEF HORACIO PEREIRA DA SILVA",
            "country_name": "Brazil",
            "connectivity": false
        },
        {
            "lon": -46.5,
            "lat": -23.7125,
            "school_name": "HENFIL CRECHE",
            "country_name": "Brazil",
            "connectivity": true
        },
        {
            "lon": -34.9825,
            "lat": -7.5009,
            "school_name": "ESCOLA MUN ARLETE ALVES DE LIMA",
            "country_name": "Brazil",
            "connectivity": false
        },
        {
            "lon": -35.5372,
            "lat": -6.6989,
            "school_name": "CRECHE PRE ESCOLAR LUCILA RAMALHO",
            "country_name": "Brazil",
            "connectivity": false
        },
        {
            "lon": -38.2886,
            "lat": -7.9849,
            "school_name": "ESCOLA MUNICIPAL JOAO PEREIRA DOS SANTOS",
            "country_name": "Brazil",
            "connectivity": false
        },
        {
            "lon": -40.9611,
            "lat": -8.6735,
            "school_name": "ESCOLA MUNICIPAL RUI BARBOSA",
            "country_name": "Brazil",
            "connectivity": true
        },
        {
            "lon": -37.3083,
            "lat": -8.803,
            "school_name": "ESCOLA MUL CIPRIANO DE ABREU CAVALCANTE",
            "country_name": "Brazil",
            "connectivity": false
        },
        {
            "lon": -36.6816,
            "lat": -8.7832,
            "school_name": "ESCOLA MUNICIPAL JOSE JOAQUIM DA SILVA",
            "country_name": "Brazil",
            "connectivity": true
        },
        {
            "lon": -35.2288,
            "lat": -7.802,
            "school_name": "ESCOLA MUNICIPAL JOAQUIM CANUTO DE ARAUJO",
            "country_name": "Brazil",
            "connectivity": true
        },
        {
            "lon": -34.8943,
            "lat": -8.0326,
            "school_name": "ESCOLA MUNICIPAL SERVICO SOCIAL DE BELEM",
            "country_name": "Brazil",
            "connectivity": true
        },
        {
            "lon": -40.5078,
            "lat": -7.5703,
            "school_name": "ESCOLA DR FRANCISCO DE ALENCAR LIMA",
            "country_name": "Brazil",
            "connectivity": true
        },
        {
            "lon": -37.3377,
            "lat": -9.4673,
            "school_name": "ESCOLA MUNICIPAL DE EDUCACAO BASICA VEREADOR ABDON FRANCISCO DE LIMA",
            "country_name": "Brazil",
            "connectivity": true
        },
        {
            "lon": -37.6793,
            "lat": -11.3175,
            "school_name": "ESCOLA MUNICIPAL NOSSA SENHORA DE LOURDES",
            "country_name": "Brazil",
            "connectivity": true
        },
        {
            "lon": -44.3049,
            "lat": -13.5632,
            "school_name": "ESCOLA MUNICIPAL CENTRO AGROPECUARIO DO FORMOSO",
            "country_name": "Brazil",
            "connectivity": true
        },
        {
            "lon": -41.4349,
            "lat": -11.2433,
            "school_name": "ESCOLA AURELIO JOSE MARQUES",
            "country_name": "Brazil",
            "connectivity": false
        },
        {
            "lon": -38.5801,
            "lat": -11.5921,
            "school_name": "ESCOLA MUNICIPAL RAMIRO VIEIRA SOBRINHO",
            "country_name": "Brazil",
            "connectivity": true
        },
        {
            "lon": -38.6828,
            "lat": -12.6053,
            "school_name": "ESCOLA ALMIR PINTO DA CUNHA",
            "country_name": "Brazil",
            "connectivity": false
        },
        {
            "lon": -39.2416,
            "lat": -15.4402,
            "school_name": "ESC BOA SORTE",
            "country_name": "Brazil",
            "connectivity": true
        },
        {
            "lon": -39.0219,
            "lat": -10.5064,
            "school_name": "ESCOLA MUNICIPAL PARAISO DO SABER",
            "country_name": "Brazil",
            "connectivity": true
        },
        {
            "lon": -40.3362,
            "lat": -8.2408,
            "school_name": "GRUPO ESCOLAR DR SERGIO FIGUEIREDO",
            "country_name": "Brazil",
            "connectivity": true
        },
        {
            "lon": -43.4875,
            "lat": -21.5808,
            "school_name": "EE CORONEL MANUEL CARNEIRO DAS NEVES",
            "country_name": "Brazil",
            "connectivity": true
        },
        {
            "lon": -42.0966,
            "lat": -20.3934,
            "school_name": "ESCOLA MUNIICIPAL DA GAMELEIRA",
            "country_name": "Brazil",
            "connectivity": true
        },
        {
            "lon": -41.7764,
            "lat": -20.0709,
            "school_name": "EM BERNARDINO SOARES",
            "country_name": "Brazil",
            "connectivity": false
        },
        {
            "lon": -43.7478,
            "lat": -16.8539,
            "school_name": "EM JOSE ALVES MALHEIRO",
            "country_name": "Brazil",
            "connectivity": true
        },
        {
            "lon": -40.6868,
            "lat": -16.9385,
            "school_name": "EE EUCLIDES SILVEIRA TOLENTINO",
            "country_name": "Brazil",
            "connectivity": true
        },
        {
            "lon": -45.382,
            "lat": -23.6095,
            "school_name": "MARIA EUGENIA ARANHA CHODOUNSKY PROFA CEI E EMEI",
            "country_name": "Brazil",
            "connectivity": true
        },
        {
            "lon": -40.4397,
            "lat": -17.627,
            "school_name": "EM BOA ESPERANCA",
            "country_name": "Brazil",
            "connectivity": true
        },
        {
            "lon": -45.1329,
            "lat": -22.2091,
            "school_name": "EM JOAQUIM RAMOS DE OLIVEIRA",
            "country_name": "Brazil",
            "connectivity": true
        },
        {
            "lon": -42.8381,
            "lat": -21.0221,
            "school_name": "EE DE EDUCACAO ESPECIAL ANTONIO DE GOUVEA LIMA",
            "country_name": "Brazil",
            "connectivity": true
        },
        {
            "lon": -35.5239,
            "lat": -9.1484,
            "school_name": "ESCOLA MUNICIPAL DE EDUCACAO INFANTIL DR LUCIANA CAVALCANTE DE MELO SAMPAIO",
            "country_name": "Brazil",
            "connectivity": true
        },
        {
            "lon": -38.5794,
            "lat": -3.7862,
            "school_name": "ESCOLA MUNICIPAL RAIMUNDO SOARES DE SOUZA",
            "country_name": "Brazil",
            "connectivity": true
        },
        {
            "lon": -50.849,
            "lat": -7.7557,
            "school_name": "EMEF KANHOK",
            "country_name": "Brazil",
            "connectivity": true
        },
        {
            "lon": -44.9029,
            "lat": -18.7551,
            "school_name": "CENTRO MUNICIPAL DE EDUCACAO INFANTIL RENASCER",
            "country_name": "Brazil",
            "connectivity": true
        },
        {
            "lon": -42.8318,
            "lat": -21.0182,
            "school_name": "C EDUC MUN CEL JOSE FELIX",
            "country_name": "Brazil",
            "connectivity": false
        },
        {
            "lon": -46.5554,
            "lat": -21.7922,
            "school_name": "CENTRO DE EDUCACAO INFANTIL MUNICIPAL SANTA RITA",
            "country_name": "Brazil",
            "connectivity": true
        },
        {
            "lon": -44.1477,
            "lat": -19.8262,
            "school_name": "EM MARIA DO CARMO ORECHIO",
            "country_name": "Brazil",
            "connectivity": true
        },
        {
            "lon": -42.4762,
            "lat": -17.9402,
            "school_name": "ESCOLA MUNICIPAL VEREADOR JOSE RODRIGUES",
            "country_name": "Brazil",
            "connectivity": false
        },
        {
            "lon": -40.8359,
            "lat": -19.665,
            "school_name": "CEI MARIA GALAZZI COVRE",
            "country_name": "Brazil",
            "connectivity": true
        },
        {
            "lon": -40.4218,
            "lat": -20.3641,
            "school_name": "CMEI GUILHERME DE ALMEIDA FILHO",
            "country_name": "Brazil",
            "connectivity": true
        },
        {
            "lon": -43.7326,
            "lat": -22.6238,
            "school_name": "E M TERRA DE EDUCAR",
            "country_name": "Brazil",
            "connectivity": true
        },
        {
            "lon": -49.3919,
            "lat": -26.2741,
            "school_name": "CEI MUN ALGODAO DOCE",
            "country_name": "Brazil",
            "connectivity": true
        },
        {
            "lon": -41.3103,
            "lat": -21.7301,
            "school_name": "CE FRANCISCO ALVES DIAS",
            "country_name": "Brazil",
            "connectivity": true
        },
        {
            "lon": -43.196,
            "lat": -22.9818,
            "school_name": "0206606 CRECHE MUNICIPAL ELZA MACHADO DOS SANTOS - TIA ELZA",
            "country_name": "Brazil",
            "connectivity": true
        },
        {
            "lon": -36.5636,
            "lat": -10.2819,
            "school_name": "ESCOLA ESTADUAL HERMILIO DE FREITAS MELRO",
            "country_name": "Brazil",
            "connectivity": true
        },
        {
            "lon": -49.8101,
            "lat": -20.7824,
            "school_name": "EM PROFESSOR LUIZ ANTONIO POLONI RIZZATO",
            "country_name": "Brazil",
            "connectivity": true
        },
        {
            "lon": -51.3017,
            "lat": -22.2196,
            "school_name": "AUGUSTO CESAR PIRES EMEI",
            "country_name": "Brazil",
            "connectivity": true
        },
        {
            "lon": -50.4492,
            "lat": -21.1691,
            "school_name": "HELEN MARGOT DE ASSIS EMEB",
            "country_name": "Brazil",
            "connectivity": true
        },
        {
            "lon": -49.5154,
            "lat": -20.8124,
            "school_name": "BARTYRA DE AQUINO NORONHA PROFESSORA EMEFEI",
            "country_name": "Brazil",
            "connectivity": true
        },
        {
            "lon": -46.9518,
            "lat": -23.6364,
            "school_name": "MARIA APARECIDA DE OLIVEIRA PEDROSO PROFA EM",
            "country_name": "Brazil",
            "connectivity": true
        },
        {
            "lon": -48.7892,
            "lat": -21.1933,
            "school_name": "DIRCILIA CARVALHO PEREIRA GUTIERREZ PROFESSORA EMEF",
            "country_name": "Brazil",
            "connectivity": true
        },
        {
            "lon": -39.816,
            "lat": -13.2898,
            "school_name": "ESCOLA MUNICIPALIZADA LUIS VIANA FILHO",
            "country_name": "Brazil",
            "connectivity": true
        },
        {
            "lon": -46.7036,
            "lat": -23.7646,
            "school_name": "EMEF AYRTON OLIVEIRA SAMPAIO PROF",
            "country_name": "Brazil",
            "connectivity": true
        },
        {
            "lon": -40.9832,
            "lat": -3.3488,
            "school_name": "JOSE PEDRO DE BRITO EEF",
            "country_name": "Brazil",
            "connectivity": true
        },
        {
            "lon": -48.0422,
            "lat": -20.7311,
            "school_name": "MARIA APARECIDA D OLIVEIRA RIZZO EMEI",
            "country_name": "Brazil",
            "connectivity": true
        },
        {
            "lon": -41.8992,
            "lat": -13.656,
            "school_name": "EE - COLEGIO ESTADUAL DE LIVRAMENTO- ANTIGO COLEGIO ESTADUAL EDIVALDO MACHADO BOAVENTURA",
            "country_name": "Brazil",
            "connectivity": true
        },
        {
            "lon": -51.2151,
            "lat": -27.4013,
            "school_name": "GEM JARDIM BELA VISTA",
            "country_name": "Brazil",
            "connectivity": true
        },
        {
            "lon": -53.0109,
            "lat": -25.6099,
            "school_name": "JORGE GUIMARAES E M PROF EI EF",
            "country_name": "Brazil",
            "connectivity": true
        },
        {
            "lon": -42.5292,
            "lat": -22.3607,
            "school_name": "E M JOAO VICENTE VALLADARES",
            "country_name": "Brazil",
            "connectivity": true
        },
        {
            "lon": -49.2257,
            "lat": -25.4481,
            "school_name": "CAJURU C M E I",
            "country_name": "Brazil",
            "connectivity": true
        },
        {
            "lon": -49.8803,
            "lat": -27.3343,
            "school_name": "ESC NUCLEADA BRACO DO TROMBUDO KM 15",
            "country_name": "Brazil",
            "connectivity": true
        },
        {
            "lon": -48.8831,
            "lat": -28.4294,
            "school_name": "EEB PALMIRA MORAIS DE MIRANDA",
            "country_name": "Brazil",
            "connectivity": true
        },
        {
            "lon": -48.8328,
            "lat": -26.3492,
            "school_name": "CENTRO DE EDUCACAO INFANTIL BEIJA FLOR",
            "country_name": "Brazil",
            "connectivity": true
        },
        {
            "lon": -51.0816,
            "lat": -29.9295,
            "school_name": "EMEF GETULIO VARGAS",
            "country_name": "Brazil",
            "connectivity": true
        },
        {
            "lon": -51.0055,
            "lat": -29.5205,
            "school_name": "ESC MUN DE ED INF E ENS FUN TIRADENTES",
            "country_name": "Brazil",
            "connectivity": true
        },
        {
            "lon": -50.995,
            "lat": -29.9175,
            "school_name": "EMEF PROFESSOR ADRIANO ORTIZ CORREA",
            "country_name": "Brazil",
            "connectivity": true
        },
        {
            "lon": -49.2965,
            "lat": -25.2446,
            "school_name": "FLORIPA TEIXEIRA DE FARIA C E EF M",
            "country_name": "Brazil",
            "connectivity": true
        },
        {
            "lon": -55.5194,
            "lat": -30.8716,
            "school_name": "ESC MUN INF GURIZADA",
            "country_name": "Brazil",
            "connectivity": true
        },
        {
            "lon": -51.68,
            "lat": -13.3164,
            "school_name": "EMI PIMENTEL BARBOSA",
            "country_name": "Brazil",
            "connectivity": true
        },
        {
            "lon": -45.9303,
            "lat": -21.9327,
            "school_name": "EM ROSA ALVIM",
            "country_name": "Brazil",
            "connectivity": true
        },
        {
            "lon": -52.2638,
            "lat": -27.6263,
            "school_name": "EMEI COPAS VERDES",
            "country_name": "Brazil",
            "connectivity": true
        },
        {
            "lon": -48.2886,
            "lat": -17.3132,
            "school_name": "CRECHE MUNICIPAL COLANDY DE OLIVEIRA GODOY",
            "country_name": "Brazil",
            "connectivity": true
        },
        {
            "lon": -47.6812,
            "lat": -15.6332,
            "school_name": "EC ALTA-MIR",
            "country_name": "Brazil",
            "connectivity": true
        },
        {
            "lon": -53.8024,
            "lat": -23.839,
            "school_name": "SAO JOAO E E C EF",
            "country_name": "Brazil",
            "connectivity": true
        },
        {
            "lon": -44.5524,
            "lat": -7.2198,
            "school_name": "CENTRO DE ENSINO LUCAS COELHO",
            "country_name": "Brazil",
            "connectivity": true
        },
        {
            "lon": -39.0891,
            "lat": -6.8769,
            "school_name": "CRIANCA FELIZ CENTRO DE EDUC INF",
            "country_name": "Brazil",
            "connectivity": true
        },
        {
            "lon": -41.6488,
            "lat": -12.0897,
            "school_name": "ESCOLA MUNICIPAL OURICURI",
            "country_name": "Brazil",
            "connectivity": true
        },
        {
            "lon": -42.5732,
            "lat": -19.4702,
            "school_name": "ESCOLA MUNICIPAL PROFESSORA MARIA DA CONCEICAO PENA ROCHA",
            "country_name": "Brazil",
            "connectivity": true
        },
        {
            "lon": -42.1073,
            "lat": -19.6286,
            "school_name": "PEM CIRCO ENCANTADO",
            "country_name": "Brazil",
            "connectivity": true
        },
        {
            "lon": -39.4532,
            "lat": -6.0932,
            "school_name": "HERMINIO BARBOSA E SILVA EEF",
            "country_name": "Brazil",
            "connectivity": true
        },
        {
            "lon": -35.4234,
            "lat": -5.6399,
            "school_name": "ESCOLA ESTADUAL ENEAS CAVALCANTI",
            "country_name": "Brazil",
            "connectivity": true
        }
    ],
    "num_countries": 14,
    "countries": [
        "Benin",
        "Brazil",
        "Colombia",
        "Costa Rica",
        "Honduras",
        "Kazakhstan",
        "Kyrgyzstan",
        "Namibia",
        "Palestine",
        "Philippines",
        "Rwanda",
        "Saint Lucia",
        "Sierra Leone",
        "Zimbabwe"
    ],
    "schools_no_data": [
        {
            "lon": 5.959126,
            "lat": 14.0771185,
            "school_name": "Ecole Primaire Madaoua-Gar\u00e7on",
            "country_name": "Niger",
            "connectivity": false
        },
        {
            "lon": 28.33365,
            "lat": -15.45553,
            "school_name": "TUM SECONDARY SCHOOL",
            "country_name": "Zambia",
            "connectivity": false
        },
        {
            "lon": -10.333244,
            "lat": 6.295704,
            "school_name": "Evangelical Tutorial School",
            "country_name": "Liberia",
            "connectivity": false
        },
        {
            "lon": -10.419301,
            "lat": 6.243951,
            "school_name": "Taffi Dollars Children Academy",
            "country_name": "Liberia",
            "connectivity": false
        },
        {
            "lon": 7.29502,
            "lat": 6.898098333,
            "school_name": "Name unknown",
            "country_name": "Nigeria",
            "connectivity": false
        },
        {
            "lon": -0.1769,
            "lat": 5.6148755,
            "school_name": "Name unknown",
            "country_name": "Ghana",
            "connectivity": false
        },
        {
            "lon": 33.3542536833333,
            "lat": 14.7689544,
            "school_name": "Name unknown",
            "country_name": "Sudan",
            "connectivity": false
        },
        {
            "lon": 25.57255755,
            "lat": 12.43422537,
            "school_name": "Name unknown",
            "country_name": "Sudan",
            "connectivity": false
        },
        {
            "lon": 26.14839865,
            "lat": 11.45966715,
            "school_name": "Name unknown",
            "country_name": "Sudan",
            "connectivity": false
        },
        {
            "lon": 1.0188492,
            "lat": 6.2270196,
            "school_name": "Name unknown",
            "country_name": "Ghana",
            "connectivity": false
        },
        {
            "lon": -61.04983376,
            "lat": -30.69309664,
            "school_name": "ESCUELA NRO 826 PABLO ANTONIO PIZZURNO",
            "country_name": "Argentina",
            "connectivity": false
        },
        {
            "lon": -1.6125628,
            "lat": 6.7445022,
            "school_name": "Name unknown",
            "country_name": "Ghana",
            "connectivity": false
        },
        {
            "lon": -1.5822914,
            "lat": 6.7775516,
            "school_name": "Name unknown",
            "country_name": "Ghana",
            "connectivity": false
        },
        {
            "lon": 35.48362,
            "lat": -6.08606,
            "school_name": "KIGWE VIZIWI",
            "country_name": "United Republic of Tanzania",
            "connectivity": false
        },
        {
            "lon": 33.69516,
            "lat": -9.2257,
            "school_name": "SUMA",
            "country_name": "United Republic of Tanzania",
            "connectivity": false
        },
        {
            "lon": 39.07474,
            "lat": -6.90166,
            "school_name": "CHANZIGE 'B'",
            "country_name": "United Republic of Tanzania",
            "connectivity": false
        },
        {
            "lon": 38.20962,
            "lat": -6.53418,
            "school_name": "MBUYU",
            "country_name": "United Republic of Tanzania",
            "connectivity": false
        },
        {
            "lon": 34.72375,
            "lat": -1.83357,
            "school_name": "KISANGURA",
            "country_name": "United Republic of Tanzania",
            "connectivity": false
        },
        {
            "lon": 34.79822,
            "lat": -8.54139,
            "school_name": "IYAYI",
            "country_name": "United Republic of Tanzania",
            "connectivity": false
        },
        {
            "lon": 35.68149,
            "lat": -4.42172,
            "school_name": "GIDAS",
            "country_name": "United Republic of Tanzania",
            "connectivity": false
        },
        {
            "lon": -1.7250319,
            "lat": 8.058745,
            "school_name": "Name unknown",
            "country_name": "Ghana",
            "connectivity": false
        },
        {
            "lon": 36.8763687,
            "lat": -1.3179735,
            "school_name": "Stevens Academic Community Centre",
            "country_name": "Kenya",
            "connectivity": false
        },
        {
            "lon": 35.9816431,
            "lat": 0.4718135,
            "school_name": "Town Church Fellowship Academy",
            "country_name": "Kenya",
            "connectivity": false
        },
        {
            "lon": 0.871449,
            "lat": 7.747825,
            "school_name": "CEPE TIKEMOU",
            "country_name": "Togo",
            "connectivity": false
        },
        {
            "lon": 1.498602,
            "lat": 6.349683,
            "school_name": "EPP TOKOINDJI",
            "country_name": "Togo",
            "connectivity": false
        },
        {
            "lon": 0.737386,
            "lat": 6.966183,
            "school_name": "EPP TOKLOLO",
            "country_name": "Togo",
            "connectivity": false
        },
        {
            "lon": 1.517326,
            "lat": 7.134971,
            "school_name": "EPP KLIKOME",
            "country_name": "Togo",
            "connectivity": false
        },
        {
            "lon": 1.216483,
            "lat": 8.991802,
            "school_name": "EPP KOUYOH",
            "country_name": "Togo",
            "connectivity": false
        },
        {
            "lon": 0.79209,
            "lat": 9.428598333,
            "school_name": "EPP KABOU MARCHE G/C",
            "country_name": "Togo",
            "connectivity": false
        },
        {
            "lon": 0.225193,
            "lat": 10.938192,
            "school_name": "EPC DAMPIONG",
            "country_name": "Togo",
            "connectivity": false
        },
        {
            "lon": 0.0505,
            "lat": 11.010222,
            "school_name": "EPC BIANKOURI G/AB",
            "country_name": "Togo",
            "connectivity": false
        },
        {
            "lon": 34.84327,
            "lat": -8.21769,
            "school_name": "MKUNYWA",
            "country_name": "United Republic of Tanzania",
            "connectivity": false
        },
        {
            "lon": 39.24303,
            "lat": -6.79688,
            "school_name": "TANDALE",
            "country_name": "United Republic of Tanzania",
            "connectivity": false
        },
        {
            "lon": 28.87063,
            "lat": -28.52147,
            "school_name": "Boitelo Primary School",
            "country_name": "South Africa",
            "connectivity": false
        },
        {
            "lon": 33.9881,
            "lat": -1.72866,
            "school_name": "MURIAZA",
            "country_name": "United Republic of Tanzania",
            "connectivity": false
        },
        {
            "lon": 33.41327,
            "lat": -2.73082,
            "school_name": "MWAGING'HI",
            "country_name": "United Republic of Tanzania",
            "connectivity": false
        },
        {
            "lon": 1.26288,
            "lat": 6.16232,
            "school_name": "LYCEE BE-KPOTA",
            "country_name": "Togo",
            "connectivity": false
        },
        {
            "lon": 34.9358208,
            "lat": -15.85589684,
            "school_name": "Mandimu",
            "country_name": "Malawi",
            "connectivity": false
        },
        {
            "lon": 35.05926759,
            "lat": -16.30414569,
            "school_name": "Mpama",
            "country_name": "Malawi",
            "connectivity": false
        },
        {
            "lon": 33.50250753,
            "lat": -14.12900798,
            "school_name": "Ndaula CDSS",
            "country_name": "Malawi",
            "connectivity": false
        },
        {
            "lon": 24.23202076,
            "lat": -0.524821176,
            "school_name": "EP OPALA",
            "country_name": "Democratic Republic of the Congo",
            "connectivity": false
        },
        {
            "lon": 25.19494742,
            "lat": 0.666388853,
            "school_name": "INST BAOMBI",
            "country_name": "Democratic Republic of the Congo",
            "connectivity": false
        },
        {
            "lon": 25.38455775,
            "lat": 0.430178328,
            "school_name": "EP MAPENDO",
            "country_name": "Democratic Republic of the Congo",
            "connectivity": false
        },
        {
            "lon": 26.92869934,
            "lat": -8.22587369,
            "school_name": "INSTITUT KALUME NGONGO",
            "country_name": "Democratic Republic of the Congo",
            "connectivity": false
        },
        {
            "lon": 26.31627938,
            "lat": -8.309552726,
            "school_name": "INST NYONGA",
            "country_name": "Democratic Republic of the Congo",
            "connectivity": false
        },
        {
            "lon": 27.18199263,
            "lat": -5.129141626,
            "school_name": "INST NZOVA",
            "country_name": "Democratic Republic of the Congo",
            "connectivity": false
        },
        {
            "lon": 24.13861398,
            "lat": 2.962312098,
            "school_name": "INST DULIA",
            "country_name": "Democratic Republic of the Congo",
            "connectivity": false
        },
        {
            "lon": 20.92955459,
            "lat": -5.429695763,
            "school_name": "EP MINGENTSHI",
            "country_name": "Democratic Republic of the Congo",
            "connectivity": false
        },
        {
            "lon": 23.42994998,
            "lat": -4.966812005,
            "school_name": "INST LUDAMA",
            "country_name": "Democratic Republic of the Congo",
            "connectivity": false
        },
        {
            "lon": 26.3147,
            "lat": -3.5622,
            "school_name": "INST KATANDA",
            "country_name": "Democratic Republic of the Congo",
            "connectivity": false
        },
        {
            "lon": 22.14590719,
            "lat": 2.407473697,
            "school_name": "INST IANDA",
            "country_name": "Democratic Republic of the Congo",
            "connectivity": false
        },
        {
            "lon": 20.34010098,
            "lat": 3.448813198,
            "school_name": "EP BOTOLO II",
            "country_name": "Democratic Republic of the Congo",
            "connectivity": false
        },
        {
            "lon": -98.936825,
            "lat": 18.814442,
            "school_name": "INFORMATICA Y CAPACITACION ALTERNATIVA DE MEXICO ICAM PLANTEL CUAUTLA",
            "country_name": "Mexico",
            "connectivity": false
        },
        {
            "lon": -11.938867,
            "lat": 15.614933,
            "school_name": "DEBAYEZAGRE",
            "country_name": "Mauritania",
            "connectivity": false
        },
        {
            "lon": -15.99185,
            "lat": 18.10115,
            "school_name": "ECOLE PUBLIC IBN SINS",
            "country_name": "Mauritania",
            "connectivity": false
        },
        {
            "lon": 33.25165,
            "lat": 0.46454,
            "school_name": "LAKE VIEW N/SCHOOL",
            "country_name": "Uganda",
            "connectivity": false
        },
        {
            "lon": 33.73301,
            "lat": 1.41106,
            "school_name": "GAWA PRIMARY SCHOOL",
            "country_name": "Uganda",
            "connectivity": false
        },
        {
            "lon": 33.13609,
            "lat": 0.28335,
            "school_name": "BUZAAMA C/U P/S",
            "country_name": "Uganda",
            "connectivity": false
        },
        {
            "lon": 34.07185,
            "lat": 0.47759,
            "school_name": "Elim Namaubi P.S.",
            "country_name": "Uganda",
            "connectivity": false
        },
        {
            "lon": 32.57161,
            "lat": 0.72615,
            "school_name": "Monde R.C. P.S.",
            "country_name": "Uganda",
            "connectivity": false
        },
        {
            "lon": 33.13992,
            "lat": 0.53217,
            "school_name": "Trinity College Buwagi",
            "country_name": "Uganda",
            "connectivity": false
        },
        {
            "lon": 30.22577,
            "lat": -0.54017,
            "school_name": "Ruyonza School",
            "country_name": "Uganda",
            "connectivity": false
        },
        {
            "lon": 31.1864,
            "lat": 1.58116,
            "school_name": "Kasenyi Lyato P.S.",
            "country_name": "Uganda",
            "connectivity": false
        },
        {
            "lon": -63.272832,
            "lat": -17.866627,
            "school_name": "APIAGUAIQUI",
            "country_name": "Bolivia (Plurinational State of)",
            "connectivity": false
        },
        {
            "lon": 29.20149,
            "lat": -26.5077,
            "school_name": "Highveld Ridge Primary School",
            "country_name": "South Africa",
            "connectivity": false
        },
        {
            "lon": 29.24142,
            "lat": -25.90561,
            "school_name": "Kieiekrankie Pre-Primary School",
            "country_name": "South Africa",
            "connectivity": false
        },
        {
            "lon": 25.90584,
            "lat": -26.08542,
            "school_name": "Dingake Primary School",
            "country_name": "South Africa",
            "connectivity": false
        },
        {
            "lon": 18.35313,
            "lat": -34.15014,
            "school_name": "Tiny Tots",
            "country_name": "South Africa",
            "connectivity": false
        },
        {
            "lon": 30.10703,
            "lat": -22.88215,
            "school_name": "Amaria Combined School",
            "country_name": "South Africa",
            "connectivity": false
        },
        {
            "lon": 30.55007,
            "lat": -24.331,
            "school_name": "Molomahlapi High School",
            "country_name": "South Africa",
            "connectivity": false
        },
        {
            "lon": 29.46711,
            "lat": -24.83554,
            "school_name": "Legadimane Primary School",
            "country_name": "South Africa",
            "connectivity": false
        },
        {
            "lon": 18.70671,
            "lat": -33.46303,
            "school_name": "Vrolike Vinkies Pre Primary School",
            "country_name": "South Africa",
            "connectivity": false
        },
        {
            "lon": 29.90758,
            "lat": -27.57235,
            "school_name": "Siyalungelwa Secondary School",
            "country_name": "South Africa",
            "connectivity": false
        },
        {
            "lon": 30.28364,
            "lat": -27.82686,
            "school_name": "Ekuhlakanipheni Primary School",
            "country_name": "South Africa",
            "connectivity": false
        },
        {
            "lon": 30.75115,
            "lat": -22.79736,
            "school_name": "Tondalushaka Secondary",
            "country_name": "South Africa",
            "connectivity": false
        },
        {
            "lon": 30.89519,
            "lat": -24.52349,
            "school_name": "Laerskool Mariepskop",
            "country_name": "South Africa",
            "connectivity": false
        },
        {
            "lon": 28.63645,
            "lat": -23.60301,
            "school_name": "Segole Primary School",
            "country_name": "South Africa",
            "connectivity": false
        },
        {
            "lon": 32.02923,
            "lat": -27.61854,
            "school_name": "Mtwazi Combined School",
            "country_name": "South Africa",
            "connectivity": false
        },
        {
            "lon": 31.38084,
            "lat": -28.97083,
            "school_name": "Umphezeni Secondary School",
            "country_name": "South Africa",
            "connectivity": false
        },
        {
            "lon": 31.4117,
            "lat": -28.30667,
            "school_name": "Luzindela Primary School",
            "country_name": "South Africa",
            "connectivity": false
        },
        {
            "lon": 28.44717,
            "lat": -30.69075,
            "school_name": "Khalatsu Senior Primary School",
            "country_name": "South Africa",
            "connectivity": false
        },
        {
            "lon": 28.11909,
            "lat": -25.63996,
            "school_name": "Eveline Independent School",
            "country_name": "South Africa",
            "connectivity": false
        },
        {
            "lon": 31.12398,
            "lat": -29.32437,
            "school_name": "Glendale State Aided Farm Primary School",
            "country_name": "South Africa",
            "connectivity": false
        },
        {
            "lon": 27.8427,
            "lat": -26.25494,
            "school_name": "Fr Smangaliso Mkhatshwa Secondary School",
            "country_name": "South Africa",
            "connectivity": false
        },
        {
            "lon": 27.85185,
            "lat": -26.66902,
            "school_name": "Sedibeng Training Centre",
            "country_name": "South Africa",
            "connectivity": false
        },
        {
            "lon": 28.19033,
            "lat": -25.74785,
            "school_name": "CyberCoZa Training Centre",
            "country_name": "South Africa",
            "connectivity": false
        },
        {
            "lon": 28.31169,
            "lat": -32.50454,
            "school_name": "School",
            "country_name": "South Africa",
            "connectivity": false
        },
        {
            "lon": 31.37033,
            "lat": -8.8543,
            "school_name": "MBALASECONDARY SCHOOL",
            "country_name": "Zambia",
            "connectivity": false
        },
        {
            "lon": 26.78821,
            "lat": -29.11991,
            "school_name": "Mokoto Primary School",
            "country_name": "South Africa",
            "connectivity": false
        },
        {
            "lon": 26.24751,
            "lat": -29.14833,
            "school_name": "Maboloka Primary School",
            "country_name": "South Africa",
            "connectivity": false
        },
        {
            "lon": 27.72538,
            "lat": -32.30848,
            "school_name": "Lubomvini Senior Primary School",
            "country_name": "South Africa",
            "connectivity": false
        },
        {
            "lon": 27.72213,
            "lat": -32.12404,
            "school_name": "Jongizizwe Secondary School",
            "country_name": "South Africa",
            "connectivity": false
        },
        {
            "lon": 28.53453,
            "lat": -32.25155,
            "school_name": "Tembisa Junior Secondary School",
            "country_name": "South Africa",
            "connectivity": false
        },
        {
            "lon": 29.25129,
            "lat": -23.29552,
            "school_name": "Monyemathula Primary",
            "country_name": "South Africa",
            "connectivity": false
        },
        {
            "lon": -58.66970164,
            "lat": -34.65006242,
            "school_name": "INSTITUTO SAN FRANCISCO SOLANO",
            "country_name": "Argentina",
            "connectivity": false
        },
        {
            "lon": -64.15117394,
            "lat": -31.41232934,
            "school_name": "C.E.N.P.A. HOGAR DE DIA LA CASA DE DON GASPAR",
            "country_name": "Argentina",
            "connectivity": false
        },
        {
            "lon": -59.81606976,
            "lat": -37.66582905,
            "school_name": "CENTRO DE ADULTOS N\u00ba703/01",
            "country_name": "Argentina",
            "connectivity": false
        },
        {
            "lon": -58.52642792,
            "lat": -34.69805384,
            "school_name": "ESCUELA POLIMODAL N\u00ba35 LUIS FEDERICO LELOIR",
            "country_name": "Argentina",
            "connectivity": false
        },
        {
            "lon": -58.55356797,
            "lat": -34.5757402,
            "school_name": "ESCUELA ESPECIAL N\u00ba505",
            "country_name": "Argentina",
            "connectivity": false
        },
        {
            "lon": -58.6947122,
            "lat": -34.66032516,
            "school_name": "ESC. SECUNDARIA BASICA N\u00ba13",
            "country_name": "Argentina",
            "connectivity": false
        },
        {
            "lon": -68.71806899,
            "lat": -30.10100685,
            "school_name": "MARCOS SASTRE",
            "country_name": "Argentina",
            "connectivity": false
        },
        {
            "lon": -58.64764269,
            "lat": -34.76828688,
            "school_name": "ESC. SECUNDARIA BASICA N\u00ba83",
            "country_name": "Argentina",
            "connectivity": false
        },
        {
            "lon": -58.40925083,
            "lat": -34.76444119,
            "school_name": "ESC. SECUNDARIA BASICA N\u00ba41",
            "country_name": "Argentina",
            "connectivity": false
        },
        {
            "lon": -58.67201745,
            "lat": -34.44508552,
            "school_name": "COLEGIO SAN JORGE",
            "country_name": "Argentina",
            "connectivity": false
        },
        {
            "lon": -62.22099597,
            "lat": -38.10336676,
            "school_name": "COLEGIO NUESTRA SE\u00d1ORA DE LUJAN",
            "country_name": "Argentina",
            "connectivity": false
        },
        {
            "lon": -65.04793744,
            "lat": -29.29031567,
            "school_name": "ESCUELA N\u00b0 123",
            "country_name": "Argentina",
            "connectivity": false
        },
        {
            "lon": -66.14366432,
            "lat": -28.2219036,
            "school_name": "ESCUELA N\u00aa295 JULIO ARGENTINO ROCA",
            "country_name": "Argentina",
            "connectivity": false
        },
        {
            "lon": -58.9773938,
            "lat": -27.46114549,
            "school_name": "E.E.E. N\u00ba 3-DR.RICARDO GUTIERREZ",
            "country_name": "Argentina",
            "connectivity": false
        },
        {
            "lon": -59.32302506,
            "lat": -26.5453046,
            "school_name": "JARDIN DE INFANTES N\u00ba 114-NI\u00d1O TOBA",
            "country_name": "Argentina",
            "connectivity": false
        },
        {
            "lon": -63.44466043,
            "lat": -34.34964256,
            "school_name": "ESCUELA LUIS PASTEUR",
            "country_name": "Argentina",
            "connectivity": false
        },
        {
            "lon": -64.35591417,
            "lat": -30.42397796,
            "school_name": "CEDER DEAN FUNES",
            "country_name": "Argentina",
            "connectivity": false
        },
        {
            "lon": -59.91172902,
            "lat": -31.73232764,
            "school_name": "JUSTO JOSE DE URQUIZA 74",
            "country_name": "Argentina",
            "connectivity": false
        },
        {
            "lon": -58.00787001,
            "lat": -31.39752,
            "school_name": "PRIV. JUVENTUD UNIDA 200",
            "country_name": "Argentina",
            "connectivity": false
        },
        {
            "lon": -58.19774793,
            "lat": -26.17441484,
            "school_name": "EJI N\u00ba 1 ROSARITO VERA",
            "country_name": "Argentina",
            "connectivity": false
        },
        {
            "lon": -79.0226,
            "lat": -6.47752,
            "school_name": "101022",
            "country_name": "Peru",
            "connectivity": false
        },
        {
            "lon": -67.50314705,
            "lat": -29.16424458,
            "school_name": "E.P.E.T. N\u00b01 GRAL ANGEL VICENTE PE\u00d1ALOZA",
            "country_name": "Argentina",
            "connectivity": false
        },
        {
            "lon": -68.85720197,
            "lat": -32.98322114,
            "school_name": "ANTONIO PROVOLO",
            "country_name": "Argentina",
            "connectivity": false
        },
        {
            "lon": -68.09854278,
            "lat": -38.94800678,
            "school_name": "ESCUELA ESPECIAL 1 SENDEROS DE LUZ",
            "country_name": "Argentina",
            "connectivity": false
        },
        {
            "lon": -67.81056972,
            "lat": -38.98219971,
            "school_name": "CENTRO DE EDUCACION BASICA PARA ADULTOS NRO.13",
            "country_name": "Argentina",
            "connectivity": false
        },
        {
            "lon": -63.81907954,
            "lat": -22.59343188,
            "school_name": "INST.DE CARR.SUPER.CONSCRIPTO RICARDO A.PAZ",
            "country_name": "Argentina",
            "connectivity": false
        },
        {
            "lon": -66.33857912,
            "lat": -33.30215763,
            "school_name": "COLEGIO N\u00b0 1 JUAN CRISOSTOMO LAFINUR",
            "country_name": "Argentina",
            "connectivity": false
        },
        {
            "lon": -77.0149,
            "lat": -12.1153,
            "school_name": "7028 MARCO A.SCHENONE OLIVA",
            "country_name": "Peru",
            "connectivity": false
        },
        {
            "lon": -61.85829852,
            "lat": -31.89869946,
            "school_name": "ESCUELA NORMAL SUPERIOR NRO 41 JOS\u00c9 DE SAN MARTIN",
            "country_name": "Argentina",
            "connectivity": false
        },
        {
            "lon": -63.92105219,
            "lat": -27.92836635,
            "school_name": "JARDIN MUNICIPAL N\u00ba2 HEIDI",
            "country_name": "Argentina",
            "connectivity": false
        },
        {
            "lon": 7.348936667,
            "lat": 5.120941667,
            "school_name": "Name unknown",
            "country_name": "Nigeria",
            "connectivity": false
        },
        {
            "lon": 5.88661,
            "lat": 5.63739,
            "school_name": "Name unknown",
            "country_name": "Nigeria",
            "connectivity": false
        },
        {
            "lon": 5.82077504,
            "lat": 5.498130198,
            "school_name": "Name unknown",
            "country_name": "Nigeria",
            "connectivity": false
        },
        {
            "lon": 5.875273,
            "lat": 6.204141,
            "school_name": "Name unknown",
            "country_name": "Nigeria",
            "connectivity": false
        },
        {
            "lon": 5.040758333,
            "lat": 7.834656667,
            "school_name": "Name unknown",
            "country_name": "Nigeria",
            "connectivity": false
        },
        {
            "lon": 7.4534667,
            "lat": 6.0762908,
            "school_name": "Name unknown",
            "country_name": "Nigeria",
            "connectivity": false
        },
        {
            "lon": 7.479377,
            "lat": 6.43706,
            "school_name": "Name unknown",
            "country_name": "Nigeria",
            "connectivity": false
        },
        {
            "lon": 7.474898333,
            "lat": 7.058023333,
            "school_name": "Name unknown",
            "country_name": "Nigeria",
            "connectivity": false
        },
        {
            "lon": 7.581228333,
            "lat": 8.968561667,
            "school_name": "Name unknown",
            "country_name": "Nigeria",
            "connectivity": false
        },
        {
            "lon": 11.20094,
            "lat": 10.07531,
            "school_name": "Name unknown",
            "country_name": "Nigeria",
            "connectivity": false
        },
        {
            "lon": 11.20972,
            "lat": 10.34891333,
            "school_name": "Name unknown",
            "country_name": "Nigeria",
            "connectivity": false
        },
        {
            "lon": 11.30232,
            "lat": 10.87384,
            "school_name": "Name unknown",
            "country_name": "Nigeria",
            "connectivity": false
        },
        {
            "lon": 7.349071,
            "lat": 5.609301,
            "school_name": "Name unknown",
            "country_name": "Nigeria",
            "connectivity": false
        },
        {
            "lon": 7.153911667,
            "lat": 5.599593333,
            "school_name": "Name unknown",
            "country_name": "Nigeria",
            "connectivity": false
        },
        {
            "lon": -77.3098,
            "lat": -5.93989,
            "school_name": "614",
            "country_name": "Peru",
            "connectivity": false
        },
        {
            "lon": -76.8477,
            "lat": -6.0771,
            "school_name": "852",
            "country_name": "Peru",
            "connectivity": false
        },
        {
            "lon": -71.222,
            "lat": -14.2802,
            "school_name": "38",
            "country_name": "Peru",
            "connectivity": false
        },
        {
            "lon": -76.462,
            "lat": -8.46082,
            "school_name": "0425 CESAR VALLEJO",
            "country_name": "Peru",
            "connectivity": false
        },
        {
            "lon": -74.5558,
            "lat": -12.5447,
            "school_name": "1012",
            "country_name": "Peru",
            "connectivity": false
        },
        {
            "lon": -79.8693,
            "lat": -6.47844,
            "school_name": "10122",
            "country_name": "Peru",
            "connectivity": false
        },
        {
            "lon": -69.6218,
            "lat": -16.138,
            "school_name": "1058",
            "country_name": "Peru",
            "connectivity": false
        },
        {
            "lon": -80.0956,
            "lat": -5.91824,
            "school_name": "10928 CORAZON DE JESUS",
            "country_name": "Peru",
            "connectivity": false
        },
        {
            "lon": -71.6911,
            "lat": -14.3182,
            "school_name": "56266",
            "country_name": "Peru",
            "connectivity": false
        },
        {
            "lon": -78.1288,
            "lat": -7.48452,
            "school_name": "1109",
            "country_name": "Peru",
            "connectivity": false
        },
        {
            "lon": -75.2358,
            "lat": -12.056,
            "school_name": "1110",
            "country_name": "Peru",
            "connectivity": false
        },
        {
            "lon": -80.0884,
            "lat": -5.21583,
            "school_name": "1171",
            "country_name": "Peru",
            "connectivity": false
        },
        {
            "lon": -75.1844,
            "lat": -12.4762,
            "school_name": "122",
            "country_name": "Peru",
            "connectivity": false
        },
        {
            "lon": -79.9523,
            "lat": -4.89484,
            "school_name": "1284",
            "country_name": "Peru",
            "connectivity": false
        },
        {
            "lon": -72.621,
            "lat": -12.5785,
            "school_name": "1291",
            "country_name": "Peru",
            "connectivity": false
        },
        {
            "lon": -77.1284,
            "lat": -11.8497,
            "school_name": "148",
            "country_name": "Peru",
            "connectivity": false
        },
        {
            "lon": -79.4325,
            "lat": -5.23201,
            "school_name": "14972",
            "country_name": "Peru",
            "connectivity": false
        },
        {
            "lon": 9.7399073,
            "lat": 12.4757576,
            "school_name": "Name unknown",
            "country_name": "Nigeria",
            "connectivity": false
        },
        {
            "lon": -79.9462,
            "lat": -4.6681,
            "school_name": "15244",
            "country_name": "Peru",
            "connectivity": false
        },
        {
            "lon": -80.6858,
            "lat": -5.18028,
            "school_name": "1544",
            "country_name": "Peru",
            "connectivity": false
        },
        {
            "lon": -78.2579,
            "lat": -5.93091,
            "school_name": "16667",
            "country_name": "Peru",
            "connectivity": false
        },
        {
            "lon": -78.7097,
            "lat": -6.23075,
            "school_name": "17029",
            "country_name": "Peru",
            "connectivity": false
        },
        {
            "lon": -79.1564,
            "lat": -5.96251,
            "school_name": "17568",
            "country_name": "Peru",
            "connectivity": false
        },
        {
            "lon": 7.84888,
            "lat": 5.829635,
            "school_name": "Name unknown",
            "country_name": "Nigeria",
            "connectivity": false
        },
        {
            "lon": -77.1065,
            "lat": -11.973,
            "school_name": "2028",
            "country_name": "Peru",
            "connectivity": false
        },
        {
            "lon": -75.9493,
            "lat": -12.6673,
            "school_name": "20725 SAN LORENZO DE PUTINZA",
            "country_name": "Peru",
            "connectivity": false
        },
        {
            "lon": -76.111,
            "lat": -13.4902,
            "school_name": "22771",
            "country_name": "Peru",
            "connectivity": false
        },
        {
            "lon": -77.7452,
            "lat": -8.6043,
            "school_name": "2651",
            "country_name": "Peru",
            "connectivity": false
        },
        {
            "lon": -74.649,
            "lat": -10.9413,
            "school_name": "30001-226",
            "country_name": "Peru",
            "connectivity": false
        },
        {
            "lon": -77.6396,
            "lat": -8.6161,
            "school_name": "301",
            "country_name": "Peru",
            "connectivity": false
        },
        {
            "lon": -74.1763,
            "lat": -13.0131,
            "school_name": "313",
            "country_name": "Peru",
            "connectivity": false
        },
        {
            "lon": 7.953348,
            "lat": 6.199885,
            "school_name": "Name unknown",
            "country_name": "Nigeria",
            "connectivity": false
        },
        {
            "lon": -74.7486,
            "lat": -11.3328,
            "school_name": "31953",
            "country_name": "Peru",
            "connectivity": false
        },
        {
            "lon": -71.6858,
            "lat": -13.5165,
            "school_name": "321 VIRGEN DEL CARMEN",
            "country_name": "Peru",
            "connectivity": false
        },
        {
            "lon": -75.9919,
            "lat": -9.8975,
            "school_name": "32575",
            "country_name": "Peru",
            "connectivity": false
        },
        {
            "lon": -76.2446,
            "lat": -9.7842,
            "school_name": "32994",
            "country_name": "Peru",
            "connectivity": false
        },
        {
            "lon": 3.332177679,
            "lat": 6.634898752,
            "school_name": "Name unknown",
            "country_name": "Nigeria",
            "connectivity": false
        },
        {
            "lon": -71.5587,
            "lat": -16.4498,
            "school_name": "40018 PEDRO VILLENA HIDALGO",
            "country_name": "Peru",
            "connectivity": false
        },
        {
            "lon": -72.0771,
            "lat": -16.2789,
            "school_name": "40108",
            "country_name": "Peru",
            "connectivity": false
        },
        {
            "lon": -73.9574,
            "lat": -12.4352,
            "school_name": "429-70",
            "country_name": "Peru",
            "connectivity": false
        },
        {
            "lon": -80.217,
            "lat": -4.8479,
            "school_name": "469",
            "country_name": "Peru",
            "connectivity": false
        },
        {
            "lon": -72.0766,
            "lat": -13.0046,
            "school_name": "501243",
            "country_name": "Peru",
            "connectivity": false
        },
        {
            "lon": -72.484,
            "lat": -12.6525,
            "school_name": "50304",
            "country_name": "Peru",
            "connectivity": false
        },
        {
            "lon": -72.2601,
            "lat": -13.3443,
            "school_name": "50969",
            "country_name": "Peru",
            "connectivity": false
        },
        {
            "lon": -73.6695,
            "lat": -13.4038,
            "school_name": "54200",
            "country_name": "Peru",
            "connectivity": false
        },
        {
            "lon": -73.4304,
            "lat": -13.9733,
            "school_name": "54725",
            "country_name": "Peru",
            "connectivity": false
        },
        {
            "lon": -76.028,
            "lat": -5.905,
            "school_name": "55",
            "country_name": "Peru",
            "connectivity": false
        },
        {
            "lon": -73.4724,
            "lat": -4.35176,
            "school_name": "6010219",
            "country_name": "Peru",
            "connectivity": false
        },
        {
            "lon": -73.2674,
            "lat": -3.69545,
            "school_name": "60200",
            "country_name": "Peru",
            "connectivity": false
        },
        {
            "lon": 9.4619589,
            "lat": 12.314805,
            "school_name": "Name unknown",
            "country_name": "Nigeria",
            "connectivity": false
        },
        {
            "lon": -76.1153,
            "lat": -5.8948,
            "school_name": "62009 MARCELINA LOPEZ ROJAS",
            "country_name": "Peru",
            "connectivity": false
        },
        {
            "lon": -74.6938,
            "lat": -12.5553,
            "school_name": "635 JUAN JOSE VEGA",
            "country_name": "Peru",
            "connectivity": false
        },
        {
            "lon": -76.921,
            "lat": -12.1958,
            "school_name": "644 SAN FCO. DE TABLADA DE LURIN",
            "country_name": "Peru",
            "connectivity": false
        },
        {
            "lon": -70.0246,
            "lat": -16.2481,
            "school_name": "70126",
            "country_name": "Peru",
            "connectivity": false
        },
        {
            "lon": -75.9329,
            "lat": -9.13467,
            "school_name": "716",
            "country_name": "Peru",
            "connectivity": false
        },
        {
            "lon": -78.5382,
            "lat": -8.12315,
            "school_name": "80337",
            "country_name": "Peru",
            "connectivity": false
        },
        {
            "lon": -77.5926,
            "lat": -8.68596,
            "school_name": "84331",
            "country_name": "Peru",
            "connectivity": false
        },
        {
            "lon": -78.9259,
            "lat": -6.18394,
            "school_name": "953",
            "country_name": "Peru",
            "connectivity": false
        },
        {
            "lon": -78.2384,
            "lat": -5.89429,
            "school_name": "AGUITAS CLARAS",
            "country_name": "Peru",
            "connectivity": false
        },
        {
            "lon": -77.0584,
            "lat": -11.9654,
            "school_name": "BLUMENINSEL",
            "country_name": "Peru",
            "connectivity": false
        },
        {
            "lon": -77.0993,
            "lat": -11.9592,
            "school_name": "CADILLO",
            "country_name": "Peru",
            "connectivity": false
        },
        {
            "lon": -74.4265,
            "lat": -11.5624,
            "school_name": "CAMPIRUSHARI",
            "country_name": "Peru",
            "connectivity": false
        },
        {
            "lon": -77.12,
            "lat": -11.9736,
            "school_name": "CAP DE NAVIO JUAN FANNING GARCIA",
            "country_name": "Peru",
            "connectivity": false
        },
        {
            "lon": -77.0589,
            "lat": -12.0289,
            "school_name": "CARITAS FELICES",
            "country_name": "Peru",
            "connectivity": false
        },
        {
            "lon": -77.0746,
            "lat": -11.9354,
            "school_name": "CEBA - 2095 HERNAN BUSSE DE LA GUERRA",
            "country_name": "Peru",
            "connectivity": false
        },
        {
            "lon": -71.9773,
            "lat": -13.5234,
            "school_name": "CEBA - 51003 ROSARIO",
            "country_name": "Peru",
            "connectivity": false
        },
        {
            "lon": -72.2477,
            "lat": -14.1144,
            "school_name": "CHALHUAHUACHO",
            "country_name": "Peru",
            "connectivity": false
        },
        {
            "lon": -69.329,
            "lat": -16.3254,
            "school_name": "CHIARAQUE",
            "country_name": "Peru",
            "connectivity": false
        },
        {
            "lon": -70.032,
            "lat": -17.4788,
            "school_name": "CORONEL GREGORIO ALBARRACIN",
            "country_name": "Peru",
            "connectivity": false
        },
        {
            "lon": -70.9468,
            "lat": -17.1917,
            "school_name": "CORONEL MANUEL C. DE LA TORRE",
            "country_name": "Peru",
            "connectivity": false
        },
        {
            "lon": -69.1008,
            "lat": -16.5328,
            "school_name": "COTAPATA",
            "country_name": "Peru",
            "connectivity": false
        },
        {
            "lon": -77.0964,
            "lat": -11.9724,
            "school_name": "CRISTO MISERICORDIOSO",
            "country_name": "Peru",
            "connectivity": false
        },
        {
            "lon": -80.673,
            "lat": -5.19045,
            "school_name": "CUNA DEL SABER",
            "country_name": "Peru",
            "connectivity": false
        },
        {
            "lon": -77.2707,
            "lat": -11.5589,
            "school_name": "EL MUNDO DE LOS NI\u00d1OS",
            "country_name": "Peru",
            "connectivity": false
        },
        {
            "lon": -77.0019,
            "lat": -12.1976,
            "school_name": "ENSE\u00d1ANZA DIVINA",
            "country_name": "Peru",
            "connectivity": false
        },
        {
            "lon": -77.968,
            "lat": -6.18121,
            "school_name": "LA ALEGRIA DE SIEMPRE",
            "country_name": "Peru",
            "connectivity": false
        },
        {
            "lon": -74.8225,
            "lat": -8.42756,
            "school_name": "LAS PALOMITAS",
            "country_name": "Peru",
            "connectivity": false
        },
        {
            "lon": -76.1064,
            "lat": -9.82149,
            "school_name": "LOS NI\u00d1OS DE TUNGRA",
            "country_name": "Peru",
            "connectivity": false
        },
        {
            "lon": -71.6164,
            "lat": -16.3606,
            "school_name": "LUCERITOS DEL AMANECER",
            "country_name": "Peru",
            "connectivity": false
        },
        {
            "lon": -79.0467,
            "lat": -8.13873,
            "school_name": "MANA",
            "country_name": "Peru",
            "connectivity": false
        },
        {
            "lon": -79.403,
            "lat": -7.28609,
            "school_name": "MARIA MAGDALENA TOVAR ANGULO",
            "country_name": "Peru",
            "connectivity": false
        },
        {
            "lon": -73.8853,
            "lat": -14.1746,
            "school_name": "MARIA PARADO DE BELLIDO",
            "country_name": "Peru",
            "connectivity": false
        },
        {
            "lon": -70.1276,
            "lat": -16.098,
            "school_name": "MARISCAL SUCRE",
            "country_name": "Peru",
            "connectivity": false
        },
        {
            "lon": -70.2487,
            "lat": -18.0089,
            "school_name": "POLLITOS",
            "country_name": "Peru",
            "connectivity": false
        },
        {
            "lon": -74.2428,
            "lat": -12.9443,
            "school_name": "REY DE REYES",
            "country_name": "Peru",
            "connectivity": false
        },
        {
            "lon": -77.01,
            "lat": -12.0728,
            "school_name": "REYNA SOFIA",
            "country_name": "Peru",
            "connectivity": false
        },
        {
            "lon": -79.0097,
            "lat": -8.09469,
            "school_name": "SAN FRANCISCO DE SALES",
            "country_name": "Peru",
            "connectivity": false
        },
        {
            "lon": -76.9309,
            "lat": -12.0121,
            "school_name": "SAN GERARDO",
            "country_name": "Peru",
            "connectivity": false
        },
        {
            "lon": -77.0961,
            "lat": -12.0104,
            "school_name": "SAN MARCOS",
            "country_name": "Peru",
            "connectivity": false
        },
        {
            "lon": -78.932,
            "lat": -5.35306,
            "school_name": "SEMILLITAS DEL FUTURO",
            "country_name": "Peru",
            "connectivity": false
        },
        {
            "lon": -71.5787,
            "lat": -16.3942,
            "school_name": "SEMIRURAL PACHACUTEC B",
            "country_name": "Peru",
            "connectivity": false
        },
        {
            "lon": -79.9358,
            "lat": -6.49642,
            "school_name": "SONRISITAS DE JESUS",
            "country_name": "Peru",
            "connectivity": false
        },
        {
            "lon": 9.1120071,
            "lat": 12.4445829,
            "school_name": "Name unknown",
            "country_name": "Nigeria",
            "connectivity": false
        },
        {
            "lon": 9.468564,
            "lat": 11.7055779,
            "school_name": "Name unknown",
            "country_name": "Nigeria",
            "connectivity": false
        },
        {
            "lon": 9.5858631,
            "lat": 11.7786198,
            "school_name": "Name unknown",
            "country_name": "Nigeria",
            "connectivity": false
        },
        {
            "lon": 9.5914755,
            "lat": 11.833437,
            "school_name": "Name unknown",
            "country_name": "Nigeria",
            "connectivity": false
        },
        {
            "lon": 9.4903355,
            "lat": 11.9932089,
            "school_name": "Name unknown",
            "country_name": "Nigeria",
            "connectivity": false
        },
        {
            "lon": 6.83635835,
            "lat": 11.08525556,
            "school_name": "Name unknown",
            "country_name": "Nigeria",
            "connectivity": false
        },
        {
            "lon": 7.45109856,
            "lat": 10.4697539,
            "school_name": "Name unknown",
            "country_name": "Nigeria",
            "connectivity": false
        },
        {
            "lon": 7.44344377,
            "lat": 10.47417633,
            "school_name": "Name unknown",
            "country_name": "Nigeria",
            "connectivity": false
        },
        {
            "lon": 7.41719203,
            "lat": 10.75230239,
            "school_name": "Name unknown",
            "country_name": "Nigeria",
            "connectivity": false
        },
        {
            "lon": 8.326499462,
            "lat": 9.587867261,
            "school_name": "Name unknown",
            "country_name": "Nigeria",
            "connectivity": false
        },
        {
            "lon": 7.758278847,
            "lat": 11.33635104,
            "school_name": "Name unknown",
            "country_name": "Nigeria",
            "connectivity": false
        },
        {
            "lon": 8.201044,
            "lat": 11.94641,
            "school_name": "Name unknown",
            "country_name": "Nigeria",
            "connectivity": false
        },
        {
            "lon": 8.764574,
            "lat": 11.26348,
            "school_name": "Name unknown",
            "country_name": "Nigeria",
            "connectivity": false
        },
        {
            "lon": 8.10464,
            "lat": 11.95417,
            "school_name": "Name unknown",
            "country_name": "Nigeria",
            "connectivity": false
        },
        {
            "lon": 11.865705,
            "lat": 9.766731,
            "school_name": "Name unknown",
            "country_name": "Nigeria",
            "connectivity": false
        },
        {
            "lon": 12.395611,
            "lat": 9.78351,
            "school_name": "Name unknown",
            "country_name": "Nigeria",
            "connectivity": false
        },
        {
            "lon": 6.150568,
            "lat": 7.473534,
            "school_name": "Name unknown",
            "country_name": "Nigeria",
            "connectivity": false
        },
        {
            "lon": 3.187846,
            "lat": 9.245597,
            "school_name": "Name unknown",
            "country_name": "Nigeria",
            "connectivity": false
        },
        {
            "lon": 3.27017,
            "lat": 6.52874,
            "school_name": "Name unknown",
            "country_name": "Nigeria",
            "connectivity": false
        },
        {
            "lon": 3.24451,
            "lat": 6.52166,
            "school_name": "Name unknown",
            "country_name": "Nigeria",
            "connectivity": false
        },
        {
            "lon": 3.242857898,
            "lat": 6.637420074,
            "school_name": "Name unknown",
            "country_name": "Nigeria",
            "connectivity": false
        },
        {
            "lon": 7.504353333,
            "lat": 4.696418333,
            "school_name": "Name unknown",
            "country_name": "Nigeria",
            "connectivity": false
        },
        {
            "lon": 4.159765787,
            "lat": 6.486957031,
            "school_name": "Name unknown",
            "country_name": "Nigeria",
            "connectivity": false
        },
        {
            "lon": 3.627055,
            "lat": 6.472718,
            "school_name": "Name unknown",
            "country_name": "Nigeria",
            "connectivity": false
        },
        {
            "lon": 3.333283766,
            "lat": 6.636843029,
            "school_name": "Name unknown",
            "country_name": "Nigeria",
            "connectivity": false
        },
        {
            "lon": 3.65835,
            "lat": 6.60142,
            "school_name": "Name unknown",
            "country_name": "Nigeria",
            "connectivity": false
        },
        {
            "lon": 3.374222741,
            "lat": 6.571145556,
            "school_name": "Name unknown",
            "country_name": "Nigeria",
            "connectivity": false
        },
        {
            "lon": 3.395631597,
            "lat": 6.552475983,
            "school_name": "Name unknown",
            "country_name": "Nigeria",
            "connectivity": false
        },
        {
            "lon": 3.369866,
            "lat": 6.569296,
            "school_name": "Name unknown",
            "country_name": "Nigeria",
            "connectivity": false
        },
        {
            "lon": 3.17156,
            "lat": 6.503055,
            "school_name": "Name unknown",
            "country_name": "Nigeria",
            "connectivity": false
        },
        {
            "lon": 3.336142,
            "lat": 6.56673,
            "school_name": "Name unknown",
            "country_name": "Nigeria",
            "connectivity": false
        },
        {
            "lon": 9.194203,
            "lat": 8.187649,
            "school_name": "Name unknown",
            "country_name": "Nigeria",
            "connectivity": false
        },
        {
            "lon": 8.359817,
            "lat": 8.408037,
            "school_name": "Name unknown",
            "country_name": "Nigeria",
            "connectivity": false
        },
        {
            "lon": 6.40157269,
            "lat": 10.4123626,
            "school_name": "Name unknown",
            "country_name": "Nigeria",
            "connectivity": false
        },
        {
            "lon": 7.175018333,
            "lat": 9.19192,
            "school_name": "Name unknown",
            "country_name": "Nigeria",
            "connectivity": false
        },