{
    "name": "Patchwork Kingdom #672 | Drumgaros",
    "description": "The twin kingdoms of Drumgaros, separated by a digital divide. A bustling kingdom of 108 schools on top that are all connected to the internet, and 101 schools, not connected, hidden in the upside down kingdom | Created for Giga (GigaConnect.org) \u2014 connecting every school in the world \u2014 in celebration of UNICEF's 75th birthday, by Nadieh Bremer",
    "external_url": "https://dummyURL.com/patchwork_kingdoms_672",
    "image": "https://dummy-storage-url.com/patchwork_kingdoms_672.png",
    "attributes": [
        {
            "trait_type": "Color palette",
            "value": "narwal"
        },
        {
            "display_type": "number",
            "trait_type": "Schools",
            "value": 226,
            "max_value": 460
        },
        {
            "display_type": "number",
            "trait_type": "Ratio - Connected",
            "value": 0.48,
            "max_value": 1
        },
        {
            "display_type": "number",
            "trait_type": "Ratio - Unconnected",
            "value": 0.45,
            "max_value": 1
        },
        {
            "display_type": "number",
            "trait_type": "Ratio - Data unavailable",
            "value": 0.08,
            "max_value": 1
        },
        {
            "trait_type": "Countries",
            "value": "BJ-BR-CO-CR-GD-HN-KG-KZ-NA-PH-PS-RW-SL-ZW"
        },
        {
            "display_type": "number",
            "trait_type": "Symbols",
            "value": 41,
            "max_value": 51
        }
    ],
    "cluster_id": 672,
    "num_schools": 226,
    "num_schools_connected": 108,
    "num_schools_unconnected": 101,
    "num_schools_unknown": 17,
    "schools": [
        {
            "lon": -51.0636,
            "lat": -30.0926,
            "school_name": "EMEF FARROUPILHA",
            "country_name": "Brazil",
            "connectivity": true
        },
        {
            "lon": -87.20817,
            "lat": 15.74909,
            "school_name": "PRIMERO DE OCTUBRE",
            "country_name": "Honduras",
            "connectivity": true
        },
        {
            "lon": -87.66142,
            "lat": 13.85376,
            "school_name": "ROSA MABEL AMAYA DE GOMEZ",
            "country_name": "Honduras",
            "connectivity": true
        },
        {
            "lon": -87.85326,
            "lat": 14.41,
            "school_name": "LA INDEPENDENCIA",
            "country_name": "Honduras",
            "connectivity": true
        },
        {
            "lon": -88.65367,
            "lat": 14.7899,
            "school_name": "JOSE NEPTALY PEREZ",
            "country_name": "Honduras",
            "connectivity": true
        },
        {
            "lon": -88.48214,
            "lat": 14.8258,
            "school_name": "EL TRIUNFO",
            "country_name": "Honduras",
            "connectivity": true
        },
        {
            "lon": -88.62328,
            "lat": 15.2244,
            "school_name": "ESPERANZA MEJIA  DE REGALADO",
            "country_name": "Honduras",
            "connectivity": true
        },
        {
            "lon": -49.1552,
            "lat": -25.354,
            "school_name": "LUA DE CRISTAL C M E I",
            "country_name": "Brazil",
            "connectivity": true
        },
        {
            "lon": -51.1299,
            "lat": -23.3103,
            "school_name": "DURVALINA P O DE ASSIS C M E I",
            "country_name": "Brazil",
            "connectivity": true
        },
        {
            "lon": -88.22978,
            "lat": 15.14091,
            "school_name": "JESUS REGALADO",
            "country_name": "Honduras",
            "connectivity": true
        },
        {
            "lon": -87.4636,
            "lat": 13.44602,
            "school_name": "PAPY LEOPOLDO BONILLA",
            "country_name": "Honduras",
            "connectivity": true
        },
        {
            "lon": -87.26701,
            "lat": 15.21414,
            "school_name": "FRANCISCO MORAZAN",
            "country_name": "Honduras",
            "connectivity": true
        },
        {
            "lon": -85.79388,
            "lat": 15.77786,
            "school_name": "JESUS AGUILAR PAZ",
            "country_name": "Honduras",
            "connectivity": true
        },
        {
            "lon": -87.85218,
            "lat": 14.52325,
            "school_name": "14 DE FEBRERO",
            "country_name": "Honduras",
            "connectivity": true
        },
        {
            "lon": -43.6402,
            "lat": -22.921,
            "school_name": "1019006 ESCOLA MUNICIPAL VIVALDO RAMOS DE VASCONCELOS",
            "country_name": "Brazil",
            "connectivity": true
        },
        {
            "lon": -88.14648,
            "lat": 15.40453,
            "school_name": "GRACIAS A DIOS",
            "country_name": "Honduras",
            "connectivity": true
        },
        {
            "lon": -51.9285,
            "lat": -19.7359,
            "school_name": "CEINF - MARGARIDA TOMAZIA DE PAULA - VO NONA",
            "country_name": "Brazil",
            "connectivity": true
        },
        {
            "lon": -88.03551,
            "lat": 14.94383,
            "school_name": "TERESA MOREJON DE BOGRAN",
            "country_name": "Honduras",
            "connectivity": true
        },
        {
            "lon": -87.18872,
            "lat": 13.27264,
            "school_name": "JOSE SANTOS MATUTE",
            "country_name": "Honduras",
            "connectivity": true
        },
        {
            "lon": -87.1766,
            "lat": 14.05429,
            "school_name": "JOSE RAFAEL FERRARI",
            "country_name": "Honduras",
            "connectivity": true
        },
        {
            "lon": -87.38709,
            "lat": 14.25354,
            "school_name": "15 DE AGOSTO",
            "country_name": "Honduras",
            "connectivity": true
        },
        {
            "lon": -87.19576,
            "lat": 14.84528,
            "school_name": "DIONISIO DE HERRERA",
            "country_name": "Honduras",
            "connectivity": true
        },
        {
            "lon": 30.85191,
            "lat": -17.1244,
            "school_name": "LUCKNOW",
            "country_name": "Zimbabwe",
            "connectivity": true
        },
        {
            "lon": -48.5456,
            "lat": -27.6125,
            "school_name": "EEB JUREMA CAVALLAZZI",
            "country_name": "Brazil",
            "connectivity": true
        },
        {
            "lon": -43.5175,
            "lat": -20.3974,
            "school_name": "EM TOMAS ANTONIO GONZAGA",
            "country_name": "Brazil",
            "connectivity": true
        },
        {
            "lon": -84.0891548,
            "lat": 9.93631971,
            "school_name": "J.N. JUAN RAFAEL MORA",
            "country_name": "Costa Rica",
            "connectivity": true
        },
        {
            "lon": -83.75884995,
            "lat": 9.48718086,
            "school_name": "SANTA EDUVIGES",
            "country_name": "Costa Rica",
            "connectivity": true
        },
        {
            "lon": -85.70309923,
            "lat": 9.99804051,
            "school_name": "OSTIONAL",
            "country_name": "Costa Rica",
            "connectivity": true
        },
        {
            "lon": -85.18214688,
            "lat": 9.92348141,
            "school_name": "CUAJINIQUIL",
            "country_name": "Costa Rica",
            "connectivity": true
        },
        {
            "lon": -82.91353915,
            "lat": 8.85932465,
            "school_name": "PUEBLO NUEVO",
            "country_name": "Costa Rica",
            "connectivity": true
        },
        {
            "lon": 35.256907,
            "lat": 31.775299,
            "school_name": "alezareh alnmothajeh basic school",
            "country_name": "Palestine",
            "connectivity": true
        },
        {
            "lon": 35.066024,
            "lat": 31.659393,
            "school_name": "elfaruqe secondary girls",
            "country_name": "Palestine",
            "connectivity": true
        },
        {
            "lon": -56.393394,
            "lat": -20.240084,
            "school_name": "CENTRO DE EDUCACAO INFANTIL VO EMILIANA",
            "country_name": "Brazil",
            "connectivity": false
        },
        {
            "lon": 30.90418,
            "lat": -20.27795,
            "school_name": "NEMANWA (CHIRICHOGA)",
            "country_name": "Zimbabwe",
            "connectivity": true
        },
        {
            "lon": -56.3403,
            "lat": -14.7218,
            "school_name": "CEBM MARIA HONORATA DE CAMPOS",
            "country_name": "Brazil",
            "connectivity": true
        },
        {
            "lon": -61.61824,
            "lat": 12.12706,
            "school_name": "Telescope Pre",
            "country_name": "Grenada",
            "connectivity": true
        },
        {
            "lon": -75.56490823,
            "lat": 6.251827937,
            "school_name": "Name unknown",
            "country_name": "Colombia",
            "connectivity": false
        },
        {
            "lon": 13.521732,
            "lat": -17.576652,
            "school_name": "Epembe PS",
            "country_name": "Namibia",
            "connectivity": false
        },
        {
            "lon": 121.302666,
            "lat": 13.325871,
            "school_name": "Jose L. Basa Memorial School",
            "country_name": "Philippines",
            "connectivity": true
        },
        {
            "lon": 122.2919692,
            "lat": 12.57501605,
            "school_name": "Li-O ES",
            "country_name": "Philippines",
            "connectivity": true
        },
        {
            "lon": 123.50014,
            "lat": 13.642025,
            "school_name": "Abo E.S",
            "country_name": "Philippines",
            "connectivity": true
        },
        {
            "lon": 122.9400087,
            "lat": 9.474670377,
            "school_name": "Ballacag ES",
            "country_name": "Philippines",
            "connectivity": true
        },
        {
            "lon": 123.130874,
            "lat": 9.73095,
            "school_name": "Batangan ES",
            "country_name": "Philippines",
            "connectivity": true
        },
        {
            "lon": 124.176251,
            "lat": 10.12967,
            "school_name": "Campao Occ. PS",
            "country_name": "Philippines",
            "connectivity": true
        },
        {
            "lon": 123.612244,
            "lat": 9.174169,
            "school_name": "Capalasanan Elementary School",
            "country_name": "Philippines",
            "connectivity": true
        },
        {
            "lon": 125.0323105,
            "lat": 12.37093981,
            "school_name": "Geguinta ES",
            "country_name": "Philippines",
            "connectivity": true
        },
        {
            "lon": 123.176254,
            "lat": 7.793997,
            "school_name": "Limamawan IPS",
            "country_name": "Philippines",
            "connectivity": true
        },
        {
            "lon": 125.750114,
            "lat": 7.59444,
            "school_name": "San Vicente ES",
            "country_name": "Philippines",
            "connectivity": true
        },
        {
            "lon": 125.57386,
            "lat": 9.538971,
            "school_name": "Siana ES",
            "country_name": "Philippines",
            "connectivity": true
        },
        {
            "lon": 121.3822327,
            "lat": 17.61111258,
            "school_name": "Liplipoken PS",
            "country_name": "Philippines",
            "connectivity": true
        },
        {
            "lon": 122.5979671,
            "lat": 13.92239638,
            "school_name": "Del Gallego NHS",
            "country_name": "Philippines",
            "connectivity": true
        },
        {
            "lon": -47.008366,
            "lat": -18.935268,
            "school_name": "PROJETO GURI",
            "country_name": "Brazil",
            "connectivity": true
        },
        {
            "lon": -44.2026,
            "lat": -22.510448,
            "school_name": "CE VILA MARIA",
            "country_name": "Brazil",
            "connectivity": true
        },
        {
            "lon": -44.741646,
            "lat": -23.234297,
            "school_name": "E M PARQUE DA MANGUEIRA",
            "country_name": "Brazil",
            "connectivity": true
        },
        {
            "lon": -89.2905,
            "lat": 14.48371,
            "school_name": "DR. MODESTO RODAS ALVARADO",
            "country_name": "Honduras",
            "connectivity": true
        },
        {
            "lon": -72.661667,
            "lat": 1.971389,
            "school_name": "DIAMANTE DOS",
            "country_name": "Colombia",
            "connectivity": true
        },
        {
            "lon": -72.61474592,
            "lat": 7.72954496,
            "school_name": "SEDE OROPE",
            "country_name": "Colombia",
            "connectivity": true
        },
        {
            "lon": -72.85778039,
            "lat": 7.845640704,
            "school_name": "SEDE BUENAVISTA",
            "country_name": "Colombia",
            "connectivity": true
        },
        {
            "lon": -73.1275,
            "lat": 3.89,
            "school_name": "SEDE DIVINO NI\u00d1O",
            "country_name": "Colombia",
            "connectivity": true
        },
        {
            "lon": -73.09549377,
            "lat": 7.746640254,
            "school_name": "SEDE LA CARAMBA",
            "country_name": "Colombia",
            "connectivity": true
        },
        {
            "lon": -73.095,
            "lat": 7.371944444,
            "school_name": "ESCUELA RURAL MAVEDA",
            "country_name": "Colombia",
            "connectivity": true
        },
        {
            "lon": -73.205673,
            "lat": 5.017563,
            "school_name": "ESC CENTRO",
            "country_name": "Colombia",
            "connectivity": true
        },
        {
            "lon": -72.93427778,
            "lat": 11.531885,
            "school_name": "LAS DELICIAS",
            "country_name": "Colombia",
            "connectivity": true
        },
        {
            "lon": -73.15921651,
            "lat": 10.13309515,
            "school_name": "ESC. NUEVA LA BELLEZA",
            "country_name": "Colombia",
            "connectivity": true
        },
        {
            "lon": -73.65038922,
            "lat": 5.660799603,
            "school_name": "IE PEDREGAL ALTO - SEDE PRINCIPAL",
            "country_name": "Colombia",
            "connectivity": true
        },
        {
            "lon": -73.65864287,
            "lat": 8.691607149,
            "school_name": "ESC. FRANCISCO CANOSSA",
            "country_name": "Colombia",
            "connectivity": true
        },
        {
            "lon": -74.14487302,
            "lat": 7.928687579,
            "school_name": "LA PRADERA",
            "country_name": "Colombia",
            "connectivity": true
        },
        {
            "lon": -74.48475833,
            "lat": 2.575183333,
            "school_name": "EL GUADUAS",
            "country_name": "Colombia",
            "connectivity": true
        },
        {
            "lon": -75.04637016,
            "lat": 9.157455871,
            "school_name": "INST EDUC ANTONIO NARI\u00d1O",
            "country_name": "Colombia",
            "connectivity": true
        },
        {
            "lon": -75.536643,
            "lat": 4.964338,
            "school_name": "ESCUELA RURAL BAJO VILLARAZO",
            "country_name": "Colombia",
            "connectivity": true
        },
        {
            "lon": -75.518889,
            "lat": 5.554444,
            "school_name": "ESCUELA RURAL ARRIETA",
            "country_name": "Colombia",
            "connectivity": true
        },
        {
            "lon": -76.32190862,
            "lat": 8.847079258,
            "school_name": "CENT EDUC COREA",
            "country_name": "Colombia",
            "connectivity": true
        },
        {
            "lon": -76.621667,
            "lat": 8.368889,
            "school_name": "I. E. R. TULAPITA",
            "country_name": "Colombia",
            "connectivity": true
        },
        {
            "lon": -62.0192,
            "lat": -10.1974,
            "school_name": "EMEIEF JORGE TEIXEIRA",
            "country_name": "Brazil",
            "connectivity": true
        },
        {
            "lon": -60.1997,
            "lat": -3.4926,
            "school_name": "ESCOLA MUNICIPAL NOVA JERUSALEM II",
            "country_name": "Brazil",
            "connectivity": false
        },
        {
            "lon": -47.0117,
            "lat": -1.6933,
            "school_name": "E M E I F SAO JOSE DE RIBAMAR",
            "country_name": "Brazil",
            "connectivity": false
        },
        {
            "lon": -50.3166,
            "lat": -0.6123,
            "school_name": "EMEF NSRA DE NAZARE DO BAIXO - ANEXA",
            "country_name": "Brazil",
            "connectivity": false
        },
        {
            "lon": -55.7021,
            "lat": -2.6628,
            "school_name": "E M E F DEUS E AMOR",
            "country_name": "Brazil",
            "connectivity": false
        },
        {
            "lon": -54.9009,
            "lat": -2.6582,
            "school_name": "E M E I SAO JOSE",
            "country_name": "Brazil",
            "connectivity": false
        },
        {
            "lon": -47.523,
            "lat": -5.5904,
            "school_name": "ESC MUL PESO DURO",
            "country_name": "Brazil",
            "connectivity": true
        },
        {
            "lon": -47.9358,
            "lat": -19.7693,
            "school_name": "EE BOULANGER PUCCI",
            "country_name": "Brazil",
            "connectivity": true
        },
        {
            "lon": -45.1824,
            "lat": -3.2537,
            "school_name": "UE ACIOLINO BARBOSA COSTA",
            "country_name": "Brazil",
            "connectivity": false
        },
        {
            "lon": -45.854,
            "lat": -3.5258,
            "school_name": "EMEB FREI DAMIAO",
            "country_name": "Brazil",
            "connectivity": false
        },
        {
            "lon": -46.6247,
            "lat": -6.9975,
            "school_name": "EM GOVERNADOR LUIS ROCHA",
            "country_name": "Brazil",
            "connectivity": false
        },
        {
            "lon": -46.483,
            "lat": -4.191,
            "school_name": "CENTRO DE ENSINO MARIA JOSE PORTELA",
            "country_name": "Brazil",
            "connectivity": true
        },
        {
            "lon": -42.8076,
            "lat": -5.0287,
            "school_name": "CETI PEQUENA RUBIM",
            "country_name": "Brazil",
            "connectivity": true
        },
        {
            "lon": -40.6121,
            "lat": -6.8342,
            "school_name": "ESCOLINHA DONA ANITA TELES",
            "country_name": "Brazil",
            "connectivity": true
        },
        {
            "lon": -43.9302,
            "lat": -7.2626,
            "school_name": "ESCOLA MUNICIPAL PROF",
            "country_name": "Brazil",
            "connectivity": true
        },
        {
            "lon": -40.6345,
            "lat": -3.1968,
            "school_name": "OLIVEIRA DR EEIF",
            "country_name": "Brazil",
            "connectivity": false
        },
        {
            "lon": -38.5189,
            "lat": -3.8314,
            "school_name": "ESCOLA MUNICIPAL PROFESSOR FRANCISCO DE MELO JABORANDI",
            "country_name": "Brazil",
            "connectivity": true
        },
        {
            "lon": -40.7676,
            "lat": -4.1578,
            "school_name": "JOSE FLORENCIO SOARES EEF",
            "country_name": "Brazil",
            "connectivity": true
        },
        {
            "lon": -39.1498,
            "lat": -5.2918,
            "school_name": "EEM GUILHERME CORREIA LIMA",
            "country_name": "Brazil",
            "connectivity": true
        },
        {
            "lon": -38.2658,
            "lat": -6.4126,
            "school_name": "UNIDADE DE ENSINO FRANCISCA MARIA FILHA",
            "country_name": "Brazil",
            "connectivity": false
        },
        {
            "lon": -36.103,
            "lat": -5.579,
            "school_name": "EMEF JOAO BANDEIRA SOBRINHO",
            "country_name": "Brazil",
            "connectivity": true
        },
        {
            "lon": -35.3979,
            "lat": -6.1386,
            "school_name": "CRECHE MENINO SAPECA DO COMUM",
            "country_name": "Brazil",
            "connectivity": true
        },
        {
            "lon": -37.4475,
            "lat": -6.5061,
            "school_name": "EMEIEF AFONSO MANOEL DA SILVA",
            "country_name": "Brazil",
            "connectivity": true
        },
        {
            "lon": -35.6539,
            "lat": -6.7565,
            "school_name": "CRECHE ADELIA ARAUJO DE MELO",
            "country_name": "Brazil",
            "connectivity": false
        },
        {
            "lon": -35.1496,
            "lat": -6.8345,
            "school_name": "ESCOLA MUNICIPAL DE EF DA COMUNIDADE PEDRA",
            "country_name": "Brazil",
            "connectivity": false
        },
        {
            "lon": -39.9387,
            "lat": -7.7794,
            "school_name": "ESCOLA MUL ALMIRANTE BARROSO",
            "country_name": "Brazil",
            "connectivity": false
        },
        {
            "lon": -39.8072,
            "lat": -8.4267,
            "school_name": "ESCOLA MUNICIPAL PALMA",
            "country_name": "Brazil",
            "connectivity": false
        },
        {
            "lon": -36.174,
            "lat": -8.9398,
            "school_name": "GRUPO ESC MUL MENINO JESUS DE NAZARE",
            "country_name": "Brazil",
            "connectivity": false
        },
        {
            "lon": -40.1222,
            "lat": -9.0828,
            "school_name": "ESCOLA MUNICIPAL PRUDENTE DE MORAES",
            "country_name": "Brazil",
            "connectivity": false
        },
        {
            "lon": -36.4958,
            "lat": -9.6211,
            "school_name": "ESCOLA MUNICIPAL DE EDUCACAO BASICA MARECHAL DEODORO DA FONSECA",
            "country_name": "Brazil",
            "connectivity": false
        },
        {
            "lon": -35.7246,
            "lat": -8.9133,
            "school_name": "ESCOLA DE ENSINO FUNDAMENTAL ALFREDO DE PAULA CAVALCANTE",
            "country_name": "Brazil",
            "connectivity": true
        },
        {
            "lon": -37.0561,
            "lat": -10.912,
            "school_name": "EMEF DOM JOSE VICENTE TAVORA",
            "country_name": "Brazil",
            "connectivity": true
        },
        {
            "lon": -38.5356,
            "lat": -11.4175,
            "school_name": "ESCOLA MUNICIPAL JOAO CARNEIRO DA CRUZ",
            "country_name": "Brazil",
            "connectivity": true
        },
        {
            "lon": -38.9473,
            "lat": -12.9986,
            "school_name": "ESC ANTONIO DIAS BARRETO",
            "country_name": "Brazil",
            "connectivity": false
        },
        {
            "lon": -41.5025,
            "lat": -12.8281,
            "school_name": "ESCOLA MUNICIPAL ANDRE JOSE DE CARVALHO",
            "country_name": "Brazil",
            "connectivity": false
        },
        {
            "lon": -39.7807,
            "lat": -16.5826,
            "school_name": "ESCOLA MUNICIPAL MONTE CASTELO",
            "country_name": "Brazil",
            "connectivity": false
        },
        {
            "lon": -41.1036,
            "lat": -10.522,
            "school_name": "COLEGIO MUNICIPAL JOANA MARIA DA CRUZ",
            "country_name": "Brazil",
            "connectivity": true
        },
        {
            "lon": -43.9169,
            "lat": -20.046,
            "school_name": "EM RUBEM COSTA LIMA",
            "country_name": "Brazil",
            "connectivity": true
        },
        {
            "lon": -43.1839,
            "lat": -20.4813,
            "school_name": "EM DE CALDEIROES",
            "country_name": "Brazil",
            "connectivity": true
        },
        {
            "lon": -42.9695,
            "lat": -19.4083,
            "school_name": "EE LEANDRO JOSE GUEDES",
            "country_name": "Brazil",
            "connectivity": false
        },
        {
            "lon": -36.6289,
            "lat": -9.4047,
            "school_name": "ESCOLA MUNICIPAL MARCELLA SONNEMANS",
            "country_name": "Brazil",
            "connectivity": true
        },
        {
            "lon": -40.9368,
            "lat": -17.0865,
            "school_name": "EM ARGENTINA",
            "country_name": "Brazil",
            "connectivity": false
        },
        {
            "lon": -48.2313,
            "lat": -18.8796,
            "school_name": "EE PRESIDENTE JUSCELINO KUBITSCHEK",
            "country_name": "Brazil",
            "connectivity": true
        },
        {
            "lon": -49.7186,
            "lat": -24.2601,
            "school_name": "JOSE DE ANCHIETA C E PE EF M",
            "country_name": "Brazil",
            "connectivity": true
        },
        {
            "lon": -36.6091,
            "lat": -10.2913,
            "school_name": "ESCOLA MUNICIPAL AFONSO DE OLIVEIRA FORTES",
            "country_name": "Brazil",
            "connectivity": true
        },
        {
            "lon": -43.6745,
            "lat": -22.5431,
            "school_name": "ESCOLA ESTADUAL MUNICIPALIZADA ANTONIO MAURICIO",
            "country_name": "Brazil",
            "connectivity": false
        },
        {
            "lon": -43.893,
            "lat": -22.6262,
            "school_name": "CRECHE MUNICIPAL KELMA TAVARES FAJARDO REIS",
            "country_name": "Brazil",
            "connectivity": true
        },
        {
            "lon": -46.4487,
            "lat": -23.6887,
            "school_name": "EM VEREADOR ALBERTO BETAO PEREIRA JUSTINO",
            "country_name": "Brazil",
            "connectivity": true
        },
        {
            "lon": -47.7834,
            "lat": -21.1861,
            "school_name": "AMELIA SOFIA RODRIGUES DA COSTA EMEI",
            "country_name": "Brazil",
            "connectivity": true
        },
        {
            "lon": -47.0934,
            "lat": -22.8211,
            "school_name": "CHRISTIANO OSORIO DE OLIVEIRA CEI",
            "country_name": "Brazil",
            "connectivity": true
        },
        {
            "lon": -46.4647,
            "lat": -23.9848,
            "school_name": "JORGE BIERRENBACH SENRA PREFEITO EMEF",
            "country_name": "Brazil",
            "connectivity": true
        },
        {
            "lon": -50.8737,
            "lat": -21.2307,
            "school_name": "WALDEMAR ALVES EMEI CRECHE",
            "country_name": "Brazil",
            "connectivity": true
        },
        {
            "lon": -46.5271,
            "lat": -23.5749,
            "school_name": "CEI DIRET GABRIEL NOGUEIRA DE QUADROS VER",
            "country_name": "Brazil",
            "connectivity": true
        },
        {
            "lon": -48.4336,
            "lat": -24.5423,
            "school_name": "BAIRRO GALVAO EMEIF",
            "country_name": "Brazil",
            "connectivity": false
        },
        {
            "lon": -48.0191,
            "lat": -23.5945,
            "school_name": "IFSP - CAMPUS ITAPETININGA",
            "country_name": "Brazil",
            "connectivity": true
        },
        {
            "lon": -48.5934,
            "lat": -24.2507,
            "school_name": "TOSHIMARO KACUTA COMENDADOR",
            "country_name": "Brazil",
            "connectivity": false
        },
        {
            "lon": -44.2079,
            "lat": -13.3883,
            "school_name": "ESCOLA MUNICIPAL SEN JOSAPHAT MARINHO",
            "country_name": "Brazil",
            "connectivity": true
        },
        {
            "lon": -40.2965,
            "lat": -11.0173,
            "school_name": "ESCOLA MUNICIPAL INFANTIL JEAN PIAGET",
            "country_name": "Brazil",
            "connectivity": true
        },
        {
            "lon": -46.4534,
            "lat": -23.6582,
            "school_name": "ANTONIO LAPATE NETTO PROFESSOR",
            "country_name": "Brazil",
            "connectivity": true
        },
        {
            "lon": -51.2064,
            "lat": -24.7127,
            "school_name": "AREIAO II E M C EF",
            "country_name": "Brazil",
            "connectivity": false
        },
        {
            "lon": -49.2582,
            "lat": -25.5336,
            "school_name": "COQUEIROS C M E I",
            "country_name": "Brazil",
            "connectivity": true
        },
        {
            "lon": -49.1331,
            "lat": -27.658,
            "school_name": "ESCOLA MUNICIPAL ALTAMIRO DINIZ",
            "country_name": "Brazil",
            "connectivity": true
        },
        {
            "lon": -49.6439,
            "lat": -27.3829,
            "school_name": "CENTRO EDUCACIONAL NOVA ITALIA",
            "country_name": "Brazil",
            "connectivity": false
        },
        {
            "lon": -49.8709,
            "lat": -27.1243,
            "school_name": "CENTRO DE EDUCACAO INFANTIL PROFESSOR ERNESTO RONCHI",
            "country_name": "Brazil",
            "connectivity": true
        },
        {
            "lon": -51.3276,
            "lat": -29.6801,
            "school_name": "ESC MUN ENS FUN PADRE JOAO INACIO DE MELLO",
            "country_name": "Brazil",
            "connectivity": true
        },
        {
            "lon": -54.7538,
            "lat": -18.5079,
            "school_name": "EE VIRIATO BANDEIRA",
            "country_name": "Brazil",
            "connectivity": true
        },
        {
            "lon": -48.4269,
            "lat": -14.4593,
            "school_name": "ESC MUL PE VALENTIM RODRIGUES",
            "country_name": "Brazil",
            "connectivity": true
        },
        {
            "lon": -40.6911,
            "lat": -18.6348,
            "school_name": "EMPEFEI ANTONIO MOREIRA",
            "country_name": "Brazil",
            "connectivity": true
        },
        {
            "lon": -49.123,
            "lat": -5.3641,
            "school_name": "E M E F ACY DE JESUS NEVES DE BARROS PEREIRA",
            "country_name": "Brazil",
            "connectivity": true
        },
        {
            "lon": -50.4177,
            "lat": -26.97,
            "school_name": "ESCOLA DE JOVENS E ADULTOS DE SANTA CECILIA - EJASC",
            "country_name": "Brazil",
            "connectivity": true
        },
        {
            "lon": -51.1457,
            "lat": -23.3049,
            "school_name": "ANITA GARIBALDI E M EF",
            "country_name": "Brazil",
            "connectivity": true
        },
        {
            "lon": -49.8043,
            "lat": -23.8713,
            "school_name": "MILTON BENNER C E PROF EF M",
            "country_name": "Brazil",
            "connectivity": true
        },
        {
            "lon": -46.6458,
            "lat": -1.0249,
            "school_name": "E M E F ZENILDE PEREIRA DA SILVA",
            "country_name": "Brazil",
            "connectivity": true
        },
        {
            "lon": -39.2517,
            "lat": -12.4307,
            "school_name": "ESCOLA MUNICIPAL MARIZELIA DE JESUS ROCHA LEAL",
            "country_name": "Brazil",
            "connectivity": true
        },
        {
            "lon": -34.8393,
            "lat": -7.074,
            "school_name": "EMEF EM TEMPO INTEGRAL CHICO XAVIER",
            "country_name": "Brazil",
            "connectivity": true
        }
    ],
    "num_countries": 14,
    "countries": [
        "Benin",
        "Brazil",
        "Colombia",
        "Costa Rica",
        "Grenada",
        "Honduras",
        "Kazakhstan",
        "Kyrgyzstan",
        "Namibia",
        "Palestine",
        "Philippines",
        "Rwanda",
        "Sierra Leone",
        "Zimbabwe"
    ],
    "schools_no_data": [
        {
            "lon": -9.898747,
            "lat": 6.267726,
            "school_name": "Kpelleh Town Public",
            "country_name": "Liberia",
            "connectivity": false
        },
        {
            "lon": -65.41102538,
            "lat": -32.31398017,
            "school_name": "ESC. N\u00b0 409 GRANADERO MARCELINO RODRIGUEZ",
            "country_name": "Argentina",
            "connectivity": false
        },
        {
            "lon": 30.38500972,
            "lat": 19.73339857,
            "school_name": "Name unknown",
            "country_name": "Sudan",
            "connectivity": false
        },
        {
            "lon": 33.6218845666667,
            "lat": 15.04995715,
            "school_name": "Name unknown",
            "country_name": "Sudan",
            "connectivity": false
        },
        {
            "lon": 32.82436195,
            "lat": 13.6479054333333,
            "school_name": "Name unknown",
            "country_name": "Sudan",
            "connectivity": false
        },
        {
            "lon": 22.016172,
            "lat": 42.583578,
            "school_name": "\u041a\u0440\u0430\u0459 \u041f\u0435\u0442\u0430\u0440 \u0418 \u041e\u0441\u043b\u043e\u0431\u043e\u0434\u0438\u043b\u0430\u0446",
            "country_name": "Serbia",
            "connectivity": false
        },
        {
            "lon": 23.11481752,
            "lat": 11.94242952,
            "school_name": "Name unknown",
            "country_name": "Sudan",
            "connectivity": false
        },
        {
            "lon": -1.9468761,
            "lat": 7.3935357,
            "school_name": "Name unknown",
            "country_name": "Ghana",
            "connectivity": false
        },
        {
            "lon": -0.9707397,
            "lat": 7.7407225,
            "school_name": "Name unknown",
            "country_name": "Ghana",
            "connectivity": false
        },
        {
            "lon": 37.53149,
            "lat": -3.29325,
            "school_name": "KIRARACHA",
            "country_name": "United Republic of Tanzania",
            "connectivity": false
        },
        {
            "lon": 38.48105,
            "lat": -11.1445,
            "school_name": "LIUNGA",
            "country_name": "United Republic of Tanzania",
            "connectivity": false
        },
        {
            "lon": 38.31727,
            "lat": -6.55344,
            "school_name": "MALIVUNDO",
            "country_name": "United Republic of Tanzania",
            "connectivity": false
        },
        {
            "lon": 35.66446,
            "lat": -7.62942,
            "school_name": "UKOMBOZI B",
            "country_name": "United Republic of Tanzania",
            "connectivity": false
        },
        {
            "lon": 31.17693,
            "lat": -8.56957,
            "school_name": "KAPERE",
            "country_name": "United Republic of Tanzania",
            "connectivity": false
        },
        {
            "lon": 32.85476,
            "lat": -5.60292,
            "school_name": "NYAHUA STATION",
            "country_name": "United Republic of Tanzania",
            "connectivity": false
        },
        {
            "lon": 38.50216,
            "lat": -4.62955,
            "school_name": "MAKANYA",
            "country_name": "United Republic of Tanzania",
            "connectivity": false
        },
        {
            "lon": 31.95019,
            "lat": -2.7113,
            "school_name": "LULAMA",
            "country_name": "United Republic of Tanzania",
            "connectivity": false
        },
        {
            "lon": 37.76881,
            "lat": -4.15255,
            "school_name": "MOTHER KELVIN",
            "country_name": "United Republic of Tanzania",
            "connectivity": false
        },
        {
            "lon": -2.3996387,
            "lat": 9.2667209,
            "school_name": "Name unknown",
            "country_name": "Ghana",
            "connectivity": false
        },
        {
            "lon": 39.8225343,
            "lat": 3.1758028,
            "school_name": "Qudama Primary School",
            "country_name": "Kenya",
            "connectivity": false
        },
        {
            "lon": 36.8879593,
            "lat": -1.2526473,
            "school_name": "bestan children centre",
            "country_name": "Kenya",
            "connectivity": false
        },
        {
            "lon": 0.931199,
            "lat": 6.428741,
            "school_name": "JEP KEVE",
            "country_name": "Togo",
            "connectivity": false
        },
        {
            "lon": 0.169075,
            "lat": 10.506062,
            "school_name": "JEDIL NAYERGOU BAS",
            "country_name": "Togo",
            "connectivity": false
        },
        {
            "lon": 1.220102,
            "lat": 6.138334,
            "school_name": "EPL MON BONHEUR",
            "country_name": "Togo",
            "connectivity": false
        },
        {
            "lon": 1.54256,
            "lat": 6.76189,
            "school_name": "EPP KODEHOE G/A",
            "country_name": "Togo",
            "connectivity": false
        },
        {
            "lon": 1.319981667,
            "lat": 6.497213333,
            "school_name": "EPP GATI CENTRE G/B",
            "country_name": "Togo",
            "connectivity": false
        },
        {
            "lon": 1.1691,
            "lat": 7.196406667,
            "school_name": "EPP KALAGORO",
            "country_name": "Togo",
            "connectivity": false
        },
        {
            "lon": 1.111131,
            "lat": 9.76762,
            "school_name": "EPP NIAMTOUGOU G/B",
            "country_name": "Togo",
            "connectivity": false
        },
        {
            "lon": 0.105711,
            "lat": 10.980889,
            "school_name": "EPP NANDJAK",
            "country_name": "Togo",
            "connectivity": false
        },
        {
            "lon": 0.572876667,
            "lat": 10.85133,
            "school_name": "EPP NATCHAMBONGA G/B",
            "country_name": "Togo",
            "connectivity": false
        },
        {
            "lon": 1.205628333,
            "lat": 6.14479,
            "school_name": "CPL TERRE PROMISE",
            "country_name": "Togo",
            "connectivity": false
        },
        {
            "lon": 6.458529,
            "lat": 6.082268,
            "school_name": "Name unknown",
            "country_name": "Nigeria",
            "connectivity": false
        },
        {
            "lon": 1.45066,
            "lat": 6.20961,
            "school_name": "CPL ABRAHAM LINCOLN",
            "country_name": "Togo",
            "connectivity": false
        },
        {
            "lon": 19.63329792,
            "lat": 44.84897782,
            "school_name": "\u0412\u0443\u043a \u041a\u0430\u0440\u0430\u045f\u0438\u045b",
            "country_name": "Serbia",
            "connectivity": false
        },
        {
            "lon": 35.2754,
            "lat": -5.90328,
            "school_name": "UHELELA",
            "country_name": "United Republic of Tanzania",
            "connectivity": false
        },
        {
            "lon": 39.52162,
            "lat": -10.81578,
            "school_name": "NANHYANGA 'A'",
            "country_name": "United Republic of Tanzania",
            "connectivity": false
        },
        {
            "lon": 31.6825,
            "lat": -3.36611,
            "school_name": "LUDEBA",
            "country_name": "United Republic of Tanzania",
            "connectivity": false
        },
        {
            "lon": 34.51672515,
            "lat": -15.59970318,
            "school_name": "Biki",
            "country_name": "Malawi",
            "connectivity": false
        },
        {
            "lon": 34.26082593,
            "lat": -14.39121697,
            "school_name": "Mgandeni J. P.",
            "country_name": "Malawi",
            "connectivity": false
        },
        {
            "lon": 33.39743695,
            "lat": -9.94838278,
            "school_name": "Chambo",
            "country_name": "Malawi",
            "connectivity": false
        },
        {
            "lon": 33.56386634,
            "lat": -13.82806704,
            "school_name": "Milombwa Pri School",
            "country_name": "Malawi",
            "connectivity": false
        },
        {
            "lon": 33.73987104,
            "lat": -13.20143079,
            "school_name": "Mwinama Full Primary",
            "country_name": "Malawi",
            "connectivity": false
        },
        {
            "lon": 15.52612697,
            "lat": -4.328755082,
            "school_name": "CS NKENDA",
            "country_name": "Democratic Republic of the Congo",
            "connectivity": false
        },
        {
            "lon": 25.63877137,
            "lat": -6.062182466,
            "school_name": "INST MAMBU",
            "country_name": "Democratic Republic of the Congo",
            "connectivity": false
        },
        {
            "lon": 22.02849984,
            "lat": 43.33497207,
            "school_name": "\u0408\u043e\u0432\u0430\u043d \u0408\u043e\u0432\u0430\u043d\u043e\u0432\u0438\u045b \u0417\u043c\u0430\u0458",
            "country_name": "Serbia",
            "connectivity": false
        },
        {
            "lon": 27.03658181,
            "lat": -4.25676638,
            "school_name": "INST BIMBI",
            "country_name": "Democratic Republic of the Congo",
            "connectivity": false
        },
        {
            "lon": -99.977,
            "lat": 18.68,
            "school_name": "TELEBACHILLERATO COMUNITARIO NUM. 430 SAN PEDRO HUEYAHUALCO SULTEPEC",
            "country_name": "Mexico",
            "connectivity": false
        },
        {
            "lon": -8.93409,
            "lat": 16.41941,
            "school_name": "\u0639\u064a\u0646\u0627\u0628\u0647\u0627\u0647",
            "country_name": "Mauritania",
            "connectivity": false
        },
        {
            "lon": -9.253,
            "lat": 15.9316,
            "school_name": "Treidat",
            "country_name": "Mauritania",
            "connectivity": false
        },
        {
            "lon": -15.97672,
            "lat": 18.07255,
            "school_name": "ESPOIR",
            "country_name": "Mauritania",
            "connectivity": false
        },
        {
            "lon": -15.9917,
            "lat": 18.082,
            "school_name": "LE PROGRES (TAGHADOUMY)",
            "country_name": "Mauritania",
            "connectivity": false
        },
        {
            "lon": 33.29992,
            "lat": 0.61521,
            "school_name": "NAMAGANGA PRIMARY SCHOOL",
            "country_name": "Uganda",
            "connectivity": false
        },
        {
            "lon": 30.53066,
            "lat": 0.36889,
            "school_name": "Kagada Church School.",
            "country_name": "Uganda",
            "connectivity": false
        },
        {
            "lon": 32.58411,
            "lat": 0.72191,
            "school_name": "Zinunula P.S.",
            "country_name": "Uganda",
            "connectivity": false
        },
        {
            "lon": 32.45831,
            "lat": 0.84026,
            "school_name": "Bweyeyo Bahai Sch.",
            "country_name": "Uganda",
            "connectivity": false
        },
        {
            "lon": 31.57046,
            "lat": 1.17048,
            "school_name": "Kyabajojo",
            "country_name": "Uganda",
            "connectivity": false
        },
        {
            "lon": 33.50083,
            "lat": 0.8971,
            "school_name": "Bright Future",
            "country_name": "Uganda",
            "connectivity": false
        },
        {
            "lon": 32.14635,
            "lat": 0.27075,
            "school_name": "St.Thereza Bethany",
            "country_name": "Uganda",
            "connectivity": false
        },
        {
            "lon": 31.19551,
            "lat": 0.35432,
            "school_name": "KABBO PARENTS",
            "country_name": "Uganda",
            "connectivity": false
        },
        {
            "lon": 31.28045,
            "lat": -0.5275,
            "school_name": "Samsom Kamya Memo.S.S",
            "country_name": "Uganda",
            "connectivity": false
        },
        {
            "lon": 30.39069,
            "lat": -0.78891,
            "school_name": "Kibaare P.S.",
            "country_name": "Uganda",
            "connectivity": false
        },
        {
            "lon": 33.97935,
            "lat": 3.06604,
            "school_name": "Lolelia P.S.",
            "country_name": "Uganda",
            "connectivity": false
        },
        {
            "lon": 29.93283,
            "lat": -0.80069,
            "school_name": "Nyakibale Upper School",
            "country_name": "Uganda",
            "connectivity": false
        },
        {
            "lon": 31.48404,
            "lat": -0.28127,
            "school_name": "Kyebongotoko Islamic",
            "country_name": "Uganda",
            "connectivity": false
        },
        {
            "lon": 31.99628,
            "lat": -0.0445,
            "school_name": "Lubanda P.S.",
            "country_name": "Uganda",
            "connectivity": false
        },
        {
            "lon": 31.81468,
            "lat": 0.72859,
            "school_name": "Mabuubi P.S.",
            "country_name": "Uganda",
            "connectivity": false
        },
        {
            "lon": -68.7075,
            "lat": -16.3218,
            "school_name": "TIRASCA",
            "country_name": "Bolivia (Plurinational State of)",
            "connectivity": false
        },
        {
            "lon": 29.13018,
            "lat": -25.85909,
            "school_name": "Andries Raditsela Early Learning Centre",
            "country_name": "South Africa",
            "connectivity": false
        },
        {
            "lon": 30.09903,
            "lat": -25.42281,
            "school_name": "The Best Montessori Centre",
            "country_name": "South Africa",
            "connectivity": false
        },
        {
            "lon": 31.05581,
            "lat": -24.72832,
            "school_name": "Mzangedwa Secondary School",
            "country_name": "South Africa",
            "connectivity": false
        },
        {
            "lon": 28.05834,
            "lat": -25.36116,
            "school_name": "Molebatsi Secondary School",
            "country_name": "South Africa",
            "connectivity": false
        },
        {
            "lon": 24.76946,
            "lat": -28.7422,
            "school_name": "Saint Cyprian's Grammar School",
            "country_name": "South Africa",
            "connectivity": false
        },
        {
            "lon": 18.67251,
            "lat": -34.04397,
            "school_name": "Umthawelanga Primary School",
            "country_name": "South Africa",
            "connectivity": false
        },
        {
            "lon": 30.04936,
            "lat": -23.76295,
            "school_name": "Thelifa Primary School",
            "country_name": "South Africa",
            "connectivity": false
        },
        {
            "lon": 30.17861,
            "lat": -28.67547,
            "school_name": "Oqungweni Primary School",
            "country_name": "South Africa",
            "connectivity": false
        },
        {
            "lon": 30.39983,
            "lat": -28.66401,
            "school_name": "Dlenyane Primary School",
            "country_name": "South Africa",
            "connectivity": false
        },
        {
            "lon": 29.65496,
            "lat": -30.3814,
            "school_name": "Zwelinzima Senior Secondary School",
            "country_name": "South Africa",
            "connectivity": false
        },
        {
            "lon": 30.33817,
            "lat": -30.83012,
            "school_name": "Nositha Primary School",
            "country_name": "South Africa",
            "connectivity": false
        },
        {
            "lon": 27.62638,
            "lat": -23.65695,
            "school_name": "Nelsonkop Primary School",
            "country_name": "South Africa",
            "connectivity": false
        },
        {
            "lon": 30.38354,
            "lat": -29.59206,
            "school_name": "Indian Girls High School",
            "country_name": "South Africa",
            "connectivity": false
        },
        {
            "lon": 31.03582,
            "lat": -29.71797,
            "school_name": "Phoenix Technical Secondary School",
            "country_name": "South Africa",
            "connectivity": false
        },
        {
            "lon": 28.04536,
            "lat": -26.19417,
            "school_name": "Modiri High School",
            "country_name": "South Africa",
            "connectivity": false
        },
        {
            "lon": 30.87886,
            "lat": -28.40945,
            "school_name": "Klwana Primary School",
            "country_name": "South Africa",
            "connectivity": false
        },
        {
            "lon": 30.8815,
            "lat": -29.65819,
            "school_name": "Makhapha Primary School",
            "country_name": "South Africa",
            "connectivity": false
        },
        {
            "lon": 31.25638,
            "lat": -28.32516,
            "school_name": "Nkamelwane Primary School",
            "country_name": "South Africa",
            "connectivity": false
        },
        {
            "lon": 30.91486,
            "lat": -29.53067,
            "school_name": "KwaNokusho Combined Primary School",
            "country_name": "South Africa",
            "connectivity": false
        },
        {
            "lon": 30.96652,
            "lat": -28.98399,
            "school_name": "Mfushane Primary School",
            "country_name": "South Africa",
            "connectivity": false
        },
        {
            "lon": 27.86957,
            "lat": -26.55441,
            "school_name": "Tlholo Intermediate School",
            "country_name": "South Africa",
            "connectivity": false
        },
        {
            "lon": 28.09849,
            "lat": -32.40418,
            "school_name": "Bawa Junior Secondary School",
            "country_name": "South Africa",
            "connectivity": false
        },
        {
            "lon": 27.84862,
            "lat": -26.83851,
            "school_name": "Malakabeng Intermediate School",
            "country_name": "South Africa",
            "connectivity": false
        },
        {
            "lon": 26.1623,
            "lat": -29.65461,
            "school_name": "Itemeleng Primary School",
            "country_name": "South Africa",
            "connectivity": false
        },
        {
            "lon": 25.48801,
            "lat": -33.97331,
            "school_name": "Rowland Park Primary School",
            "country_name": "South Africa",
            "connectivity": false
        },
        {
            "lon": 28.13078,
            "lat": -27.64731,
            "school_name": "Kopano Ithuteng Primary School Intermediate School",
            "country_name": "South Africa",
            "connectivity": false
        },
        {
            "lon": 27.80598,
            "lat": -32.13066,
            "school_name": "Mthwa Combined School",
            "country_name": "South Africa",
            "connectivity": false
        },
        {
            "lon": 29.27106,
            "lat": -31.00416,
            "school_name": "Gcinisizwe Senior Primary School",
            "country_name": "South Africa",
            "connectivity": false
        },
        {
            "lon": 29.46227,
            "lat": -31.48501,
            "school_name": "Kwazweni Senior Primary School",
            "country_name": "South Africa",
            "connectivity": false
        },
        {
            "lon": 29.50299,
            "lat": -31.28873,
            "school_name": "Emyezweni Senior Primary School",
            "country_name": "South Africa",
            "connectivity": false
        },
        {
            "lon": 29.52278,
            "lat": -30.64773,
            "school_name": "Mjikweni Junior Secondary School",
            "country_name": "South Africa",
            "connectivity": false
        },
        {
            "lon": -58.42884476,
            "lat": -34.69898945,
            "school_name": "ESCUELA DE ADULTOS N\u00ba703 COMBATE DE SAN LORENZO",
            "country_name": "Argentina",
            "connectivity": false
        },
        {
            "lon": -62.5682673,
            "lat": -39.3938542,
            "school_name": "JARDIN DE INFANTES N\u00ba907 ROSARIO VERA PE\u00d1ALOZA",
            "country_name": "Argentina",
            "connectivity": false
        },
        {
            "lon": -58.96427484,
            "lat": -34.18698334,
            "school_name": "ESCUELA PRIMARIA N\u00ba14 EDUARDO CASAUX",
            "country_name": "Argentina",
            "connectivity": false
        },
        {
            "lon": -60.17715812,
            "lat": -33.37857584,
            "school_name": "JARDIN DE INFANTES N\u00ba901 TTE. GRAL. PEDRO CASTI\u00d1EIRAS",
            "country_name": "Argentina",
            "connectivity": false
        },
        {
            "lon": -60.66991512,
            "lat": -32.92705638,
            "school_name": "E.E.M.P.A. NRO 1164 JOSE PEDRONI",
            "country_name": "Argentina",
            "connectivity": false
        },
        {
            "lon": -65.78393427,
            "lat": -28.46454395,
            "school_name": "COLEGIO PRIVADO ENRIQUE G.HOOD",
            "country_name": "Argentina",
            "connectivity": false
        },
        {
            "lon": -63.733113,
            "lat": -32.42351941,
            "school_name": "INSTITUTO PABLO A. PIZZURNO",
            "country_name": "Argentina",
            "connectivity": false
        },
        {
            "lon": -64.22579822,
            "lat": -31.43530769,
            "school_name": "J.DE INF. GABRIELA MISTRAL",
            "country_name": "Argentina",
            "connectivity": false
        },
        {
            "lon": -64.21596175,
            "lat": -31.40114059,
            "school_name": "INSTITUTO TECNICO ING.NOEL J.ETCHEGOYEN",
            "country_name": "Argentina",
            "connectivity": false
        },
        {
            "lon": 7.411140862,
            "lat": 5.91579647,
            "school_name": "Name unknown",
            "country_name": "Nigeria",
            "connectivity": false
        },
        {
            "lon": -64.18197929,
            "lat": -31.42192453,
            "school_name": "INST. SUP. ARGENTINO DE CEREMONIAL Y RELACIONES PUBLICAS",
            "country_name": "Argentina",
            "connectivity": false
        },
        {
            "lon": -58.33083538,
            "lat": -30.14792892,
            "school_name": "ESCUELA N\u00ba 963 JUAN FRANCISCO GUENAGA",
            "country_name": "Argentina",
            "connectivity": false
        },
        {
            "lon": -58.02718961,
            "lat": -31.39698573,
            "school_name": "PRIV. SANTA LUCIA 31",
            "country_name": "Argentina",
            "connectivity": false
        },
        {
            "lon": -58.81463096,
            "lat": -30.87730217,
            "school_name": "AMADO NERVO 7",
            "country_name": "Argentina",
            "connectivity": false
        },
        {
            "lon": -58.17076714,
            "lat": -26.17933263,
            "school_name": "NEP Y FP N\u00ba 1 CLEMENTE LIO",
            "country_name": "Argentina",
            "connectivity": false
        },
        {
            "lon": -58.25326979,
            "lat": -25.20360194,
            "school_name": "JIN N\u00b0 11 - EPEP N\u00b0 230 FRUTILLITAS",
            "country_name": "Argentina",
            "connectivity": false
        },
        {
            "lon": 6.92639192,
            "lat": 5.758769641,
            "school_name": "Name unknown",
            "country_name": "Nigeria",
            "connectivity": false
        },
        {
            "lon": -65.28255324,
            "lat": -24.20521412,
            "school_name": "ESCUELA DE GESTION PRIVADA NUEVA ESPERANZA",
            "country_name": "Argentina",
            "connectivity": false
        },
        {
            "lon": -68.87430852,
            "lat": -33.03732811,
            "school_name": "LISANDRO DE LA TORRE",
            "country_name": "Argentina",
            "connectivity": false
        },
        {
            "lon": -64.45913,
            "lat": -23.36777,
            "school_name": "ESCUELA 4616 LA TRINIDAD EX N\u00b0 861",
            "country_name": "Argentina",
            "connectivity": false
        },
        {
            "lon": 33.71147931,
            "lat": -14.41179824,
            "school_name": "Chipembere J. P.",
            "country_name": "Malawi",
            "connectivity": false
        },
        {
            "lon": -70.92603914,
            "lat": -46.59065308,
            "school_name": "ESCUELA PARA ADULTOS SAN MARTIN DE TOURS",
            "country_name": "Argentina",
            "connectivity": false
        },
        {
            "lon": -61.2588726,
            "lat": -31.44002616,
            "school_name": "ANEXO E.E.M.P.A. NRO 1278",
            "country_name": "Argentina",
            "connectivity": false
        },
        {
            "lon": -75.2424,
            "lat": -12.5763,
            "school_name": "36059",
            "country_name": "Peru",
            "connectivity": false
        },
        {
            "lon": -62.05206308,
            "lat": -29.76731439,
            "school_name": "INSTITUTO DE FORMACION DOCENTE N\u00b0 17 Dr. Ren\u00e9 Favaloro",
            "country_name": "Argentina",
            "connectivity": false
        },
        {
            "lon": 6.201042,
            "lat": 5.591927,
            "school_name": "Name unknown",
            "country_name": "Nigeria",
            "connectivity": false
        },
        {
            "lon": 5.797198,
            "lat": 5.563926,
            "school_name": "Name unknown",
            "country_name": "Nigeria",
            "connectivity": false
        },
        {
            "lon": 5.73418,
            "lat": 5.567103,
            "school_name": "Name unknown",
            "country_name": "Nigeria",
            "connectivity": false
        },
        {
            "lon": 5.737796,
            "lat": 5.568823,
            "school_name": "Name unknown",
            "country_name": "Nigeria",
            "connectivity": false
        },
        {
            "lon": 7.365346667,
            "lat": 5.144986667,
            "school_name": "Name unknown",
            "country_name": "Nigeria",
            "connectivity": false
        },
        {
            "lon": 7.353107,
            "lat": 4.887462,
            "school_name": "Name unknown",
            "country_name": "Nigeria",
            "connectivity": false
        },
        {
            "lon": 12.12236769,
            "lat": 11.24078314,
            "school_name": "Name unknown",
            "country_name": "Nigeria",
            "connectivity": false
        },
        {
            "lon": 8.120187194,
            "lat": 6.330437669,
            "school_name": "Name unknown",
            "country_name": "Nigeria",
            "connectivity": false
        },
        {
            "lon": 7.827548333,
            "lat": 6.294635,
            "school_name": "Name unknown",
            "country_name": "Nigeria",
            "connectivity": false
        },
        {
            "lon": 8.440208,
            "lat": 6.40162,
            "school_name": "Name unknown",
            "country_name": "Nigeria",
            "connectivity": false
        },
        {
            "lon": 7.897555,
            "lat": 6.467101,
            "school_name": "Name unknown",
            "country_name": "Nigeria",
            "connectivity": false
        },
        {
            "lon": 7.931681667,
            "lat": 6.010168333,
            "school_name": "Name unknown",
            "country_name": "Nigeria",
            "connectivity": false
        },
        {
            "lon": 6.3126,
            "lat": 6.70894,
            "school_name": "Name unknown",
            "country_name": "Nigeria",
            "connectivity": false
        },
        {
            "lon": 6.330619,
            "lat": 6.696162,
            "school_name": "Name unknown",
            "country_name": "Nigeria",
            "connectivity": false
        },
        {
            "lon": 5.896310328,
            "lat": 7.039957861,
            "school_name": "Name unknown",
            "country_name": "Nigeria",
            "connectivity": false
        },
        {
            "lon": 5.054798,
            "lat": 7.497054,
            "school_name": "Name unknown",
            "country_name": "Nigeria",
            "connectivity": false
        },
        {
            "lon": 5.216122,
            "lat": 7.486476,
            "school_name": "Name unknown",
            "country_name": "Nigeria",
            "connectivity": false
        },
        {
            "lon": 7.558757,
            "lat": 6.039633,
            "school_name": "Name unknown",
            "country_name": "Nigeria",
            "connectivity": false
        },
        {
            "lon": 7.477533,
            "lat": 6.076877,
            "school_name": "Name unknown",
            "country_name": "Nigeria",
            "connectivity": false
        },
        {
            "lon": 7.507032763,
            "lat": 6.476775022,
            "school_name": "Name unknown",
            "country_name": "Nigeria",
            "connectivity": false
        },
        {
            "lon": 7.38596,
            "lat": 6.693593333,
            "school_name": "Name unknown",
            "country_name": "Nigeria",
            "connectivity": false
        },
        {
            "lon": 7.503073,
            "lat": 6.954593,
            "school_name": "Name unknown",
            "country_name": "Nigeria",
            "connectivity": false
        },
        {
            "lon": 7.375448333,
            "lat": 6.811003333,
            "school_name": "Name unknown",
            "country_name": "Nigeria",
            "connectivity": false
        },
        {
            "lon": 7.477788333,
            "lat": 6.870008333,
            "school_name": "Name unknown",
            "country_name": "Nigeria",
            "connectivity": false
        },
        {
            "lon": 7.0803567,
            "lat": 6.519895,
            "school_name": "Name unknown",
            "country_name": "Nigeria",
            "connectivity": false
        },
        {
            "lon": 7.498813,
            "lat": 9.233922,
            "school_name": "Name unknown",
            "country_name": "Nigeria",
            "connectivity": false
        },
        {
            "lon": 7.026523,
            "lat": 5.601402,
            "school_name": "Name unknown",
            "country_name": "Nigeria",
            "connectivity": false
        },
        {
            "lon": 6.907465,
            "lat": 5.442391667,
            "school_name": "Name unknown",
            "country_name": "Nigeria",
            "connectivity": false
        },
        {
            "lon": -76.7601,
            "lat": -6.5581,
            "school_name": "39",
            "country_name": "Peru",
            "connectivity": false
        },
        {
            "lon": -80.4508,
            "lat": -3.57738,
            "school_name": "005 NUESTRA SE\u00d1ORA DE LAS MERCEDES",
            "country_name": "Peru",
            "connectivity": false
        },
        {
            "lon": -76.7741,
            "lat": -6.9269,
            "school_name": "23",
            "country_name": "Peru",
            "connectivity": false
        },
        {
            "lon": -69.4668,
            "lat": -14.3324,
            "school_name": "1048",
            "country_name": "Peru",
            "connectivity": false
        },
        {
            "lon": -73.047,
            "lat": -13.8143,
            "school_name": "1084",
            "country_name": "Peru",
            "connectivity": false
        },
        {
            "lon": -76.9791,
            "lat": -11.9435,
            "school_name": "13 DE AGOSTO",
            "country_name": "Peru",
            "connectivity": false
        },
        {
            "lon": -72.9995,
            "lat": -13.6674,
            "school_name": "137",
            "country_name": "Peru",
            "connectivity": false
        },
        {
            "lon": -78.9313,
            "lat": -7.0835,
            "school_name": "1382",
            "country_name": "Peru",
            "connectivity": false
        },
        {
            "lon": -79.8177,
            "lat": -6.38437,
            "school_name": "166",
            "country_name": "Peru",
            "connectivity": false
        },
        {
            "lon": -79.356,
            "lat": -7.6972,
            "school_name": "1748",
            "country_name": "Peru",
            "connectivity": false
        },
        {
            "lon": -79.0361,
            "lat": -5.9691,
            "school_name": "17584",
            "country_name": "Peru",
            "connectivity": false
        },
        {
            "lon": -76.2512,
            "lat": -9.9283,
            "school_name": "184",
            "country_name": "Peru",
            "connectivity": false
        },
        {
            "lon": -80.1099,
            "lat": -5.41163,
            "school_name": "20053",
            "country_name": "Peru",
            "connectivity": false
        },
        {
            "lon": -77.2608,
            "lat": -11.5884,
            "school_name": "20392 JUAN PASCUAL PRINGLES",
            "country_name": "Peru",
            "connectivity": false
        },
        {
            "lon": -79.6091,
            "lat": -4.80949,
            "school_name": "20624",
            "country_name": "Peru",
            "connectivity": false
        },
        {
            "lon": -77.1165,
            "lat": -11.827,
            "school_name": "2076 ABRAHAM LINCOLN",
            "country_name": "Peru",
            "connectivity": false
        },
        {
            "lon": -74.9756,
            "lat": -13.9794,
            "school_name": "22159",
            "country_name": "Peru",
            "connectivity": false
        },
        {
            "lon": -77.2332,
            "lat": -8.32563,
            "school_name": "2223",
            "country_name": "Peru",
            "connectivity": false
        },
        {
            "lon": -72.9856,
            "lat": -13.6582,
            "school_name": "277-26",
            "country_name": "Peru",
            "connectivity": false
        },
        {
            "lon": -73.9774,
            "lat": -12.2355,
            "school_name": "30001-67",
            "country_name": "Peru",
            "connectivity": false
        },
        {
            "lon": -75.3744,
            "lat": -12.0063,
            "school_name": "30396",
            "country_name": "Peru",
            "connectivity": false
        },
        {
            "lon": -78.6586,
            "lat": -6.58823,
            "school_name": "305",
            "country_name": "Peru",
            "connectivity": false
        },
        {
            "lon": -78.7588,
            "lat": -6.0606,
            "school_name": "308",
            "country_name": "Peru",
            "connectivity": false
        },
        {
            "lon": -74.8389,
            "lat": -10.9259,
            "school_name": "31334",
            "country_name": "Peru",
            "connectivity": false
        },
        {
            "lon": -76.4807,
            "lat": -9.9124,
            "school_name": "32087",
            "country_name": "Peru",
            "connectivity": false
        },
        {
            "lon": -75.997,
            "lat": -9.9097,
            "school_name": "32660",
            "country_name": "Peru",
            "connectivity": false
        },
        {
            "lon": -76.356,
            "lat": -10.1347,
            "school_name": "33028",
            "country_name": "Peru",
            "connectivity": false
        },
        {
            "lon": -76.6562,
            "lat": -9.9318,
            "school_name": "33058",
            "country_name": "Peru",
            "connectivity": false
        },
        {
            "lon": -75.9434,
            "lat": -9.4498,
            "school_name": "33197",
            "country_name": "Peru",
            "connectivity": false
        },
        {
            "lon": -78.6666,
            "lat": -6.55129,
            "school_name": "333",
            "country_name": "Peru",
            "connectivity": false
        },
        {
            "lon": -73.5903,
            "lat": -13.2338,
            "school_name": "38419",
            "country_name": "Peru",
            "connectivity": false
        },
        {
            "lon": -71.5703,
            "lat": -16.4115,
            "school_name": "40075 HORACIO MORALES DELGADO",
            "country_name": "Peru",
            "connectivity": false
        },
        {
            "lon": -71.3895,
            "lat": -16.5189,
            "school_name": "40188",
            "country_name": "Peru",
            "connectivity": false
        },
        {
            "lon": -72.3911,
            "lat": -15.2252,
            "school_name": "40459 SAN ROQUE",
            "country_name": "Peru",
            "connectivity": false
        },
        {
            "lon": -72.2299,
            "lat": -16.4209,
            "school_name": "41062",
            "country_name": "Peru",
            "connectivity": false
        },
        {
            "lon": -74.2631,
            "lat": -12.9291,
            "school_name": "429-16",
            "country_name": "Peru",
            "connectivity": false
        },
        {
            "lon": -74.2148,
            "lat": -13.0292,
            "school_name": "429-96",
            "country_name": "Peru",
            "connectivity": false
        },
        {
            "lon": -73.7717,
            "lat": -13.6952,
            "school_name": "431-14",
            "country_name": "Peru",
            "connectivity": false
        },
        {
            "lon": -73.7117,
            "lat": -13.5575,
            "school_name": "479",
            "country_name": "Peru",
            "connectivity": false
        },
        {
            "lon": -75.9281,
            "lat": -11.5447,
            "school_name": "511",
            "country_name": "Peru",
            "connectivity": false
        },
        {
            "lon": -71.9108,
            "lat": -11.8026,
            "school_name": "52116",
            "country_name": "Peru",
            "connectivity": false
        },
        {
            "lon": -73.1399,
            "lat": -14.1415,
            "school_name": "54325 VIRGEN DE NATIVIDAD",
            "country_name": "Peru",
            "connectivity": false
        },
        {
            "lon": -72.4626,
            "lat": -13.6817,
            "school_name": "54465",
            "country_name": "Peru",
            "connectivity": false
        },
        {
            "lon": -72.0933,
            "lat": -14.4508,
            "school_name": "56319",
            "country_name": "Peru",
            "connectivity": false
        },
        {
            "lon": -73.2574,
            "lat": -4.21016,
            "school_name": "6010291",
            "country_name": "Peru",
            "connectivity": false
        },
        {
            "lon": -73.074,
            "lat": -3.68472,
            "school_name": "60230",
            "country_name": "Peru",
            "connectivity": false
        },
        {
            "lon": -76.956,
            "lat": -12.1659,
            "school_name": "6072",
            "country_name": "Peru",
            "connectivity": false
        },
        {
            "lon": -76.9362,
            "lat": -12.2101,
            "school_name": "6064 FRANCISCO BOLOGNESI",
            "country_name": "Peru",
            "connectivity": false
        },
        {
            "lon": -74.6354,
            "lat": -1.43279,
            "school_name": "60759",
            "country_name": "Peru",
            "connectivity": false
        },
        {
            "lon": -74.6387,
            "lat": -5.87694,
            "school_name": "60992",
            "country_name": "Peru",
            "connectivity": false
        },
        {
            "lon": -79.2828,
            "lat": -6.47551,
            "school_name": "621",
            "country_name": "Peru",
            "connectivity": false
        },
        {
            "lon": -72.8868,
            "lat": -13.6371,
            "school_name": "663",
            "country_name": "Peru",
            "connectivity": false
        },
        {
            "lon": -69.153,
            "lat": -14.0246,
            "school_name": "73007",
            "country_name": "Peru",
            "connectivity": false
        },
        {
            "lon": -78.5017,
            "lat": -7.89748,
            "school_name": "80234",
            "country_name": "Peru",
            "connectivity": false
        },
        {
            "lon": -77.4205,
            "lat": -8.1866,
            "school_name": "80475",
            "country_name": "Peru",
            "connectivity": false
        },
        {
            "lon": -78.0897,
            "lat": -7.91712,
            "school_name": "80647",
            "country_name": "Peru",
            "connectivity": false
        },
        {
            "lon": -78.4209,
            "lat": -7.55809,
            "school_name": "81999",
            "country_name": "Peru",
            "connectivity": false
        },
        {
            "lon": -78.4316,
            "lat": -7.61666,
            "school_name": "82383",
            "country_name": "Peru",
            "connectivity": false
        },
        {
            "lon": -78.4245,
            "lat": -6.85197,
            "school_name": "82717",
            "country_name": "Peru",
            "connectivity": false
        },
        {
            "lon": -77.3677,
            "lat": -8.9604,
            "school_name": "84126 FRANCISCO VIA MELGAREJO",
            "country_name": "Peru",
            "connectivity": false
        },
        {
            "lon": -77.5082,
            "lat": -9.60647,
            "school_name": "86779",
            "country_name": "Peru",
            "connectivity": false
        },
        {
            "lon": -78.5858,
            "lat": -9.06422,
            "school_name": "89009 8 DE OCTUBRE",
            "country_name": "Peru",
            "connectivity": false
        },
        {
            "lon": -79.7759,
            "lat": -5.00229,
            "school_name": "990",
            "country_name": "Peru",
            "connectivity": false
        },
        {
            "lon": -71.737,
            "lat": -14.0967,
            "school_name": "998",
            "country_name": "Peru",
            "connectivity": false
        },
        {
            "lon": -76.1091,
            "lat": -5.8926,
            "school_name": "AMERICAN SYSTEM",
            "country_name": "Peru",
            "connectivity": false
        },
        {
            "lon": -70.1882,
            "lat": -15.7794,
            "school_name": "ARBOLEDA",
            "country_name": "Peru",
            "connectivity": false
        },
        {
            "lon": -77.0416,
            "lat": -11.8532,
            "school_name": "MONTESSORI SCHOOL",
            "country_name": "Peru",
            "connectivity": false
        },
        {
            "lon": -79.8303,
            "lat": -6.75483,
            "school_name": "BRUNNER",
            "country_name": "Peru",
            "connectivity": false
        },
        {
            "lon": -77.6104,
            "lat": -11.1086,
            "school_name": "CENTRO DE INVESTIGACION PARA EL DESARROLLO TECNOLOGICO-CIDET",
            "country_name": "Peru",
            "connectivity": false
        },
        {
            "lon": -78.5788,
            "lat": -7.08635,
            "school_name": "CRISTO RAMOS",
            "country_name": "Peru",
            "connectivity": false
        },
        {
            "lon": -77.7633,
            "lat": -10.7536,
            "school_name": "EL BUEN PASTOR",
            "country_name": "Peru",
            "connectivity": false
        },
        {
            "lon": -77.0579,
            "lat": -12.0647,
            "school_name": "EL MUNDO DE LOS NI\u00d1OS FELICES",
            "country_name": "Peru",
            "connectivity": false
        },
        {
            "lon": -71.5486,
            "lat": -13.8197,
            "school_name": "HORACIO ZEBALLOS GAMEZ",
            "country_name": "Peru",
            "connectivity": false
        },
        {
            "lon": -72.0149,
            "lat": -13.6804,
            "school_name": "HUANOQUITE",
            "country_name": "Peru",
            "connectivity": false
        },
        {
            "lon": -76.3658,
            "lat": -11.0006,
            "school_name": "III MILENIO",
            "country_name": "Peru",
            "connectivity": false
        },
        {
            "lon": -73.5106,
            "lat": -13.0011,
            "school_name": "INCA GARCILASO DE LA VEGA",
            "country_name": "Peru",
            "connectivity": false
        },
        {
            "lon": -76.9457,
            "lat": -12.2041,
            "school_name": "JUAN ESPINOZA MEDRANO",
            "country_name": "Peru",
            "connectivity": false
        },
        {
            "lon": -71.5524,
            "lat": -16.4016,
            "school_name": "JUAN LANDAZURI RICKETTS",
            "country_name": "Peru",
            "connectivity": false
        },
        {
            "lon": -72.4859,
            "lat": -16.2291,
            "school_name": "LA CANDELARIA",
            "country_name": "Peru",
            "connectivity": false
        },
        {
            "lon": 0.732676667,
            "lat": 6.89706,
            "school_name": "EDIL NYIFOVE",
            "country_name": "Togo",
            "connectivity": false
        },
        {
            "lon": -79.2546,
            "lat": -7.869,
            "school_name": "LOS ANGELES",
            "country_name": "Peru",
            "connectivity": false
        },
        {
            "lon": -74.4785,
            "lat": -8.96174,
            "school_name": "LOS VIRTUOSOS",
            "country_name": "Peru",
            "connectivity": false
        },
        {
            "lon": -71.5351,
            "lat": -16.4137,
            "school_name": "MARIA REYNA",
            "country_name": "Peru",
            "connectivity": false
        },
        {
            "lon": -77.0963,
            "lat": -11.8362,
            "school_name": "MI FUTURO",
            "country_name": "Peru",
            "connectivity": false
        },
        {
            "lon": -76.3554,
            "lat": -10.473,
            "school_name": "NUEVA GENERACION",
            "country_name": "Peru",
            "connectivity": false
        },
        {
            "lon": -80.6629,
            "lat": -5.18106,
            "school_name": "PIURA",
            "country_name": "Peru",
            "connectivity": false
        },
        {
            "lon": -79.112,
            "lat": -6.85752,
            "school_name": "PRIMERO DE MAYO",
            "country_name": "Peru",
            "connectivity": false
        },
        {
            "lon": -77.0632,
            "lat": -12.0767,
            "school_name": "SAGRADO CORAZON DE JESUS",
            "country_name": "Peru",
            "connectivity": false
        },
        {
            "lon": -71.6418,
            "lat": -14.2055,
            "school_name": "SAN BARTOLOME",
            "country_name": "Peru",
            "connectivity": false
        },
        {
            "lon": -71.8843,
            "lat": -13.5422,
            "school_name": "SAN ISIDRO",
            "country_name": "Peru",
            "connectivity": false
        },
        {
            "lon": -75.9753,
            "lat": -9.28735,
            "school_name": "SAN JORGE",
            "country_name": "Peru",
            "connectivity": false
        },
        {
            "lon": -74.4616,
            "lat": -12.421,
            "school_name": "SAN JOSE BENDEZU",
            "country_name": "Peru",
            "connectivity": false
        },
        {
            "lon": -77.0175,
            "lat": -12.0689,
            "school_name": "SAN JOSE Y EL REDENTOR",
            "country_name": "Peru",
            "connectivity": false
        },
        {
            "lon": -79.8533,
            "lat": -5.05304,
            "school_name": "SAN JUAN DE CHALACO",
            "country_name": "Peru",
            "connectivity": false
        },
        {
            "lon": -74.9996,
            "lat": -11.096,
            "school_name": "SAN PABLO",
            "country_name": "Peru",
            "connectivity": false
        },
        {
            "lon": -78.5258,
            "lat": -7.16209,
            "school_name": "SAN VICENTE I",
            "country_name": "Peru",
            "connectivity": false
        },
        {
            "lon": -76.9978,
            "lat": -12.0332,
            "school_name": "SANTA RITA",
            "country_name": "Peru",
            "connectivity": false
        },
        {
            "lon": -71.5624,
            "lat": -16.3925,
            "school_name": "SANTI SANTI",
            "country_name": "Peru",
            "connectivity": false
        },
        {
            "lon": -76.9076,
            "lat": -12.2237,
            "school_name": "SEMILLITAS DEL SABER",
            "country_name": "Peru",
            "connectivity": false
        },
        {
            "lon": -78.4572,
            "lat": -7.81842,
            "school_name": "SE\u00d1OR DE LA RESURRECCION",
            "country_name": "Peru",
            "connectivity": false
        },
        {
            "lon": -81.1122,
            "lat": -5.09043,
            "school_name": "STEPHEN WILLIAM HAWKING",
            "country_name": "Peru",
            "connectivity": false
        },
        {
            "lon": -70.0928,
            "lat": -14.217,
            "school_name": "TICCLLACCOCHA",
            "country_name": "Peru",
            "connectivity": false
        },
        {
            "lon": 6.36439632,
            "lat": 10.68158969,
            "school_name": "Name unknown",
            "country_name": "Nigeria",
            "connectivity": false
        },
        {
            "lon": 8.032223582,
            "lat": 9.375205637,
            "school_name": "Name unknown",
            "country_name": "Nigeria",
            "connectivity": false
        },
        {
            "lon": 7.39943537,
            "lat": 10.5280453,
            "school_name": "Name unknown",
            "country_name": "Nigeria",
            "connectivity": false
        },
        {
            "lon": 8.629395374,
            "lat": 9.996151075,
            "school_name": "Name unknown",
            "country_name": "Nigeria",
            "connectivity": false
        },
        {
            "lon": 7.914716005,
            "lat": 11.29925609,
            "school_name": "Name unknown",
            "country_name": "Nigeria",
            "connectivity": false
        },
        {
            "lon": 8.859126,
            "lat": 11.72063,
            "school_name": "Name unknown",
            "country_name": "Nigeria",
            "connectivity": false
        },
        {
            "lon": 9.210877,
            "lat": 11.67987,
            "school_name": "Name unknown",
            "country_name": "Nigeria",
            "connectivity": false
        },
        {
            "lon": 8.359404,
            "lat": 11.59059,
            "school_name": "Name unknown",
            "country_name": "Nigeria",
            "connectivity": false
        },
        {
            "lon": 12.052708,
            "lat": 8.430889,
            "school_name": "Name unknown",
            "country_name": "Nigeria",
            "connectivity": false
        },
        {
            "lon": 8.272645,
            "lat": 12.19711,
            "school_name": "Name unknown",
            "country_name": "Nigeria",
            "connectivity": false
        },
        {
            "lon": 12.135464,
            "lat": 9.103366,
            "school_name": "Name unknown",
            "country_name": "Nigeria",
            "connectivity": false
        },
        {
            "lon": 7.621038,
            "lat": 7.617981,
            "school_name": "Name unknown",
            "country_name": "Nigeria",
            "connectivity": false
        },
        {
            "lon": 6.906925,
            "lat": 7.024633,
            "school_name": "Name unknown",
            "country_name": "Nigeria",
            "connectivity": false
        },
        {
            "lon": 5.864014,
            "lat": 7.837642,
            "school_name": "Name unknown",
            "country_name": "Nigeria",
            "connectivity": false
        },
        {
            "lon": 5.977581,
            "lat": 7.842388,
            "school_name": "Name unknown",
            "country_name": "Nigeria",
            "connectivity": false
        },
        {
            "lon": 7.515668,
            "lat": 7.846856,
            "school_name": "Name unknown",
            "country_name": "Nigeria",
            "connectivity": false
        },
        {
            "lon": 5.007159,
            "lat": 8.571509,
            "school_name": "Name unknown",
            "country_name": "Nigeria",
            "connectivity": false
        },
        {
            "lon": 4.492472,
            "lat": 8.525835,
            "school_name": "Name unknown",
            "country_name": "Nigeria",
            "connectivity": false
        },
        {
            "lon": 5.584684,
            "lat": 8.862814,
            "school_name": "Name unknown",
            "country_name": "Nigeria",
            "connectivity": false
        },
        {
            "lon": 3.26456,
            "lat": 6.5747,
            "school_name": "Name unknown",
            "country_name": "Nigeria",
            "connectivity": false
        },
        {
            "lon": 3.278717,
            "lat": 6.472236,
            "school_name": "Name unknown",
            "country_name": "Nigeria",
            "connectivity": false
        },
        {
            "lon": 3.365306,
            "lat": 6.465024,
            "school_name": "Name unknown",
            "country_name": "Nigeria",
            "connectivity": false
        },
        {
            "lon": 3.58597,
            "lat": 6.60795,
            "school_name": "Name unknown",
            "country_name": "Nigeria",
            "connectivity": false
        },
        {
            "lon": 3.342812,
            "lat": 6.48933,
            "school_name": "Name unknown",
            "country_name": "Nigeria",
            "connectivity": false
        },
        {
            "lon": 8.15791,
            "lat": 8.434657,
            "school_name": "Name unknown",
            "country_name": "Nigeria",
            "connectivity": false
        },
        {
            "lon": 8.770732,
            "lat": 8.507983,
            "school_name": "Name unknown",
            "country_name": "Nigeria",
            "connectivity": false
        },
        {
            "lon": 8.828319,
            "lat": 8.465497,
            "school_name": "Name unknown",
            "country_name": "Nigeria",
            "connectivity": false
        },
        {
            "lon": 8.552116,
            "lat": 8.404621,
            "school_name": "Name unknown",
            "country_name": "Nigeria",
            "connectivity": false
        },
        {
            "lon": 4.52343265,
            "lat": 9.86897887,
            "school_name": "Name unknown",
            "country_name": "Nigeria",
            "connectivity": false
        },
        {
            "lon": 6.514257593,
            "lat": 9.776279753,
            "school_name": "Name unknown",
            "country_name": "Nigeria",
            "connectivity": false
        },
        {
            "lon": 4.77398395,
            "lat": 10.18697036,
            "school_name": "Name unknown",
            "country_name": "Nigeria",
            "connectivity": false
        },
        {
            "lon": 7.177382112,
            "lat": 9.186249375,
            "school_name": "Name unknown",
            "country_name": "Nigeria",
            "connectivity": false
        },
        {
            "lon": 7.174597979,
            "lat": 9.178782105,
            "school_name": "Name unknown",
            "country_name": "Nigeria",
            "connectivity": false
        },
        {
            "lon": 3.3184882,
            "lat": 6.67553492,
            "school_name": "Name unknown",
            "country_name": "Nigeria",
            "connectivity": false
        },
        {
            "lon": 3.712338209,
            "lat": 6.879302859,
            "school_name": "Name unknown",
            "country_name": "Nigeria",
            "connectivity": false
        },
        {
            "lon": 5.736165,
            "lat": 7.460861,
            "school_name": "Name unknown",
            "country_name": "Nigeria",
            "connectivity": false
        },
        {
            "lon": 5.063984,
            "lat": 7.238837,
            "school_name": "Name unknown",
            "country_name": "Nigeria",
            "connectivity": false
        },
        {
            "lon": 5.134080442,
            "lat": 7.116041047,
            "school_name": "Name unknown",
            "country_name": "Nigeria",
            "connectivity": false
        },
        {
            "lon": 4.850067,
            "lat": 7.108718,
            "school_name": "Name unknown",
            "country_name": "Nigeria",
            "connectivity": false
        },
        {
            "lon": 5.775723,
            "lat": 6.934278,
            "school_name": "Name unknown",
            "country_name": "Nigeria",
            "connectivity": false
        },
        {
            "lon": 4.747491,
            "lat": 7.616208,
            "school_name": "Name unknown",
            "country_name": "Nigeria",
            "connectivity": false
        },
        {
            "lon": 7.57216,
            "lat": 4.863575,
            "school_name": "Name unknown",
            "country_name": "Nigeria",
            "connectivity": false
        },
        {
            "lon": 3.934339,
            "lat": 7.368521,
            "school_name": "Name unknown",
            "country_name": "Nigeria",
            "connectivity": false
        },
        {
            "lon": 3.856727,
            "lat": 9.087212,
            "school_name": "Name unknown",
            "country_name": "Nigeria",
            "connectivity": false
        },
        {
            "lon": 3.951446,
            "lat": 7.440915,
            "school_name": "Name unknown",
            "country_name": "Nigeria",
            "connectivity": false
        },
        {
            "lon": 8.728725,
            "lat": 9.73318,
            "school_name": "Name unknown",
            "country_name": "Nigeria",
            "connectivity": false
        },
        {
            "lon": 9.28534,
            "lat": 9.25816,
            "school_name": "Name unknown",
            "country_name": "Nigeria",
            "connectivity": false
        },
        {
            "lon": 6.984863,
            "lat": 4.975215,
            "school_name": "Name unknown",
            "country_name": "Nigeria",
            "connectivity": false
        },
        {
            "lon": 7.093874,
            "lat": 5.97336,
            "school_name": "Name unknown",
            "country_name": "Nigeria",
            "connectivity": false
        },
        {
            "lon": 6.930802,
            "lat": 6.323654,
            "school_name": "Name unknown",
            "country_name": "Nigeria",
            "connectivity": false
        },
        {
            "lon": 6.919684,
            "lat": 6.009831,
            "school_name": "Name unknown",
            "country_name": "Nigeria",
            "connectivity": false
        },
        {
            "lon": 6.77591,
            "lat": 6.13334,
            "school_name": "Name unknown",
            "country_name": "Nigeria",
            "connectivity": false
        },
        {
            "lon": 7.62504638,
            "lat": 11.79502009,
            "school_name": "Name unknown",
            "country_name": "Nigeria",
            "connectivity": false
        },
        {
            "lon": 7.11790148,
            "lat": 11.17571235,
            "school_name": "Name unknown",
            "country_name": "Nigeria",
            "connectivity": false
        },
        {
            "lon": 10.31610847,
            "lat": 10.79010844,
            "school_name": "Name unknown",
            "country_name": "Nigeria",
            "connectivity": false
        },
        {
            "lon": 4.66962031,
            "lat": 10.49768486,
            "school_name": "Name unknown",
            "country_name": "Nigeria",
            "connectivity": false
        },
        {
            "lon": 5.26514,
            "lat": 11.554,
            "school_name": "Name unknown",
            "country_name": "Nigeria",
            "connectivity": false
        },
        {
            "lon": 6.165426,
            "lat": 4.804086,
            "school_name": "Name unknown",
            "country_name": "Nigeria",
            "connectivity": false
        },
        {
            "lon": 5.24498,
            "lat": 13.02205,
            "school_name": "Name unknown",
            "country_name": "Nigeria",
            "connectivity": false
        },
        {
            "lon": 8.003597,
            "lat": 7.556736,
            "school_name": "Name unknown",
            "country_name": "Nigeria",
            "connectivity": false
        },
        {
            "lon": 7.87135,
            "lat": 7.682142,
            "school_name": "Name unknown",
            "country_name": "Nigeria",
            "connectivity": false
        },
        {
            "lon": 8.616644,
            "lat": 7.175798,
            "school_name": "Name unknown",
            "country_name": "Nigeria",
            "connectivity": false
        },
        {
            "lon": 11.68282674,
            "lat": 10.93289771,
            "school_name": "Name unknown",
            "country_name": "Nigeria",
            "connectivity": false
        },
        {
            "lon": 10.79157,
            "lat": 13.25462,
            "school_name": "Name unknown",
            "country_name": "Nigeria",
            "connectivity": false
        },
        {
            "lon": 6.51593618,
            "lat": 12.53742117,
            "school_name": "Name unknown",
            "country_name": "Nigeria",
            "connectivity": false
        },
        {
            "lon": 6.475839615,
            "lat": 12.73924828,
            "school_name": "Name unknown",
            "country_name": "Nigeria",
            "connectivity": false
        },
        {
            "lon": 7.9308733,
            "lat": 5.5873967,
            "school_name": "Name unknown",
            "country_name": "Nigeria",
            "connectivity": false
        },
        {
            "lon": 30.72311,
            "lat": -30.02177,
            "school_name": "Sunduzwayo Senior Primary School",
            "country_name": "South Africa",
            "connectivity": false
        },
        {
            "lon": 28.4444,
            "lat": -24.69443,
            "school_name": "Modimolle Primary",
            "country_name": "South Africa",
            "connectivity": false
        },
        {
            "lon": 31.53712,
            "lat": -27.87365,
            "school_name": "Mathangetshitshi Junior Secondary School",
            "country_name": "South Africa",
            "connectivity": false
        },
        {
            "lon": -62.31439878,
            "lat": -38.71752966,
            "school_name": "JARDIN DE INFANTES N\u00ba941 LUIS SANDRINI",
            "country_name": "Argentina",
            "connectivity": false
        },
        {
            "lon": -58.73876911,
            "lat": -38.55245248,
            "school_name": "ESCUELA SECUNDARIA N\u00ba8 JOSE MANUEL ESTRADA",
            "country_name": "Argentina",
            "connectivity": false
        },
        {
            "lon": -59.68326934,
            "lat": -25.33485166,
            "school_name": "JIN N\u00ba 17 - EPEP N\u00ba 245",
            "country_name": "Argentina",
            "connectivity": false
        },
        {
            "lon": -77.032,
            "lat": -11.9022,
            "school_name": "2084 TROMPETEROS",
            "country_name": "Peru",
            "connectivity": false
        },
        {
            "lon": -74.9783,
            "lat": -14.1361,
            "school_name": "24178",
            "country_name": "Peru",
            "connectivity": false
        },
        {
            "lon": -70.2401,
            "lat": -18.0502,
            "school_name": "ESTRELLITAS",
            "country_name": "Peru",
            "connectivity": false
        },
        {
            "lon": -76.6478,
            "lat": -7.13089,
            "school_name": "FRANCISCO BOLOGNESI",
            "country_name": "Peru",
            "connectivity": false
        },
        {
            "lon": 8.705566,
            "lat": 12.0267,
            "school_name": "Name unknown",
            "country_name": "Nigeria",
            "connectivity": false
        },
        {
            "lon": 12.021471,
            "lat": 9.461296,
            "school_name": "Name unknown",
            "country_name": "Nigeria",
            "connectivity": false
        },