{
    "name": "Patchwork Kingdom #702 | Flunsylva",
    "description": "The twin kingdoms of Flunsylva, separated by a digital divide. A bustling kingdom of 249 schools on top that are all connected to the internet, and 133 schools, not connected, hidden in the upside down kingdom | Created for Giga (GigaConnect.org) \u2014 connecting every school in the world \u2014 in celebration of UNICEF's 75th birthday, by Nadieh Bremer",
    "external_url": "https://dummyURL.com/patchwork_kingdoms_702",
    "image": "https://dummy-storage-url.com/patchwork_kingdoms_702.png",
    "attributes": [
        {
            "trait_type": "Color palette",
            "value": "game boy"
        },
        {
            "display_type": "number",
            "trait_type": "Schools",
            "value": 413,
            "max_value": 460
        },
        {
            "display_type": "number",
            "trait_type": "Ratio - Connected",
            "value": 0.6,
            "max_value": 1
        },
        {
            "display_type": "number",
            "trait_type": "Ratio - Unconnected",
            "value": 0.32,
            "max_value": 1
        },
        {
            "display_type": "number",
            "trait_type": "Ratio - Data unavailable",
            "value": 0.08,
            "max_value": 1
        },
        {
            "trait_type": "Countries",
            "value": "BR-CO-CR-HN-KG-KZ-NA-PH-PS-RW-SL-ZW"
        },
        {
            "display_type": "number",
            "trait_type": "Symbols",
            "value": 44,
            "max_value": 51
        }
    ],
    "cluster_id": 702,
    "num_schools": 413,
    "num_schools_connected": 249,
    "num_schools_unconnected": 133,
    "num_schools_unknown": 31,
    "schools": [
        {
            "lon": -87.38565,
            "lat": 15.78127,
            "school_name": "MIGUEL MORAZAN",
            "country_name": "Honduras",
            "connectivity": true
        },
        {
            "lon": -87.47444,
            "lat": 15.59045,
            "school_name": "JOSE RAMON VILLEDA",
            "country_name": "Honduras",
            "connectivity": true
        },
        {
            "lon": -87.90999,
            "lat": 14.08465,
            "school_name": "LUZ PARA EL FUTURO",
            "country_name": "Honduras",
            "connectivity": true
        },
        {
            "lon": -87.8562,
            "lat": 14.25487,
            "school_name": "MARIANO VASQUEZ",
            "country_name": "Honduras",
            "connectivity": true
        },
        {
            "lon": -87.99191,
            "lat": 13.8938,
            "school_name": "PROF DAGOBERTO SUAZO",
            "country_name": "Honduras",
            "connectivity": true
        },
        {
            "lon": -88.85567,
            "lat": 14.21286,
            "school_name": "HECTOR CARACCIOLI",
            "country_name": "Honduras",
            "connectivity": true
        },
        {
            "lon": -88.57375,
            "lat": 14.85044,
            "school_name": "RAMON ROSA",
            "country_name": "Honduras",
            "connectivity": true
        },
        {
            "lon": -85.76462,
            "lat": 14.4995,
            "school_name": "PATRICIA TURCIOS",
            "country_name": "Honduras",
            "connectivity": true
        },
        {
            "lon": -88.25285,
            "lat": 14.89787,
            "school_name": "EULOGIO ENAMORADO",
            "country_name": "Honduras",
            "connectivity": true
        },
        {
            "lon": -88.04782,
            "lat": 14.77921,
            "school_name": "JORGE ROBB",
            "country_name": "Honduras",
            "connectivity": true
        },
        {
            "lon": -51.9995,
            "lat": -29.4274,
            "school_name": "ESC MUN EDUC INF PRIMEIROS PASSOS",
            "country_name": "Brazil",
            "connectivity": true
        },
        {
            "lon": -51.9191,
            "lat": -27.1799,
            "school_name": "EBM FREI CIPRIANO CHARDON",
            "country_name": "Brazil",
            "connectivity": true
        },
        {
            "lon": 35.307771,
            "lat": 32.464533,
            "school_name": "ez-aldeen pr boys",
            "country_name": "Palestine",
            "connectivity": true
        },
        {
            "lon": -87.69826,
            "lat": 14.7732,
            "school_name": "PAULINO VALLADAREZ",
            "country_name": "Honduras",
            "connectivity": true
        },
        {
            "lon": -88.03817,
            "lat": 15.4772,
            "school_name": "29 DE NOVIEMBRE",
            "country_name": "Honduras",
            "connectivity": true
        },
        {
            "lon": -86.70644,
            "lat": 14.19402,
            "school_name": "MARCO ANTONIO BANEGAS",
            "country_name": "Honduras",
            "connectivity": true
        },
        {
            "lon": -87.18713,
            "lat": 14.21442,
            "school_name": "SOLEDAD DE RAMIREZ",
            "country_name": "Honduras",
            "connectivity": true
        },
        {
            "lon": -87.20155,
            "lat": 14.30902,
            "school_name": "LISANDRO SAGASTUME",
            "country_name": "Honduras",
            "connectivity": true
        },
        {
            "lon": -86.77989,
            "lat": 14.42628,
            "school_name": "REPUBLICA DEL BRASIL",
            "country_name": "Honduras",
            "connectivity": true
        },
        {
            "lon": 32.04882,
            "lat": -19.0682,
            "school_name": "NZVIMBE",
            "country_name": "Zimbabwe",
            "connectivity": true
        },
        {
            "lon": 31.94137,
            "lat": -16.61861,
            "school_name": "NHORO",
            "country_name": "Zimbabwe",
            "connectivity": true
        },
        {
            "lon": 31.521,
            "lat": -17.64503,
            "school_name": "MUKOMBAMI",
            "country_name": "Zimbabwe",
            "connectivity": true
        },
        {
            "lon": -53.1141,
            "lat": -27.9071,
            "school_name": "ESC EST ENS MED SAO JOAO BATISTA",
            "country_name": "Brazil",
            "connectivity": true
        },
        {
            "lon": -46.5763,
            "lat": -23.7556,
            "school_name": "MATHIAS OCTAVIO ROXO NOBRE DOUTOR",
            "country_name": "Brazil",
            "connectivity": true
        },
        {
            "lon": 29.35244444,
            "lat": -2.129916667,
            "school_name": "EP UMUBANO",
            "country_name": "Rwanda",
            "connectivity": true
        },
        {
            "lon": 29.01719,
            "lat": -2.61161,
            "school_name": "ES BUGARAMA",
            "country_name": "Rwanda",
            "connectivity": true
        },
        {
            "lon": -84.10818416,
            "lat": 9.75659979,
            "school_name": "BRAULIO ODIO HERRERA",
            "country_name": "Costa Rica",
            "connectivity": true
        },
        {
            "lon": -83.71375713,
            "lat": 9.54950663,
            "school_name": "EL NIVEL",
            "country_name": "Costa Rica",
            "connectivity": true
        },
        {
            "lon": -84.28891192,
            "lat": 10.00942639,
            "school_name": "JULIA FERNANDEZ DE CORTES",
            "country_name": "Costa Rica",
            "connectivity": true
        },
        {
            "lon": -83.53643095,
            "lat": 10.09474278,
            "school_name": "EL COCO",
            "country_name": "Costa Rica",
            "connectivity": true
        },
        {
            "lon": 35.33014,
            "lat": 32.207247,
            "school_name": "salim basic mookhtalata",
            "country_name": "Palestine",
            "connectivity": true
        },
        {
            "lon": 35.141428,
            "lat": 32.129368,
            "school_name": "Name unknown",
            "country_name": "Palestine",
            "connectivity": true
        },
        {
            "lon": 35.233624,
            "lat": 31.422773,
            "school_name": "Al Hadaleen basic",
            "country_name": "Palestine",
            "connectivity": false
        },
        {
            "lon": 34.980342,
            "lat": 31.433288,
            "school_name": "al rafeden",
            "country_name": "Palestine",
            "connectivity": true
        },
        {
            "lon": -84.11943037,
            "lat": 9.9575238,
            "school_name": "C.T.P. LA CARPIO",
            "country_name": "Costa Rica",
            "connectivity": true
        },
        {
            "lon": 31.75431,
            "lat": -20.67641,
            "school_name": "NYANGAMBE",
            "country_name": "Zimbabwe",
            "connectivity": true
        },
        {
            "lon": 30.40491,
            "lat": -21.61286,
            "school_name": "BUBI (MARANDA)",
            "country_name": "Zimbabwe",
            "connectivity": true
        },
        {
            "lon": 27.52469,
            "lat": -18.52874,
            "school_name": "THOKOZANI",
            "country_name": "Zimbabwe",
            "connectivity": true
        },
        {
            "lon": 29.2637,
            "lat": -20.53926,
            "school_name": "FILABUSI",
            "country_name": "Zimbabwe",
            "connectivity": true
        },
        {
            "lon": 28.73791,
            "lat": -20.97218,
            "school_name": "MAKWE",
            "country_name": "Zimbabwe",
            "connectivity": true
        },
        {
            "lon": -43.1583,
            "lat": -22.527,
            "school_name": "CENTRO DE EDUCACAO INFANTIL JORGE ROLANDO DA SILVA",
            "country_name": "Brazil",
            "connectivity": true
        },
        {
            "lon": -49.5781,
            "lat": -15.3145,
            "school_name": "COLEGIO ESTADUAL POLIVALENTE RUI BARBOSA",
            "country_name": "Brazil",
            "connectivity": true
        },
        {
            "lon": -52.5539,
            "lat": -27.1922,
            "school_name": "EB MUN LAJEADO VERISSIMO",
            "country_name": "Brazil",
            "connectivity": true
        },
        {
            "lon": -78.88095005,
            "lat": 1.727762164,
            "school_name": "Name unknown",
            "country_name": "Colombia",
            "connectivity": false
        },
        {
            "lon": -74.19910293,
            "lat": 4.577539498,
            "school_name": "Name unknown",
            "country_name": "Colombia",
            "connectivity": false
        },
        {
            "lon": 14.535,
            "lat": -22.659722,
            "school_name": "Swakopmund Priv. CS",
            "country_name": "Namibia",
            "connectivity": false
        },
        {
            "lon": 21.233056,
            "lat": -17.965278,
            "school_name": "Mayara CS",
            "country_name": "Namibia",
            "connectivity": false
        },
        {
            "lon": 16.15333,
            "lat": -20.10944,
            "school_name": "Outjo PS",
            "country_name": "Namibia",
            "connectivity": true
        },
        {
            "lon": -62.460915,
            "lat": -10.431788,
            "school_name": "EEEF TITO LOURENCO DE LIMA",
            "country_name": "Brazil",
            "connectivity": true
        },
        {
            "lon": 121.827476,
            "lat": 17.050308,
            "school_name": "Sta. Rosa PS",
            "country_name": "Philippines",
            "connectivity": true
        },
        {
            "lon": 122.133707,
            "lat": 17.133349,
            "school_name": "Talaytay PS",
            "country_name": "Philippines",
            "connectivity": true
        },
        {
            "lon": 121.829285,
            "lat": 13.386363,
            "school_name": "Cawit NCHS",
            "country_name": "Philippines",
            "connectivity": true
        },
        {
            "lon": 117.461781,
            "lat": 8.643974,
            "school_name": "Culandanum ES",
            "country_name": "Philippines",
            "connectivity": true
        },
        {
            "lon": 122.037766,
            "lat": 13.272862,
            "school_name": "Tigwi ES",
            "country_name": "Philippines",
            "connectivity": true
        },
        {
            "lon": 119.557231,
            "lat": 10.564041,
            "school_name": "VILLA CONSTANCIA ES",
            "country_name": "Philippines",
            "connectivity": true
        },
        {
            "lon": 124.39962,
            "lat": 13.679811,
            "school_name": "San Miguel ES",
            "country_name": "Philippines",
            "connectivity": true
        },
        {
            "lon": 124.319435,
            "lat": 13.611964,
            "school_name": "San Pedro ES",
            "country_name": "Philippines",
            "connectivity": true
        },
        {
            "lon": 121.8986622,
            "lat": 11.7628107,
            "school_name": "Union ES",
            "country_name": "Philippines",
            "connectivity": true
        },
        {
            "lon": 122.064465,
            "lat": 11.74507308,
            "school_name": "Zaldivar ES",
            "country_name": "Philippines",
            "connectivity": true
        },
        {
            "lon": 123.9831268,
            "lat": 10.29847819,
            "school_name": "Bagong Silang ES",
            "country_name": "Philippines",
            "connectivity": true
        },
        {
            "lon": 122.975432,
            "lat": 9.781978,
            "school_name": "Nabaliwan ES",
            "country_name": "Philippines",
            "connectivity": true
        },
        {
            "lon": 124.919086,
            "lat": 10.35832,
            "school_name": "Himakilo Primary School",
            "country_name": "Philippines",
            "connectivity": true
        },
        {
            "lon": 124.872581,
            "lat": 10.131793,
            "school_name": "Isagani ES",
            "country_name": "Philippines",
            "connectivity": true
        },
        {
            "lon": 124.893692,
            "lat": 11.766873,
            "school_name": "Socorro ES",
            "country_name": "Philippines",
            "connectivity": true
        },
        {
            "lon": 124.683667,
            "lat": 7.683413,
            "school_name": "Amoyong Elementary School",
            "country_name": "Philippines",
            "connectivity": true
        },
        {
            "lon": 122.131554,
            "lat": 6.449537,
            "school_name": "Bohepiang PS",
            "country_name": "Philippines",
            "connectivity": true
        },
        {
            "lon": 120.719,
            "lat": 17.4151,
            "school_name": "Banat ES",
            "country_name": "Philippines",
            "connectivity": true
        },
        {
            "lon": -44.0116,
            "lat": -19.895342,
            "school_name": "EE SAO SALVADOR",
            "country_name": "Brazil",
            "connectivity": true
        },
        {
            "lon": -44.18099,
            "lat": -19.952774,
            "school_name": "EE PROFESSORA LOURDES BERNADETE SILVA",
            "country_name": "Brazil",
            "connectivity": true
        },
        {
            "lon": -43.80447,
            "lat": -20.263426,
            "school_name": "PRE-ESCOLA MUNICIPAL BONEQUINHO DOCE",
            "country_name": "Brazil",
            "connectivity": true
        },
        {
            "lon": -43.23702,
            "lat": -19.65617,
            "school_name": "CEMEI PREFEITO LI",
            "country_name": "Brazil",
            "connectivity": false
        },
        {
            "lon": -41.03705,
            "lat": -21.703632,
            "school_name": "ESCOLA MUNICIPAL AMARO DE SOUZA PAES",
            "country_name": "Brazil",
            "connectivity": true
        },
        {
            "lon": -43.102695,
            "lat": -22.23872,
            "school_name": "CIEP BRIZOLAO 429 VINTE E QUATRO DE NOVEMBRO",
            "country_name": "Brazil",
            "connectivity": true
        },
        {
            "lon": -43.782043,
            "lat": -22.822018,
            "school_name": "CIEP BRIZOLAO 497 - SILVIA TUPINAMBA",
            "country_name": "Brazil",
            "connectivity": true
        },
        {
            "lon": -51.372566,
            "lat": -29.133741,
            "school_name": "EEEM JULIO MANGONI",
            "country_name": "Brazil",
            "connectivity": false
        },
        {
            "lon": -46.72707,
            "lat": -23.20757,
            "school_name": "ESTANCIA SAO PAULO EMEF",
            "country_name": "Brazil",
            "connectivity": true
        },
        {
            "lon": -48.926258,
            "lat": -23.078812,
            "school_name": "IFSP - CAMPUS AVARE",
            "country_name": "Brazil",
            "connectivity": true
        },
        {
            "lon": -85.96793,
            "lat": 15.62153,
            "school_name": "JULIAN BACA ORDO\u00c3\u2018EZ",
            "country_name": "Honduras",
            "connectivity": true
        },
        {
            "lon": -87.90379,
            "lat": 15.80831,
            "school_name": "MIGUEL ANGEL BANEGAS MUNOZ",
            "country_name": "Honduras",
            "connectivity": true
        },
        {
            "lon": -71.8,
            "lat": 6.992778,
            "school_name": "JULIO ARBOLEDA",
            "country_name": "Colombia",
            "connectivity": true
        },
        {
            "lon": -73.11037753,
            "lat": 7.415341087,
            "school_name": "ESCUELA RURAL LOS CUCHAROS",
            "country_name": "Colombia",
            "connectivity": true
        },
        {
            "lon": -73.25583333,
            "lat": 7.475277778,
            "school_name": "INSTITUCION EDUCATIVA  SAN PEDRO DE LA TIGRA",
            "country_name": "Colombia",
            "connectivity": true
        },
        {
            "lon": -73.413346,
            "lat": 3.28678,
            "school_name": "SEDE EL TURPIAL",
            "country_name": "Colombia",
            "connectivity": true
        },
        {
            "lon": -73.23438142,
            "lat": 8.224802863,
            "school_name": "SEDE SANTA BARBARA",
            "country_name": "Colombia",
            "connectivity": true
        },
        {
            "lon": -73.45842372,
            "lat": 8.981096752,
            "school_name": "SEDE LOS CORAZONES",
            "country_name": "Colombia",
            "connectivity": true
        },
        {
            "lon": -73.703569,
            "lat": 3.336667,
            "school_name": "SEDE JORGE ELIECER GAITAN",
            "country_name": "Colombia",
            "connectivity": true
        },
        {
            "lon": -73.8272,
            "lat": 10.283086,
            "school_name": "INST. EDU. RAFAEL SOTO F.",
            "country_name": "Colombia",
            "connectivity": true
        },
        {
            "lon": -74.02379631,
            "lat": 8.937971426,
            "school_name": "ESC RUR MIX DE CHIMI",
            "country_name": "Colombia",
            "connectivity": true
        },
        {
            "lon": -74.11368962,
            "lat": 5.816385994,
            "school_name": "ESC SAN PABLAL",
            "country_name": "Colombia",
            "connectivity": true
        },
        {
            "lon": -74.22839656,
            "lat": 4.70377414,
            "school_name": "I.E. ANTONIO NARI\u00d1O - SEDE PRINCIPAL",
            "country_name": "Colombia",
            "connectivity": true
        },
        {
            "lon": -75.28473991,
            "lat": 2.922435807,
            "school_name": "ORIENTE",
            "country_name": "Colombia",
            "connectivity": true
        },
        {
            "lon": -75.14054467,
            "lat": 10.08302135,
            "school_name": "SAN CAYETANO NO. 2",
            "country_name": "Colombia",
            "connectivity": true
        },
        {
            "lon": -75.79600481,
            "lat": 6.595494716,
            "school_name": "C. E. R. SUCRE",
            "country_name": "Colombia",
            "connectivity": true
        },
        {
            "lon": -75.880566,
            "lat": 5.648319,
            "school_name": "C. E. R. LA AGUADA",
            "country_name": "Colombia",
            "connectivity": true
        },
        {
            "lon": -75.87716205,
            "lat": 8.043209937,
            "school_name": "ESC NVA LA PRIMAVERA",
            "country_name": "Colombia",
            "connectivity": true
        },
        {
            "lon": -75.90815602,
            "lat": 9.128351511,
            "school_name": "SAN JOSE",
            "country_name": "Colombia",
            "connectivity": true
        },
        {
            "lon": -76.30694444,
            "lat": 0.488333333,
            "school_name": "ESC RUR MIX LA CABA\u00d1A",
            "country_name": "Colombia",
            "connectivity": true
        },
        {
            "lon": -76.358846,
            "lat": 2.600266,
            "school_name": "CENTRO COMUNITARIO BILING`E LA MARQUEZA",
            "country_name": "Colombia",
            "connectivity": true
        },
        {
            "lon": -76.382778,
            "lat": 8.333333,
            "school_name": "C. E. R. BOTELLA DE ORO",
            "country_name": "Colombia",
            "connectivity": true
        },
        {
            "lon": -76.419456,
            "lat": 5.750711,
            "school_name": "SEDE PLAYA ALTA",
            "country_name": "Colombia",
            "connectivity": true
        },
        {
            "lon": -76.84,
            "lat": 1.88,
            "school_name": "ORDONEZ",
            "country_name": "Colombia",
            "connectivity": true
        },
        {
            "lon": -77.30807944,
            "lat": 2.102721076,
            "school_name": "EL OCHENTA Y UNO",
            "country_name": "Colombia",
            "connectivity": true
        },
        {
            "lon": -77.162222,
            "lat": 2.413889,
            "school_name": "PUERTO RICO (sede principal)",
            "country_name": "Colombia",
            "connectivity": true
        },
        {
            "lon": -77.182222,
            "lat": 1.253056,
            "school_name": "ESCUELA RURA MIXTA EL JARDIN SAN MIGUEL",
            "country_name": "Colombia",
            "connectivity": true
        },
        {
            "lon": -57.724,
            "lat": -3.3801,
            "school_name": "ESCOLA MUNICIPAL JARDIM PINOCCHIO",
            "country_name": "Brazil",
            "connectivity": false
        },
        {
            "lon": -58.602,
            "lat": -3.9883,
            "school_name": "ESCOLA MUNICIPAL MARIA AUXILIADORA",
            "country_name": "Brazil",
            "connectivity": false
        },
        {
            "lon": -67.9549,
            "lat": -8.9733,
            "school_name": "ESC SANTO HONORATO",
            "country_name": "Brazil",
            "connectivity": false
        },
        {
            "lon": -59.9295,
            "lat": -3.0455,
            "school_name": "EM FRANCINETE ROCHA BRASIL",
            "country_name": "Brazil",
            "connectivity": true
        },
        {
            "lon": -60.4195,
            "lat": 0.9406,
            "school_name": "ESCOLA DE ENSINO INFANTIL E FUNDAMENTAL VO HILDA KLENNIVING DA SILVA",
            "country_name": "Brazil",
            "connectivity": false
        },
        {
            "lon": -50.5852,
            "lat": 0.033,
            "school_name": "E M E F JOSE SEBASTIAO ARAUJO ALFAIA",
            "country_name": "Brazil",
            "connectivity": true
        },
        {
            "lon": -48.1658,
            "lat": -0.8501,
            "school_name": "E M E I F PADRE ALFREDO DE LA O",
            "country_name": "Brazil",
            "connectivity": false
        },
        {
            "lon": -47.1741,
            "lat": -1.1979,
            "school_name": "E M E F FREI HERMES RECANATTI",
            "country_name": "Brazil",
            "connectivity": true
        },
        {
            "lon": -48.848,
            "lat": -1.7699,
            "school_name": "E M E I F SAO JOSE V",
            "country_name": "Brazil",
            "connectivity": false
        },
        {
            "lon": -47.4404,
            "lat": -2.0735,
            "school_name": "E M E I F ENIZIO AURELIANO DA SILVA",
            "country_name": "Brazil",
            "connectivity": false
        },
        {
            "lon": -46.1941,
            "lat": -1.2233,
            "school_name": "E M E I F PROFESSORA JOVITA DOS SANTOS GATINHO - MIRIM",
            "country_name": "Brazil",
            "connectivity": false
        },
        {
            "lon": -50.4418,
            "lat": -2.0512,
            "school_name": "EMEF FABIANO LIARTE LOPES",
            "country_name": "Brazil",
            "connectivity": false
        },
        {
            "lon": -46.9018,
            "lat": -0.9515,
            "school_name": "E M E F RAIMUNDO GOMES DE LIMA",
            "country_name": "Brazil",
            "connectivity": true
        },
        {
            "lon": -47.438,
            "lat": -1.7712,
            "school_name": "E M E I F STA CRUZ",
            "country_name": "Brazil",
            "connectivity": false
        },
        {
            "lon": -49.1223,
            "lat": -5.3613,
            "school_name": "EMEF TEREZA DONATO DE ARAUJO - CEEJA",
            "country_name": "Brazil",
            "connectivity": true
        },
        {
            "lon": -51.1152,
            "lat": 0.0052,
            "school_name": "ESC EST LAGOA DOS INDIOS",
            "country_name": "Brazil",
            "connectivity": true
        },
        {
            "lon": -50.7083,
            "lat": 0.7226,
            "school_name": "ESC EST MARIA LOPES DA CONCEICAO",
            "country_name": "Brazil",
            "connectivity": true
        },
        {
            "lon": -48.8897,
            "lat": -10.1932,
            "school_name": "COLEGIO ESTADUAL PROFESSOR JOSE NEZIO RAMOS",
            "country_name": "Brazil",
            "connectivity": true
        },
        {
            "lon": -47.589,
            "lat": -6.4925,
            "school_name": "ESCOLA MUNICIPAL ASSENTAMENTO COCO",
            "country_name": "Brazil",
            "connectivity": false
        },
        {
            "lon": -45.5479,
            "lat": -4.4709,
            "school_name": "UNIDADE INTEGRADA RAIMUNDA RAMOS",
            "country_name": "Brazil",
            "connectivity": false
        },
        {
            "lon": -47.9978,
            "lat": -5.1948,
            "school_name": "ESCOLA MUNICIPAL DE ENSINO FUNDAMENTAL SAO FRANCISCO",
            "country_name": "Brazil",
            "connectivity": true
        },
        {
            "lon": -44.3055,
            "lat": -5.1477,
            "school_name": "UE PREFEITO FRANCISCO DIAS",
            "country_name": "Brazil",
            "connectivity": false
        },
        {
            "lon": -41.9044,
            "lat": -2.8909,
            "school_name": "CENTRO DE ENSINO ATENEU SAO JOSE",
            "country_name": "Brazil",
            "connectivity": true
        },
        {
            "lon": -46.3351,
            "lat": -7.1052,
            "school_name": "EM DOM PEDRO II",
            "country_name": "Brazil",
            "connectivity": false
        },
        {
            "lon": -43.8284,
            "lat": -22.4647,
            "school_name": "CRECHE MUL VEREADOR HEITOR FAVIERI",
            "country_name": "Brazil",
            "connectivity": true
        },
        {
            "lon": -47.9966,
            "lat": -5.1943,
            "school_name": "ESCOLA INFANTIL MUNDO DO SABER",
            "country_name": "Brazil",
            "connectivity": false
        },
        {
            "lon": -43.7911,
            "lat": -5.3181,
            "school_name": "UE JOSE PEREIRA DA SILVA",
            "country_name": "Brazil",
            "connectivity": false
        },
        {
            "lon": -44.2214,
            "lat": -2.5389,
            "school_name": "CENTRO DE EDUCACAO ESPECIAL NUCLEO DE ATIVIDADES DE ALTAS HABILIDADES E SUPERDOTACAO JOAOSINHO TRINT",
            "country_name": "Brazil",
            "connectivity": true
        },
        {
            "lon": -44.2204,
            "lat": -8.8149,
            "school_name": "U E JOAQUIM PARENTE",
            "country_name": "Brazil",
            "connectivity": true
        },
        {
            "lon": -42.6849,
            "lat": -9.0272,
            "school_name": "UNIDADE ESCOLAR MADRE LUCIA",
            "country_name": "Brazil",
            "connectivity": true
        },
        {
            "lon": -40.8022,
            "lat": -7.2394,
            "school_name": "UNID ESC PEDRO CAZE",
            "country_name": "Brazil",
            "connectivity": true
        },
        {
            "lon": -42.5062,
            "lat": -3.4927,
            "school_name": "UNIDADE ESCOLAR FRANCISCO DAS CHAGAS GOMES SILVA",
            "country_name": "Brazil",
            "connectivity": true
        },
        {
            "lon": -42.7979,
            "lat": -5.0041,
            "school_name": "CENTRO MUNICIPAL DE EDUCACAO INFANTIL JOAO PAULO DOS REIS VELOSO",
            "country_name": "Brazil",
            "connectivity": false
        },
        {
            "lon": -40.1234,
            "lat": -2.9583,
            "school_name": "JOAO RIBEIRO RAMOS EEIEF",
            "country_name": "Brazil",
            "connectivity": true
        },
        {
            "lon": -40.3944,
            "lat": -6.1472,
            "school_name": "JESUS MARIA JOSE EEIF",
            "country_name": "Brazil",
            "connectivity": false
        },
        {
            "lon": -51.4995,
            "lat": -27.1839,
            "school_name": "GE MUN PROF",
            "country_name": "Brazil",
            "connectivity": true
        },
        {
            "lon": -38.4546,
            "lat": -4.1015,
            "school_name": "MARINA FERREIRA DE ALMEIDA EMEF",
            "country_name": "Brazil",
            "connectivity": true
        },
        {
            "lon": -39.6559,
            "lat": -7.2508,
            "school_name": "SAO FRANCISCO EMEIEF",
            "country_name": "Brazil",
            "connectivity": true
        },
        {
            "lon": -40.1192,
            "lat": -3.2262,
            "school_name": "FRANCISCO ABDORAL ROCHA EMEF",
            "country_name": "Brazil",
            "connectivity": true
        },
        {
            "lon": -40.747,
            "lat": -4.1784,
            "school_name": "FRANCISCO DE MELO FILHO EEIF",
            "country_name": "Brazil",
            "connectivity": true
        },
        {
            "lon": -39.5673,
            "lat": -3.1257,
            "school_name": "MARIA BARBOSA DE HOLANDA E E B",
            "country_name": "Brazil",
            "connectivity": true
        },
        {
            "lon": -37.3557,
            "lat": -4.7104,
            "school_name": "ANGELA MARIA DE GOIS CEI PROFESSORA",
            "country_name": "Brazil",
            "connectivity": true
        },
        {
            "lon": -36.6435,
            "lat": -6.4374,
            "school_name": "ESC MUL CANTIDIA AUDA PIRES",
            "country_name": "Brazil",
            "connectivity": true
        },
        {
            "lon": -38.1383,
            "lat": -6.123,
            "school_name": "ESC MUL DR JOSE TORQUATO DE FIGUEIREDO",
            "country_name": "Brazil",
            "connectivity": true
        },
        {
            "lon": -51.0984,
            "lat": 0.0599,
            "school_name": "ESC MUL PROF\u00aa SANDRA LOBATO FERREIRA",
            "country_name": "Brazil",
            "connectivity": true
        },
        {
            "lon": -61.4948,
            "lat": -3.1677,
            "school_name": "ESC MUL SANTA LUZIA",
            "country_name": "Brazil",
            "connectivity": true
        },
        {
            "lon": -35.2137,
            "lat": -6.4888,
            "school_name": "ESC MUL PROF GENAR BEZERRIL",
            "country_name": "Brazil",
            "connectivity": false
        },
        {
            "lon": -36.9881,
            "lat": -5.0572,
            "school_name": "ESCOLA MUNICIPAL VILA MARANHAO",
            "country_name": "Brazil",
            "connectivity": false
        },
        {
            "lon": -36.1264,
            "lat": -5.3558,
            "school_name": "CENTRO EDUCATIVO CIRANDA DO SABER",
            "country_name": "Brazil",
            "connectivity": true
        },
        {
            "lon": -36.6706,
            "lat": -5.4165,
            "school_name": "CM DE ENS RURAL UNID IX SANTO ANTONIO ENS FUND",
            "country_name": "Brazil",
            "connectivity": false
        },
        {
            "lon": -38.3329,
            "lat": -7.2245,
            "school_name": "ESC MUL MARIA LOPES DA SILVA",
            "country_name": "Brazil",
            "connectivity": false
        },
        {
            "lon": -37.9954,
            "lat": -7.7347,
            "school_name": "EEEFN GAMA E MELO",
            "country_name": "Brazil",
            "connectivity": true
        },
        {
            "lon": -38.3271,
            "lat": -6.9173,
            "school_name": "CRECHE MUNICIPAL BRINCANDO DE APRENDER",
            "country_name": "Brazil",
            "connectivity": false
        },
        {
            "lon": -39.9663,
            "lat": -7.5907,
            "school_name": "ESCOLA MUL ANTONIO ALVES DE MEDEIROS",
            "country_name": "Brazil",
            "connectivity": true
        },
        {
            "lon": -44.7766,
            "lat": -4.2157,
            "school_name": "UEF DESEMBARGADOR THALES RIBEIRO GONCALVES",
            "country_name": "Brazil",
            "connectivity": true
        },
        {
            "lon": -38.1344,
            "lat": -8.9351,
            "school_name": "ESCOLA MUNICIPAL PEREIRO",
            "country_name": "Brazil",
            "connectivity": false
        },
        {
            "lon": -36.8095,
            "lat": -8.6742,
            "school_name": "CRECHE SANTA QUITERIA",
            "country_name": "Brazil",
            "connectivity": false
        },
        {
            "lon": -36.1653,
            "lat": -8.9648,
            "school_name": "GRUPO ESCOLAR MANOEL TENORIO CAVALCANTI",
            "country_name": "Brazil",
            "connectivity": true
        },
        {
            "lon": -36.3719,
            "lat": -8.8795,
            "school_name": "ESCOLA JOSE LUIZ CABRAL",
            "country_name": "Brazil",
            "connectivity": false
        },
        {
            "lon": -35.2077,
            "lat": -7.9397,
            "school_name": "ESC MUNICIPAL DR ANTONIO MONTENEGRO",
            "country_name": "Brazil",
            "connectivity": false
        },
        {
            "lon": -35.2069,
            "lat": -7.8865,
            "school_name": "ESCOLA MUNICIPAL ELIZA FIDELIS DA SILVA",
            "country_name": "Brazil",
            "connectivity": true
        },
        {
            "lon": -35.8281,
            "lat": -8.5623,
            "school_name": "ESCOLA MUNICIPAL LAEL SAMPAIO",
            "country_name": "Brazil",
            "connectivity": false
        },
        {
            "lon": -35.9641,
            "lat": -8.8969,
            "school_name": "ESCOLA ELENITA VALENCA",
            "country_name": "Brazil",
            "connectivity": false
        },
        {
            "lon": -34.9382,
            "lat": -8.1308,
            "school_name": "ESCOLA MUNICIPAL JORDAO BAIXO",
            "country_name": "Brazil",
            "connectivity": true
        },
        {
            "lon": -37.3046,
            "lat": -10.6829,
            "school_name": "ESCOLA MUN MARTINS ANDRELINO DOS REIS",
            "country_name": "Brazil",
            "connectivity": true
        },
        {
            "lon": -41.9609,
            "lat": -9.4559,
            "school_name": "GRUPO ESCOLAR EDUCADOR PAULO FREIRE",
            "country_name": "Brazil",
            "connectivity": false
        },
        {
            "lon": -42.5119,
            "lat": -10.9083,
            "school_name": "ESCOLA MUNICIPAL HERMENEGILDO NOGUEIRA",
            "country_name": "Brazil",
            "connectivity": false
        },
        {
            "lon": -43.783,
            "lat": -13.9222,
            "school_name": "ESCOLA MUNICIPAL JUPY",
            "country_name": "Brazil",
            "connectivity": false
        },
        {
            "lon": -38.4492,
            "lat": -11.1703,
            "school_name": "ESCOLA MUNICIPAL OLAVO BILAC",
            "country_name": "Brazil",
            "connectivity": false
        },
        {
            "lon": -39.6623,
            "lat": -11.9019,
            "school_name": "ESCOLA MUN DE 1 GRAU EDVALDO M BOAVENTURA",
            "country_name": "Brazil",
            "connectivity": true
        },
        {
            "lon": -38.9999,
            "lat": -11.662,
            "school_name": "CENTRO SOCIAL URBANO DALVA NEGREIROS",
            "country_name": "Brazil",
            "connectivity": true
        },
        {
            "lon": -38.2372,
            "lat": -4.1347,
            "school_name": "CENTRO EDUCACIONAL MUNICIPAL",
            "country_name": "Brazil",
            "connectivity": true
        },
        {
            "lon": -38.3938,
            "lat": -12.8114,
            "school_name": "INSTITUTO BATISTA DE EDUCACAO",
            "country_name": "Brazil",
            "connectivity": true
        },
        {
            "lon": -42.1678,
            "lat": -12.8102,
            "school_name": "ESCOLA MUNICIPAL FELIX MONTEIRO DOS SANTOS",
            "country_name": "Brazil",
            "connectivity": false
        },
        {
            "lon": -39.5976,
            "lat": -13.0347,
            "school_name": "SEMED-ESCOLA MUNICIPAL PROFESSORA ROSALINA SOUZA BITTENCOURT",
            "country_name": "Brazil",
            "connectivity": true
        },
        {
            "lon": -39.5837,
            "lat": -16.3662,
            "school_name": "CEMEI - IV - GUSMAO",
            "country_name": "Brazil",
            "connectivity": true
        },
        {
            "lon": -38.2159,
            "lat": -9.3903,
            "school_name": "IFBA - CAMPUS PAULO AFONSO",
            "country_name": "Brazil",
            "connectivity": true
        },
        {
            "lon": -50.4295,
            "lat": -22.6717,
            "school_name": "ANTONIO JOSE DOS SANTOS DOM",
            "country_name": "Brazil",
            "connectivity": true
        },
        {
            "lon": -41.7549,
            "lat": -14.6689,
            "school_name": "MUNICIPAL JOANINA",
            "country_name": "Brazil",
            "connectivity": false
        },
        {
            "lon": -38.4834,
            "lat": -12.9964,
            "school_name": "CENTRO MUNICIPAL DE EDUCACAO INFANTIL VIRGEM DE LA ALMUDENA",
            "country_name": "Brazil",
            "connectivity": true
        },
        {
            "lon": -36.3144,
            "lat": -10.1694,
            "school_name": "ESCOLA MUNICIPAL DE EDUCACAO INFANTIL JOAO TRAJANO DOS SANTOS",
            "country_name": "Brazil",
            "connectivity": true
        },
        {
            "lon": -43.9227,
            "lat": -19.8348,
            "school_name": "ESCOLA MUNICIPAL FRANCISCO CAMPOS",
            "country_name": "Brazil",
            "connectivity": true
        },
        {
            "lon": -42.4518,
            "lat": -20.4707,
            "school_name": "EM GERALDA MARTINS DE ALMEIDA",
            "country_name": "Brazil",
            "connectivity": false
        },
        {
            "lon": -46.9216,
            "lat": -19.6046,
            "school_name": "EE PIO XII",
            "country_name": "Brazil",
            "connectivity": true
        },
        {
            "lon": -40.9731,
            "lat": -16.2719,
            "school_name": "EM JOSE CLAUDIO DE SOUZA",
            "country_name": "Brazil",
            "connectivity": true
        },
        {
            "lon": -42.8349,
            "lat": -19.7014,
            "school_name": "EM PROF FRANCISCO LETRO",
            "country_name": "Brazil",
            "connectivity": false
        },
        {
            "lon": -36.2075,
            "lat": -9.6477,
            "school_name": "ESCOLA ESTADUAL JOSEFA CAVALCANTE SURUAGY",
            "country_name": "Brazil",
            "connectivity": true
        },
        {
            "lon": -44.8563,
            "lat": -15.9607,
            "school_name": "EM JOSE DAVILA PINTO",
            "country_name": "Brazil",
            "connectivity": true
        },
        {
            "lon": -43.8724,
            "lat": -19.6526,
            "school_name": "EM DONA ARAMITA",
            "country_name": "Brazil",
            "connectivity": true
        },
        {
            "lon": -44.3358,
            "lat": -2.5646,
            "school_name": "CENTRO DE ENSINO ANJO DA GUARDA",
            "country_name": "Brazil",
            "connectivity": true
        },
        {
            "lon": -43.4722,
            "lat": -20.7931,
            "school_name": "E M INFANTIL PROF",
            "country_name": "Brazil",
            "connectivity": true
        },
        {
            "lon": -47.4557,
            "lat": -22.4812,
            "school_name": "MARTHA SALIBE ABRAHAO CEI",
            "country_name": "Brazil",
            "connectivity": true
        },
        {
            "lon": -40.2469,
            "lat": -18.142,
            "school_name": "EMUEF CORREGO DO LIMOEIRO",
            "country_name": "Brazil",
            "connectivity": true
        },
        {
            "lon": -40.3548,
            "lat": -19.5074,
            "school_name": "EMUEF FAZENDA TRES MARIAS",
            "country_name": "Brazil",
            "connectivity": false
        },
        {
            "lon": -40.8945,
            "lat": -20.0219,
            "school_name": "EMEI FAZENDA ERNESTO GRUNEWALDI",
            "country_name": "Brazil",
            "connectivity": true
        },
        {
            "lon": -40.8728,
            "lat": -20.7869,
            "school_name": "EMUEF PALMITAL",
            "country_name": "Brazil",
            "connectivity": true
        },
        {
            "lon": -48.1433,
            "lat": -15.9394,
            "school_name": "CEF TAMANDUA",
            "country_name": "Brazil",
            "connectivity": true
        },
        {
            "lon": -41.8719,
            "lat": -21.2343,
            "school_name": "E M JOSE DE PAULA NOGUEIRA",
            "country_name": "Brazil",
            "connectivity": false
        },
        {
            "lon": -41.3437,
            "lat": -21.7433,
            "school_name": "CE IRMA ZILDA DE CASTRO",
            "country_name": "Brazil",
            "connectivity": true
        },
        {
            "lon": -53.3008,
            "lat": -25.7147,
            "school_name": "BARRA DO LONTRA E E C DE EF",
            "country_name": "Brazil",
            "connectivity": true
        },
        {
            "lon": -43.4994,
            "lat": -22.7345,
            "school_name": "CIEP 134 VEREADOR JOSE LOPES DE ARAUJO",
            "country_name": "Brazil",
            "connectivity": true
        },
        {
            "lon": -48.4452,
            "lat": -22.8851,
            "school_name": "CARDOSO DE ALMEIDA DR EMEF",
            "country_name": "Brazil",
            "connectivity": true
        },
        {
            "lon": -48.5512,
            "lat": -20.7316,
            "school_name": "ANANIAS DO NASCIMENTO EMEF",
            "country_name": "Brazil",
            "connectivity": true
        },
        {
            "lon": -43.652,
            "lat": -13.5888,
            "school_name": "ESCOLA GETULIO VARGAS",
            "country_name": "Brazil",
            "connectivity": true
        },
        {
            "lon": -43.1826,
            "lat": -22.595,
            "school_name": "E M VEREADOR GERALDO A PEREIRA",
            "country_name": "Brazil",
            "connectivity": true
        },
        {
            "lon": -34.9499,
            "lat": -8.0919,
            "school_name": "ESCOLA DE REFERENCIA EM ENSINO MEDIO ALBERTO TORRES",
            "country_name": "Brazil",
            "connectivity": true
        },
        {
            "lon": -40.5971,
            "lat": -11.4335,
            "school_name": "EE - COLEGIO ESTADUAL POLIVALENTE DE MIGUEL CALMON - TEMPO INTEGRAL",
            "country_name": "Brazil",
            "connectivity": true
        },
        {
            "lon": -41.306,
            "lat": -21.6969,
            "school_name": "CE JARDIM AEROPORTO",
            "country_name": "Brazil",
            "connectivity": false
        },
        {
            "lon": -42.1799,
            "lat": -21.5399,
            "school_name": "E M CARIBE DA ROCHA",
            "country_name": "Brazil",
            "connectivity": false
        },
        {
            "lon": -43.4791,
            "lat": -23.0243,
            "school_name": "0724808 EDI AMOR",
            "country_name": "Brazil",
            "connectivity": true
        },
        {
            "lon": -53.6713,
            "lat": -27.5317,
            "school_name": "ESC EST ENS FUN OSMAR HERMANN",
            "country_name": "Brazil",
            "connectivity": true
        },
        {
            "lon": -46.6577,
            "lat": -23.6016,
            "school_name": "EMEI ANITA COSTA DA",
            "country_name": "Brazil",
            "connectivity": true
        },
        {
            "lon": -50.3433,
            "lat": -20.076,
            "school_name": "PINGO DE GENTE EMEI",
            "country_name": "Brazil",
            "connectivity": true
        },
        {
            "lon": -46.4643,
            "lat": -24.0223,
            "school_name": "VILA TUPIRY ESCOLA MUNICIPAL",
            "country_name": "Brazil",
            "connectivity": true
        },
        {
            "lon": -38.0852,
            "lat": -11.6624,
            "school_name": "EE - COLEGIO ESTADUAL PROFESSORA AUREA DOS HUMILDES OLIVEIRA",
            "country_name": "Brazil",
            "connectivity": true
        },
        {
            "lon": -48.6079,
            "lat": -23.8054,
            "school_name": "MARIA DE LOURDES PEREIRA NOGUEIRA EM",
            "country_name": "Brazil",
            "connectivity": true
        },
        {
            "lon": -48.894,
            "lat": -23.0752,
            "school_name": "MANECO DIONISIO EMEB",
            "country_name": "Brazil",
            "connectivity": true
        },
        {
            "lon": -46.8979,
            "lat": -23.5426,
            "school_name": "FRANCISCO TAVARES DE OLIVEIRA EMEB",
            "country_name": "Brazil",
            "connectivity": true
        },
        {
            "lon": -46.6687,
            "lat": -23.7473,
            "school_name": "EMEI JOAO CANDIDO",
            "country_name": "Brazil",
            "connectivity": true
        },
        {
            "lon": -51.8588,
            "lat": -21.8837,
            "school_name": "JOAO RODRIGUES PROF EMEFEI",
            "country_name": "Brazil",
            "connectivity": true
        },
        {
            "lon": -48.8986,
            "lat": -23.1142,
            "school_name": "ANA S OLIVEIRA DONA CENTRO DE ED INF CRECHE",
            "country_name": "Brazil",
            "connectivity": true
        },
        {
            "lon": -53.615,
            "lat": -28.684,
            "school_name": "ESC EST ENS FUN ELIZA BRUM DE LIMA",
            "country_name": "Brazil",
            "connectivity": true
        },
        {
            "lon": -50.2585,
            "lat": -20.2924,
            "school_name": "ANGELO FINOTO CEMEI",
            "country_name": "Brazil",
            "connectivity": true
        },
        {
            "lon": -46.4002,
            "lat": -23.9629,
            "school_name": "CASTELO NOVO CENTRO EDUCACIONAL E RECREATIVO CER",
            "country_name": "Brazil",
            "connectivity": false
        },
        {
            "lon": -46.3127,
            "lat": -23.5581,
            "school_name": "CIDADE EDSON EM",
            "country_name": "Brazil",
            "connectivity": true
        },
        {
            "lon": -46.8074,
            "lat": -23.4408,
            "school_name": "EMEF MARILI DIAS PROFA",
            "country_name": "Brazil",
            "connectivity": true
        },
        {
            "lon": -50.5304,
            "lat": -20.2701,
            "school_name": "JOAO ARNALDO ANDREU AVELHANEDA PROF EM",
            "country_name": "Brazil",
            "connectivity": true
        },
        {
            "lon": -48.7356,
            "lat": -22.0751,
            "school_name": "MODESTO MASSOM PREFEITO EMEF",
            "country_name": "Brazil",
            "connectivity": true
        },
        {
            "lon": -47.5607,
            "lat": -22.4165,
            "school_name": "CEL JTO A EE JOAQUIM RIBEIRO",
            "country_name": "Brazil",
            "connectivity": false
        },
        {
            "lon": -47.1448,
            "lat": -22.8472,
            "school_name": "CEI NAVE MAE PROFESSORA AMELIA PIRES PALERMO",
            "country_name": "Brazil",
            "connectivity": true
        },
        {
            "lon": -46.5939,
            "lat": -23.6967,
            "school_name": "ERASMO BATISTA SILVA DE ALMEIDA",
            "country_name": "Brazil",
            "connectivity": true
        },
        {
            "lon": -50.736,
            "lat": -24.0592,
            "school_name": "GABRIEL DE SOUZA E R M EF",
            "country_name": "Brazil",
            "connectivity": false
        },
        {
            "lon": -59.9753,
            "lat": -3.0107,
            "school_name": "ESCOLA ESTADUAL PROFESSOR DORVAL VARELA MOURA",
            "country_name": "Brazil",
            "connectivity": true
        },
        {
            "lon": -44.1243,
            "lat": -22.5229,
            "school_name": "COL PROF\u00aa THEMIS DE ALMEIDA VIEIRA",
            "country_name": "Brazil",
            "connectivity": true
        },
        {
            "lon": -53.5816,
            "lat": -26.2303,
            "school_name": "ANCHIETA E E C PE EF",
            "country_name": "Brazil",
            "connectivity": true
        },
        {
            "lon": -49.3933,
            "lat": -25.5965,
            "school_name": "MANOEL BANDEIRA II C M E I",
            "country_name": "Brazil",
            "connectivity": true
        },
        {
            "lon": -49.2996,
            "lat": -25.3793,
            "school_name": "BRACATINGA C M E I",
            "country_name": "Brazil",
            "connectivity": true
        },
        {
            "lon": -50.1528,
            "lat": -29.6795,
            "school_name": "E E IND ENS FUN KURITY",
            "country_name": "Brazil",
            "connectivity": true
        },
        {
            "lon": -49.8929,
            "lat": -29.5203,
            "school_name": "NUCLEO MUN EJA E CP PAULO FREIRE",
            "country_name": "Brazil",
            "connectivity": true
        },
        {
            "lon": -44.1452,
            "lat": -19.7616,
            "school_name": "EE NILTON MARTINS DA COSTA",
            "country_name": "Brazil",
            "connectivity": true
        },
        {
            "lon": -50.2139,
            "lat": -30.1753,
            "school_name": "ESC EST ENS FUN HERLITA SILVEIRA TEIXEIRA CIEP EM CIDREIRA",
            "country_name": "Brazil",
            "connectivity": true
        },
        {
            "lon": -54.0617,
            "lat": -31.3373,
            "school_name": "EMEF PROFESSORA MARIA DE LOURDES MACHADO MOLINA",
            "country_name": "Brazil",
            "connectivity": true
        },
        {
            "lon": -52.4505,
            "lat": -29.7293,
            "school_name": "EMEI CRIANCA FELIZ",
            "country_name": "Brazil",
            "connectivity": true
        },
        {
            "lon": -54.659,
            "lat": -20.4968,
            "school_name": "EMEI - CLAUDIO MARCOS MANCINI",
            "country_name": "Brazil",
            "connectivity": true
        },
        {
            "lon": -51.0951,
            "lat": -20.094,
            "school_name": "ESCOLA MUNICIPAL PROFESSOR JESUS JOSE DE SOUZA",
            "country_name": "Brazil",
            "connectivity": true
        },
        {
            "lon": -54.6524,
            "lat": -16.4359,
            "school_name": "EMEB BERNARDO VENANCIO DE CARVALHO",
            "country_name": "Brazil",
            "connectivity": true
        },
        {
            "lon": -50.2531,
            "lat": -15.3517,
            "school_name": "ESC MUL FRANCISCO ELIEZER CURADO",
            "country_name": "Brazil",
            "connectivity": true
        },
        {
            "lon": -48.2196,
            "lat": -18.3321,
            "school_name": "ESCOLA MUNICIPAL JOAOZINHO E MARIA",
            "country_name": "Brazil",
            "connectivity": true
        },
        {
            "lon": -48.0266,
            "lat": -16.0378,
            "school_name": "CEF 403 DE SANTA MARIA",
            "country_name": "Brazil",
            "connectivity": true
        },
        {
            "lon": -49.8681,
            "lat": -28.8071,
            "school_name": "PE CANTINHO VERDE",
            "country_name": "Brazil",
            "connectivity": false
        },
        {
            "lon": -44.4776,
            "lat": -22.5463,
            "school_name": "CMEI MARIA FRANCISCA DINIZ FRECH",
            "country_name": "Brazil",
            "connectivity": true
        },
        {
            "lon": -46.5363,
            "lat": -23.6615,
            "school_name": "JOAO GALEAO CARVALHAL SENADOR",
            "country_name": "Brazil",
            "connectivity": true
        },
        {
            "lon": -45.4454,
            "lat": -23.3759,
            "school_name": "FIGUEIRA DE TOLEDO",
            "country_name": "Brazil",
            "connectivity": true
        },
        {
            "lon": -51.9081,
            "lat": -23.3872,
            "school_name": "FIRMINA MARIA C M E I IR",
            "country_name": "Brazil",
            "connectivity": true
        },
        {
            "lon": -46.5566,
            "lat": -23.1077,
            "school_name": "GABRIEL DA SILVA PROFESSOR",
            "country_name": "Brazil",
            "connectivity": true
        },
        {
            "lon": -48.9487,
            "lat": -3.3278,
            "school_name": "E M E I F COSTA E SILVA",
            "country_name": "Brazil",
            "connectivity": true
        },
        {
            "lon": -39.3972,
            "lat": -12.8506,
            "school_name": "COLEGIO MUN PROF\u00aa CLARICE DIAS DE CASTRO",
            "country_name": "Brazil",
            "connectivity": true
        },
        {
            "lon": -43.4262,
            "lat": -22.8177,
            "school_name": "ESCOLA MUNICIPAL PAUL HARRIS",
            "country_name": "Brazil",
            "connectivity": true
        },
        {
            "lon": -43.3659,
            "lat": -22.473,
            "school_name": "E M MANOEL BERNARDES NETTO",
            "country_name": "Brazil",
            "connectivity": true
        },
        {
            "lon": -51.252,
            "lat": -24.2545,
            "school_name": "OSVALDO CRUZ E M C EI EF",
            "country_name": "Brazil",
            "connectivity": true
        },
        {
            "lon": -51.6439,
            "lat": -27.9094,
            "school_name": "ESCOLA MUNICIPAL DE EDUCACAO INFANTIL CRIANCA FELIZ",
            "country_name": "Brazil",
            "connectivity": true
        },
        {
            "lon": -49.6261,
            "lat": -22.9036,
            "school_name": "PINGO DE GENTE EMEI",
            "country_name": "Brazil",
            "connectivity": true
        },
        {
            "lon": -46.8197,
            "lat": -23.5866,
            "school_name": "JARDIM SANTA ANGELA",
            "country_name": "Brazil",
            "connectivity": true
        },
        {
            "lon": -48.3199,
            "lat": -1.29,
            "school_name": "EEEFM DE MURININ",
            "country_name": "Brazil",
            "connectivity": true
        },
        {
            "lon": -47.488,
            "lat": -18.7199,
            "school_name": "C EDUC INF MUN CORINA MARIA JESUS",
            "country_name": "Brazil",
            "connectivity": true
        },
        {
            "lon": -43.1845,
            "lat": -21.2695,
            "school_name": "CEI - EM PRO INFANCIA MARIA MARTHA MACHADO DE ALMEIDA",
            "country_name": "Brazil",
            "connectivity": true
        },
        {
            "lon": -38.5115,
            "lat": -12.9307,
            "school_name": "EE - COLEGIO ESTADUAL CPM LUIZ TARQUINIO",
            "country_name": "Brazil",
            "connectivity": true
        },
        {
            "lon": -35.6476,
            "lat": -6.4256,
            "school_name": "ESC MUL MAJOR HUGO MANSO",
            "country_name": "Brazil",
            "connectivity": true
        },
        {
            "lon": -35.6114,
            "lat": -7.292,
            "school_name": "EMEIF MAJOR JOSE BARBOSA MONTEIRO",
            "country_name": "Brazil",
            "connectivity": true
        },
        {
            "lon": -42.2015,
            "lat": -21.1336,
            "school_name": "PEM MARIANA ANZOLIN",
            "country_name": "Brazil",
            "connectivity": true
        },
        {
            "lon": -40.4273,
            "lat": -14.3088,
            "school_name": "ESCOLA MUNICIPAL SEBASTIAO RODRIGUES DOS SANTOS",
            "country_name": "Brazil",
            "connectivity": true
        }
    ],
    "num_countries": 12,
    "countries": [
        "Brazil",
        "Colombia",
        "Costa Rica",
        "Honduras",
        "Kazakhstan",
        "Kyrgyzstan",
        "Namibia",
        "Palestine",
        "Philippines",
        "Rwanda",
        "Sierra Leone",
        "Zimbabwe"
    ],
    "schools_no_data": [
        {
            "lon": 3.1892109,
            "lat": 13.0496926,
            "school_name": "CSP Dan Tata",
            "country_name": "Niger",
            "connectivity": false
        },
        {
            "lon": -9.765851,
            "lat": 6.588372,
            "school_name": "Gblewudu Town Public",
            "country_name": "Liberia",
            "connectivity": false
        },
        {
            "lon": -9.885562,
            "lat": 8.449779,
            "school_name": "Sammieta Public Sch.",
            "country_name": "Liberia",
            "connectivity": false
        },
        {
            "lon": 33.6664807,
            "lat": 17.12604175,
            "school_name": "Name unknown",
            "country_name": "Sudan",
            "connectivity": false
        },
        {
            "lon": -1.9848134,
            "lat": 5.2825974,
            "school_name": "Name unknown",
            "country_name": "Ghana",
            "connectivity": false
        },
        {
            "lon": 33.0708885166667,
            "lat": 14.8360416833333,
            "school_name": "Name unknown",
            "country_name": "Sudan",
            "connectivity": false
        },
        {
            "lon": 32.7823015333333,
            "lat": 14.1628677666667,
            "school_name": "Name unknown",
            "country_name": "Sudan",
            "connectivity": false
        },
        {
            "lon": 32.5245703166667,
            "lat": 14.5786392,
            "school_name": "Name unknown",
            "country_name": "Sudan",
            "connectivity": false
        },
        {
            "lon": 32.34305833,
            "lat": 14.68613037,
            "school_name": "Name unknown",
            "country_name": "Sudan",
            "connectivity": false
        },
        {
            "lon": 11.01673167,
            "lat": 11.04275333,
            "school_name": "Name unknown",
            "country_name": "Nigeria",
            "connectivity": false
        },
        {
            "lon": 24.15799772,
            "lat": 13.1258198,
            "school_name": "Name unknown",
            "country_name": "Sudan",
            "connectivity": false
        },
        {
            "lon": -0.2194777,
            "lat": 5.6416986,
            "school_name": "Name unknown",
            "country_name": "Ghana",
            "connectivity": false
        },
        {
            "lon": -1.4789315,
            "lat": 5.4151523,
            "school_name": "Name unknown",
            "country_name": "Ghana",
            "connectivity": false
        },
        {
            "lon": -1.5401349,
            "lat": 5.6097865,
            "school_name": "Name unknown",
            "country_name": "Ghana",
            "connectivity": false
        },
        {
            "lon": 39.27997,
            "lat": -10.44305,
            "school_name": "MKOMA SOKONI",
            "country_name": "United Republic of Tanzania",
            "connectivity": false
        },
        {
            "lon": 33.11406,
            "lat": -8.64827,
            "school_name": "NHINDO",
            "country_name": "United Republic of Tanzania",
            "connectivity": false
        },
        {
            "lon": 33.45487,
            "lat": -9.10918,
            "school_name": "SONGWE",
            "country_name": "United Republic of Tanzania",
            "connectivity": false
        },
        {
            "lon": 36.82788,
            "lat": -3.42414,
            "school_name": "KIKWE",
            "country_name": "United Republic of Tanzania",
            "connectivity": false
        },
        {
            "lon": 32.22977,
            "lat": -3.52427,
            "school_name": "LUHALA",
            "country_name": "United Republic of Tanzania",
            "connectivity": false
        },
        {
            "lon": 33.52696,
            "lat": -4.12642,
            "school_name": "NTOBO",
            "country_name": "United Republic of Tanzania",
            "connectivity": false
        },
        {
            "lon": 35.10766,
            "lat": -11.16758,
            "school_name": "LUHANGAI",
            "country_name": "United Republic of Tanzania",
            "connectivity": false
        },
        {
            "lon": 37.76779,
            "lat": -9.70526,
            "school_name": "MKUNDI",
            "country_name": "United Republic of Tanzania",
            "connectivity": false
        },
        {
            "lon": 35.68953,
            "lat": -4.67058,
            "school_name": "KWAMADEBE",
            "country_name": "United Republic of Tanzania",
            "connectivity": false
        },
        {
            "lon": 30.67363,
            "lat": -3.78827,
            "school_name": "KIGENDEKA",
            "country_name": "United Republic of Tanzania",
            "connectivity": false
        },
        {
            "lon": 31.71577,
            "lat": -1.63688,
            "school_name": "KASHUMBILILO",
            "country_name": "United Republic of Tanzania",
            "connectivity": false
        },
        {
            "lon": 35.54974,
            "lat": -3.89757,
            "school_name": "BAMBE",
            "country_name": "United Republic of Tanzania",
            "connectivity": false
        },
        {
            "lon": 34.94996,
            "lat": -4.53268,
            "school_name": "MWALALA",
            "country_name": "United Republic of Tanzania",
            "connectivity": false
        },
        {
            "lon": 34.64067,
            "lat": -9.10262,
            "school_name": "ITAMBO",
            "country_name": "United Republic of Tanzania",
            "connectivity": false
        },
        {
            "lon": 38.21569,
            "lat": -5.40353,
            "school_name": "NKUMBA",
            "country_name": "United Republic of Tanzania",
            "connectivity": false
        },
        {
            "lon": -2.3792321,
            "lat": 7.9226125,
            "school_name": "Name unknown",
            "country_name": "Ghana",
            "connectivity": false
        },
        {
            "lon": 36.8599028,
            "lat": -1.2625836,
            "school_name": "Bridge International School",
            "country_name": "Kenya",
            "connectivity": false
        },
        {
            "lon": 39.4491832,
            "lat": 3.1944659,
            "school_name": "Ogorji Primary Schooll",
            "country_name": "Kenya",
            "connectivity": false
        },
        {
            "lon": 1.491594,
            "lat": 6.381157,
            "school_name": "EMC HEDOME",
            "country_name": "Togo",
            "connectivity": false
        },
        {
            "lon": 1.49752,
            "lat": 6.591378333,
            "school_name": "EPL REDEMPTEUR",
            "country_name": "Togo",
            "connectivity": false
        },
        {
            "lon": 0.801112,
            "lat": 7.277098,
            "school_name": "EPE KPELE ELE",
            "country_name": "Togo",
            "connectivity": false
        },
        {
            "lon": 1.020333333,
            "lat": 8.334215,
            "school_name": "EDIL KATAKPE",
            "country_name": "Togo",
            "connectivity": false
        },
        {
            "lon": 0.188753333,
            "lat": 10.86535833,
            "school_name": "EPL LUEURS D'ESPOIR",
            "country_name": "Togo",
            "connectivity": false
        },
        {
            "lon": 1.14171,
            "lat": 6.192978333,
            "school_name": "CPL AMESIKA YOKOE",
            "country_name": "Togo",
            "connectivity": false
        },
        {
            "lon": 1.231803333,
            "lat": 6.305918333,
            "school_name": "CPL MON PARCOURS",
            "country_name": "Togo",
            "connectivity": false
        },
        {
            "lon": 36.30471,
            "lat": -8.98017,
            "school_name": "SOFI",
            "country_name": "United Republic of Tanzania",
            "connectivity": false
        },
        {
            "lon": 39.13229,
            "lat": -6.80256,
            "school_name": "MAKOKA",
            "country_name": "United Republic of Tanzania",
            "connectivity": false
        },
        {
            "lon": 34.25879795,
            "lat": -14.10342818,
            "school_name": "Chitundu Primary",
            "country_name": "Malawi",
            "connectivity": false
        },
        {
            "lon": 35.11693858,
            "lat": -15.53489869,
            "school_name": "Ngongomwa",
            "country_name": "Malawi",
            "connectivity": false
        },
        {
            "lon": 35.46753417,
            "lat": -14.94245277,
            "school_name": "Maweha",
            "country_name": "Malawi",
            "connectivity": false
        },
        {
            "lon": 15.30534662,
            "lat": -4.341072187,
            "school_name": "COL ERUDISSIMO 2",
            "country_name": "Democratic Republic of the Congo",
            "connectivity": false
        },
        {
            "lon": 7.342981667,
            "lat": 5.833616667,
            "school_name": "Name unknown",
            "country_name": "Nigeria",
            "connectivity": false
        },
        {
            "lon": 19.23,
            "lat": 0.3511,
            "school_name": "EP BATAPALA",
            "country_name": "Democratic Republic of the Congo",
            "connectivity": false
        },
        {
            "lon": 23.34808133,
            "lat": -2.377913316,
            "school_name": "INST LOLANGO",
            "country_name": "Democratic Republic of the Congo",
            "connectivity": false
        },
        {
            "lon": 22.67525747,
            "lat": -6.826393279,
            "school_name": "EP NKUFULU- KALUBI",
            "country_name": "Democratic Republic of the Congo",
            "connectivity": false
        },
        {
            "lon": 28.88361012,
            "lat": -1.652767333,
            "school_name": "EP NGUNGU",
            "country_name": "Democratic Republic of the Congo",
            "connectivity": false
        },
        {
            "lon": 25.95310487,
            "lat": -2.95624792,
            "school_name": "INST NUMBI  II",
            "country_name": "Democratic Republic of the Congo",
            "connectivity": false
        },
        {
            "lon": 22.449006,
            "lat": 4.099880375,
            "school_name": "EP NDAKULUPA",
            "country_name": "Democratic Republic of the Congo",
            "connectivity": false
        },
        {
            "lon": 22.44640346,
            "lat": 3.988253348,
            "school_name": "EP BASAKOLI",
            "country_name": "Democratic Republic of the Congo",
            "connectivity": false
        },
        {
            "lon": 14.9657,
            "lat": -5.274,
            "school_name": "EP1 MUALA KINSENDE",
            "country_name": "Democratic Republic of the Congo",
            "connectivity": false
        },
        {
            "lon": -68.605354,
            "lat": -17.022666,
            "school_name": "UTAMA",
            "country_name": "Bolivia (Plurinational State of)",
            "connectivity": false
        },
        {
            "lon": -68.710103,
            "lat": -17.125413,
            "school_name": "JOSE BALLIVIAN DE CHOJ\u00d1APAMPA",
            "country_name": "Bolivia (Plurinational State of)",
            "connectivity": false
        },
        {
            "lon": -99.175803,
            "lat": 18.881728,
            "school_name": "OSWELY PLANTEL 2 JIUTEPEC",
            "country_name": "Mexico",
            "connectivity": false
        },
        {
            "lon": -96.09667,
            "lat": 18.28989,
            "school_name": "TELEBACHILLERATO POBLADO NUM. 3",
            "country_name": "Mexico",
            "connectivity": false
        },
        {
            "lon": -9.2808,
            "lat": 15.721,
            "school_name": "\u0627\u0645\u0627\u062c\u0631\u064a\u0643\u0627\u064a",
            "country_name": "Mauritania",
            "connectivity": false
        },
        {
            "lon": -12.25564,
            "lat": 15.0092,
            "school_name": "Brouji",
            "country_name": "Mauritania",
            "connectivity": false
        },
        {
            "lon": -16.00136,
            "lat": 18.075,
            "school_name": "MA DEMBA DIOP",
            "country_name": "Mauritania",
            "connectivity": false
        },
        {
            "lon": 32.91423,
            "lat": 0.20216,
            "school_name": "AUNTIE FLORA N/PRIMARY SCHOOL",
            "country_name": "Uganda",
            "connectivity": false
        },
        {
            "lon": 32.80949,
            "lat": 0.40526,
            "school_name": "ST MUGAGALUWANGA PRIMARY SCHOOL",
            "country_name": "Uganda",
            "connectivity": false
        },
        {
            "lon": 32.29549,
            "lat": 2.78937,
            "school_name": "Gulu Central",
            "country_name": "Uganda",
            "connectivity": false
        },
        {
            "lon": 33.05328,
            "lat": 1.60986,
            "school_name": "Doya P.S.",
            "country_name": "Uganda",
            "connectivity": false
        },
        {
            "lon": 33.90435,
            "lat": 0.30675,
            "school_name": "Sirere P.S.",
            "country_name": "Uganda",
            "connectivity": false
        },
        {
            "lon": 33.3832,
            "lat": 3.31366,
            "school_name": "Guda",
            "country_name": "Uganda",
            "connectivity": false
        },
        {
            "lon": 31.47221,
            "lat": -0.18711,
            "school_name": "salafi Islamic Masambya",
            "country_name": "Uganda",
            "connectivity": false
        },
        {
            "lon": 34.36587,
            "lat": 1.12913,
            "school_name": "Bumumulo P.S.",
            "country_name": "Uganda",
            "connectivity": false
        },
        {
            "lon": 34.36315,
            "lat": 1.22991,
            "school_name": "Nabiwutulu P.S.",
            "country_name": "Uganda",
            "connectivity": false
        },
        {
            "lon": 32.19983,
            "lat": 0.25083,
            "school_name": "Kikunyu Modern P.S.",
            "country_name": "Uganda",
            "connectivity": false
        },
        {
            "lon": 32.11827,
            "lat": 0.2632,
            "school_name": "Mpogo R.C",
            "country_name": "Uganda",
            "connectivity": false
        },
        {
            "lon": 28.80286,
            "lat": -26.7676,
            "school_name": "Tegwans Nest Primary School",
            "country_name": "South Africa",
            "connectivity": false
        },
        {
            "lon": 25.8788,
            "lat": -26.07931,
            "school_name": "Itsoseng Combined School",
            "country_name": "South Africa",
            "connectivity": false
        },
        {
            "lon": 30.78093,
            "lat": -25.09369,
            "school_name": "Woodlands Preparatory School",
            "country_name": "South Africa",
            "connectivity": false
        },
        {
            "lon": 31.76614,
            "lat": -25.64597,
            "school_name": "Gebhuza Secondary School",
            "country_name": "South Africa",
            "connectivity": false
        },
        {
            "lon": 26.48915,
            "lat": -25.26474,
            "school_name": "Maotwe Middle School",
            "country_name": "South Africa",
            "connectivity": false
        },
        {
            "lon": 25.86754,
            "lat": -25.42322,
            "school_name": "Oageng Middle School",
            "country_name": "South Africa",
            "connectivity": false
        },
        {
            "lon": 17.88351,
            "lat": -29.67058,
            "school_name": "Safata College - Springbok",
            "country_name": "South Africa",
            "connectivity": false
        },
        {
            "lon": 23.62852,
            "lat": -27.45656,
            "school_name": "Ncwelengwe Primary School",
            "country_name": "South Africa",
            "connectivity": false
        },
        {
            "lon": 27.37072,
            "lat": -32.18432,
            "school_name": "Junction Farm Junior Secondary School",
            "country_name": "South Africa",
            "connectivity": false
        },
        {
            "lon": 29.78094,
            "lat": -23.70493,
            "school_name": "School",
            "country_name": "South Africa",
            "connectivity": false
        },
        {
            "lon": 29.82056,
            "lat": -23.79676,
            "school_name": "School",
            "country_name": "South Africa",
            "connectivity": false
        },
        {
            "lon": 28.71635,
            "lat": -24.51298,
            "school_name": "La?\u0192?\u00abrskool Eugene N Marais",
            "country_name": "South Africa",
            "connectivity": false
        },
        {
            "lon": 18.85578,
            "lat": -34.11535,
            "school_name": "Nceduluntu Iii Educare Centre",
            "country_name": "South Africa",
            "connectivity": false
        },
        {
            "lon": 30.00586,
            "lat": -27.93033,
            "school_name": "Gardens Primary School",
            "country_name": "South Africa",
            "connectivity": false
        },
        {
            "lon": 30.39446,
            "lat": -29.63141,
            "school_name": "Hazelwood Pre Primary School",
            "country_name": "South Africa",
            "connectivity": false
        },
        {
            "lon": 30.34677,
            "lat": -29.65317,
            "school_name": "Technical Centre",
            "country_name": "South Africa",
            "connectivity": false
        },
        {
            "lon": 30.5943,
            "lat": -30.23549,
            "school_name": "Ikhakhama Primary School",
            "country_name": "South Africa",
            "connectivity": false
        },
        {
            "lon": 30.681,
            "lat": -29.56104,
            "school_name": "C21 Private High School",
            "country_name": "South Africa",
            "connectivity": false
        },
        {
            "lon": 30.76397,
            "lat": -29.66973,
            "school_name": "Umphumela Primary School",
            "country_name": "South Africa",
            "connectivity": false
        },
        {
            "lon": 30.27682,
            "lat": -22.84047,
            "school_name": "Tshiavha Primary",
            "country_name": "South Africa",
            "connectivity": false
        },
        {
            "lon": 32.07225,
            "lat": -28.46765,
            "school_name": "Baqoqe Primary School",
            "country_name": "South Africa",
            "connectivity": false
        },
        {
            "lon": 32.07781,
            "lat": -27.38525,
            "school_name": "Msiyane High School",
            "country_name": "South Africa",
            "connectivity": false
        },
        {
            "lon": 32.38247,
            "lat": -27.82707,
            "school_name": "Makhasa Senior Secondary School",
            "country_name": "South Africa",
            "connectivity": false
        },
        {
            "lon": 31.52808,
            "lat": -29.118,
            "school_name": "Lambothi Primary School",
            "country_name": "South Africa",
            "connectivity": false
        },
        {
            "lon": 31.56567,
            "lat": -27.95503,
            "school_name": "Mnkunzi Junior Primary School",
            "country_name": "South Africa",
            "connectivity": false
        },
        {
            "lon": 28.16402,
            "lat": -26.21205,
            "school_name": "Khanana Driving School",
            "country_name": "South Africa",
            "connectivity": false
        },
        {
            "lon": 28.11164,
            "lat": -25.79237,
            "school_name": "Graduate Achievers",
            "country_name": "South Africa",
            "connectivity": false
        },
        {
            "lon": 28.12601,
            "lat": -25.45626,
            "school_name": "Lesedi Potlana Primary",
            "country_name": "South Africa",
            "connectivity": false
        },
        {
            "lon": 28.4322,
            "lat": -26.24292,
            "school_name": "Laerskool PAM Brink - 6th Avenue",
            "country_name": "South Africa",
            "connectivity": false
        },
        {
            "lon": 28.3102,
            "lat": -25.7816,
            "school_name": "Tomorrow's People College",
            "country_name": "South Africa",
            "connectivity": false
        },
        {
            "lon": 27.43722,
            "lat": -30.37744,
            "school_name": "Ndofela Junior Secondary",
            "country_name": "South Africa",
            "connectivity": false
        },
        {
            "lon": 27.97076,
            "lat": -26.16677,
            "school_name": "Act 1 Drama Studio",
            "country_name": "South Africa",
            "connectivity": false
        },
        {
            "lon": 27.48097,
            "lat": -26.92034,
            "school_name": "Phehellang Secondary School",
            "country_name": "South Africa",
            "connectivity": false
        },
        {
            "lon": 28.07063,
            "lat": -26.89853,
            "school_name": "Tjhaba Tsohle Primary School",
            "country_name": "South Africa",
            "connectivity": false
        },
        {
            "lon": 28.40531,
            "lat": -31.79328,
            "school_name": "Mpikwana Junior Secondary School",
            "country_name": "South Africa",
            "connectivity": false
        },
        {
            "lon": 28.79205,
            "lat": -31.5753,
            "school_name": "Good Shepherd English School",
            "country_name": "South Africa",
            "connectivity": false
        },
        {
            "lon": 29.26552,
            "lat": -30.92013,
            "school_name": "Bonxa Junior Secondary School",
            "country_name": "South Africa",
            "connectivity": false
        },
        {
            "lon": -58.66940157,
            "lat": -34.50258409,
            "school_name": "ESCUELA PRIMARIA N\u00ba15 CONSTANCIO C. VIGIL",
            "country_name": "Argentina",
            "connectivity": false
        },
        {
            "lon": -58.56041209,
            "lat": -34.55239616,
            "school_name": "ESCUELA POLIMODAL N\u00ba7 MARIANO MORENO",
            "country_name": "Argentina",
            "connectivity": false
        },
        {
            "lon": -58.43043207,
            "lat": -34.73742348,
            "school_name": "INSTITUTO MARIO MADEDDU",
            "country_name": "Argentina",
            "connectivity": false
        },
        {
            "lon": -58.53652036,
            "lat": -34.89311421,
            "school_name": "ESCUELA PRIMARIA N\u00ba16 HIPOLITO BOUCHARD",
            "country_name": "Argentina",
            "connectivity": false
        },
        {
            "lon": -62.25762766,
            "lat": -38.72567801,
            "school_name": "ESCUELA PRIMARIA N\u00ba1 NICOLAS AVELLANEDA",
            "country_name": "Argentina",
            "connectivity": false
        },
        {
            "lon": -57.5673299,
            "lat": -38.01477304,
            "school_name": "INSTITUTO DON ORIONE",
            "country_name": "Argentina",
            "connectivity": false
        },
        {
            "lon": -59.6373199,
            "lat": -28.8427422,
            "school_name": "E.E.S. ORIENTADA NRO 306 JOSE PEDRONI",
            "country_name": "Argentina",
            "connectivity": false
        },
        {
            "lon": -58.75794271,
            "lat": -38.55466722,
            "school_name": "ESCUELA PRIMARIA N\u00ba9 COMODORO MARTIN RIVADAVIA",
            "country_name": "Argentina",
            "connectivity": false
        },
        {
            "lon": -58.574901,
            "lat": -34.63306384,
            "school_name": "ESCUELA PRIMARIA N\u00ba98 BRIGADIER GRAL. MIGUEL E. SOLER",
            "country_name": "Argentina",
            "connectivity": false
        },
        {
            "lon": -58.75751645,
            "lat": -34.38248604,
            "school_name": "INSTITUTO DOVER",
            "country_name": "Argentina",
            "connectivity": false
        },
        {
            "lon": -58.52801936,
            "lat": -34.69118807,
            "school_name": "ESC. SECUNDARIA BASICA N\u00ba9",
            "country_name": "Argentina",
            "connectivity": false
        },
        {
            "lon": -58.80747128,
            "lat": -34.65048897,
            "school_name": "ESC. SECUNDARIA BASICA N\u00ba45",
            "country_name": "Argentina",
            "connectivity": false
        },
        {
            "lon": -60.86925645,
            "lat": -27.16600836,
            "school_name": "E.E.P. N\u00ba 568",
            "country_name": "Argentina",
            "connectivity": false
        },
        {
            "lon": -60.97315346,
            "lat": -26.9555716,
            "school_name": "E.E.P. N\u00ba 191-ALCIDES CALANDRELLI",
            "country_name": "Argentina",
            "connectivity": false
        },
        {
            "lon": -69.14443499,
            "lat": -45.59720158,
            "school_name": "SAN IGNACIO DE LOYOLA",
            "country_name": "Argentina",
            "connectivity": false
        },
        {
            "lon": -64.31594354,
            "lat": -31.2144773,
            "school_name": "C.E.N.M.A. N\u00b0 23 - ANEXO ESTANCIAS DEL SUR",
            "country_name": "Argentina",
            "connectivity": false
        },
        {
            "lon": -62.6501528,
            "lat": -32.3062118,
            "school_name": "J.DE INF. JUAN BAUTISTA ALBERDI",
            "country_name": "Argentina",
            "connectivity": false
        },
        {
            "lon": -77.0521,
            "lat": -12.0873,
            "school_name": "090 SANTA ROSITA DE LIMA",
            "country_name": "Peru",
            "connectivity": false
        },
        {
            "lon": -58.6079181,
            "lat": -26.48698772,
            "school_name": "EPEP N\u00ba105",
            "country_name": "Argentina",
            "connectivity": false
        },
        {
            "lon": -61.99974787,
            "lat": -23.1903545,
            "school_name": "JIN N\u00ba 15 - EPEP N\u00ba 413",
            "country_name": "Argentina",
            "connectivity": false
        },
        {
            "lon": -65.64185181,
            "lat": -22.49441407,
            "school_name": "ESCUELA N 334",
            "country_name": "Argentina",
            "connectivity": false
        },
        {
            "lon": -66.34537046,
            "lat": -31.13010935,
            "school_name": "ESC.N\u00b0156 DIRECTORA VITALIA B.DE LLANOS J.C.",
            "country_name": "Argentina",
            "connectivity": false
        },
        {
            "lon": -68.82177534,
            "lat": -32.82049769,
            "school_name": "BASILIO AURELIANO BERTOMEU",
            "country_name": "Argentina",
            "connectivity": false
        },
        {
            "lon": -68.75287669,
            "lat": -32.91953255,
            "school_name": "PADRE JOSE ANDRES MANZANO",
            "country_name": "Argentina",
            "connectivity": false
        },
        {
            "lon": -70.05353805,
            "lat": -38.89685465,
            "school_name": "ESCUELA PRIMARIA 114 EMILIO ANDRES HAAS",
            "country_name": "Argentina",
            "connectivity": false
        },
        {
            "lon": -65.40728528,
            "lat": -24.79067702,
            "school_name": "INSTITUTO PADRE GABRIEL TOMMASINI EX N\u00b0 18",
            "country_name": "Argentina",
            "connectivity": false
        },
        {
            "lon": -62.98497659,
            "lat": -23.55291042,
            "school_name": "EX N\u00b0 790",
            "country_name": "Argentina",
            "connectivity": false
        },
        {
            "lon": -65.38515289,
            "lat": -33.71740142,
            "school_name": "COLEGIO N\u00b017 V BRIGADA AEREA",
            "country_name": "Argentina",
            "connectivity": false
        },
        {
            "lon": -73.8999,
            "lat": -13.0926,
            "school_name": "425-154",
            "country_name": "Peru",
            "connectivity": false
        },
        {
            "lon": -64.25341329,
            "lat": -27.83372178,
            "school_name": "ANEXO ESCUELA DE EDUCACION BASICA PARA ADULTOS N\u00ba 12",
            "country_name": "Argentina",
            "connectivity": false
        },
        {
            "lon": 6.150842,
            "lat": 5.368897,
            "school_name": "Name unknown",
            "country_name": "Nigeria",
            "connectivity": false
        },
        {
            "lon": 5.895679,
            "lat": 5.636435,
            "school_name": "Name unknown",
            "country_name": "Nigeria",
            "connectivity": false
        },
        {
            "lon": 6.72198,
            "lat": 6.209378,
            "school_name": "Name unknown",
            "country_name": "Nigeria",
            "connectivity": false
        },
        {
            "lon": 5.668746,
            "lat": 5.894861,
            "school_name": "Name unknown",
            "country_name": "Nigeria",
            "connectivity": false
        },
        {
            "lon": 7.539037,
            "lat": 5.720585,
            "school_name": "Name unknown",
            "country_name": "Nigeria",
            "connectivity": false
        },
        {
            "lon": 7.459561,
            "lat": 5.106827,
            "school_name": "Name unknown",
            "country_name": "Nigeria",
            "connectivity": false
        },
        {
            "lon": 7.3156,
            "lat": 5.127635,
            "school_name": "Name unknown",
            "country_name": "Nigeria",
            "connectivity": false
        },
        {
            "lon": 12.52128497,
            "lat": 11.06744487,
            "school_name": "Name unknown",
            "country_name": "Nigeria",
            "connectivity": false
        },
        {
            "lon": 8.27625,
            "lat": 6.35923,
            "school_name": "Name unknown",
            "country_name": "Nigeria",
            "connectivity": false
        },
        {
            "lon": 8.179696667,
            "lat": 6.293363333,
            "school_name": "Name unknown",
            "country_name": "Nigeria",
            "connectivity": false
        },
        {
            "lon": 7.700798,
            "lat": 6.051804,
            "school_name": "Name unknown",
            "country_name": "Nigeria",
            "connectivity": false
        },
        {
            "lon": 12.37861593,
            "lat": 10.5013177,
            "school_name": "Name unknown",
            "country_name": "Nigeria",
            "connectivity": false
        },
        {
            "lon": 6.060601,
            "lat": 7.338063,
            "school_name": "Name unknown",
            "country_name": "Nigeria",
            "connectivity": false
        },
        {
            "lon": 5.572279,
            "lat": 6.390036,
            "school_name": "Name unknown",
            "country_name": "Nigeria",
            "connectivity": false
        },
        {
            "lon": 5.630393,
            "lat": 6.339452,
            "school_name": "Name unknown",
            "country_name": "Nigeria",
            "connectivity": false
        },
        {
            "lon": 13.89328292,
            "lat": 12.49705173,
            "school_name": "Name unknown",
            "country_name": "Nigeria",
            "connectivity": false
        },
        {
            "lon": 5.240368333,
            "lat": 7.596555,
            "school_name": "Name unknown",
            "country_name": "Nigeria",
            "connectivity": false
        },
        {
            "lon": 5.15808,
            "lat": 7.788681667,
            "school_name": "Name unknown",
            "country_name": "Nigeria",
            "connectivity": false
        },
        {
            "lon": 5.063903,
            "lat": 7.798828,
            "school_name": "Name unknown",
            "country_name": "Nigeria",
            "connectivity": false
        },
        {
            "lon": 7.505716,
            "lat": 6.107215,
            "school_name": "Name unknown",
            "country_name": "Nigeria",
            "connectivity": false
        },
        {
            "lon": 7.503028,
            "lat": 6.943816,
            "school_name": "Name unknown",
            "country_name": "Nigeria",
            "connectivity": false
        },
        {
            "lon": 7.486448,
            "lat": 7.073301,
            "school_name": "Name unknown",
            "country_name": "Nigeria",
            "connectivity": false
        },
        {
            "lon": 7.68556,
            "lat": 6.18574,
            "school_name": "Name unknown",
            "country_name": "Nigeria",
            "connectivity": false
        },
        {
            "lon": 11.17767,
            "lat": 10.29927167,
            "school_name": "Name unknown",
            "country_name": "Nigeria",
            "connectivity": false
        },
        {
            "lon": 7.249702,
            "lat": 5.470815,
            "school_name": "Name unknown",
            "country_name": "Nigeria",
            "connectivity": false
        },
        {
            "lon": 6.908719531,
            "lat": 5.44124076,
            "school_name": "Name unknown",
            "country_name": "Nigeria",
            "connectivity": false
        },
        {
            "lon": -76.2498,
            "lat": -6.9383,
            "school_name": "0091 ABRAHAM GARCIA TORRES",
            "country_name": "Peru",
            "connectivity": false
        },
        {
            "lon": -76.5785,
            "lat": -6.737,
            "school_name": "0376 MARIANO MELGAR Y VALDIVIESO",
            "country_name": "Peru",
            "connectivity": false
        },
        {
            "lon": -79.0308,
            "lat": -7.3488,
            "school_name": "50",
            "country_name": "Peru",
            "connectivity": false
        },
        {
            "lon": -79.7926,
            "lat": -6.6338,
            "school_name": "10057 JOSE MERCEDES ESTEVES CHICOMA",
            "country_name": "Peru",
            "connectivity": false
        },
        {
            "lon": -78.4497,
            "lat": -6.40569,
            "school_name": "101182",
            "country_name": "Peru",
            "connectivity": false
        },
        {
            "lon": -74.3082,
            "lat": -11.585,
            "school_name": "1048",
            "country_name": "Peru",
            "connectivity": false
        },
        {
            "lon": -70.0048,
            "lat": -13.9312,
            "school_name": "72217",
            "country_name": "Peru",
            "connectivity": false
        },
        {
            "lon": -77.9171,
            "lat": -7.55933,
            "school_name": "1061",
            "country_name": "Peru",
            "connectivity": false
        },
        {
            "lon": -69.8821,
            "lat": -13.91,
            "school_name": "1123 MARTIN CHAMBI JIMENEZ",
            "country_name": "Peru",
            "connectivity": false
        },
        {
            "lon": 9.6478786,
            "lat": 12.4054098,
            "school_name": "Name unknown",
            "country_name": "Nigeria",
            "connectivity": false
        },
        {
            "lon": -78.2094,
            "lat": -7.38307,
            "school_name": "1128",
            "country_name": "Peru",
            "connectivity": false
        },
        {
            "lon": -74.3893,
            "lat": -12.8039,
            "school_name": "584 NI\u00d1O JESUS DE PRAGA",
            "country_name": "Peru",
            "connectivity": false
        },
        {
            "lon": -76.4539,
            "lat": -6.60238,
            "school_name": "1333",
            "country_name": "Peru",
            "connectivity": false
        },
        {
            "lon": -80.2495,
            "lat": -4.952,
            "school_name": "14924 DANIEL ALCIDES CARRION",
            "country_name": "Peru",
            "connectivity": false
        },
        {
            "lon": -79.5574,
            "lat": -5.70421,
            "school_name": "15160",
            "country_name": "Peru",
            "connectivity": false
        },
        {
            "lon": -79.5833,
            "lat": -4.92261,
            "school_name": "15234",
            "country_name": "Peru",
            "connectivity": false
        },
        {
            "lon": -78.3897,
            "lat": -5.65341,
            "school_name": "16242",
            "country_name": "Peru",
            "connectivity": false
        },
        {
            "lon": -78.3298,
            "lat": -5.78764,
            "school_name": "16327",
            "country_name": "Peru",
            "connectivity": false
        },
        {
            "lon": -79.0032,
            "lat": -5.1458,
            "school_name": "16470 SAN IGNACIO DE LOYOLA",
            "country_name": "Peru",
            "connectivity": false
        },
        {
            "lon": -78.521,
            "lat": -5.67611,
            "school_name": "16602",
            "country_name": "Peru",
            "connectivity": false
        },
        {
            "lon": -78.97,
            "lat": -5.2317,
            "school_name": "16873",
            "country_name": "Peru",
            "connectivity": false
        },
        {
            "lon": -78.8229,
            "lat": -6.27855,
            "school_name": "16958",
            "country_name": "Peru",
            "connectivity": false
        },
        {
            "lon": -78.1746,
            "lat": -4.5244,
            "school_name": "17050",
            "country_name": "Peru",
            "connectivity": false
        },
        {
            "lon": -78.9587,
            "lat": -5.34995,
            "school_name": "17662",
            "country_name": "Peru",
            "connectivity": false
        },
        {
            "lon": -78.5672,
            "lat": -7.9035,
            "school_name": "2008",
            "country_name": "Peru",
            "connectivity": false
        },
        {
            "lon": -76.7748,
            "lat": -10.6655,
            "school_name": "20109 JOSE MARIA ARGUEDAS",
            "country_name": "Peru",
            "connectivity": false
        },
        {
            "lon": -76.5815,
            "lat": -11.9106,
            "school_name": "20811 REPUBLICA DE COLOMBIA",
            "country_name": "Peru",
            "connectivity": false
        },
        {
            "lon": -74.5122,
            "lat": -11.4532,
            "school_name": "243",
            "country_name": "Peru",
            "connectivity": false
        },
        {
            "lon": -77.3263,
            "lat": -4.6861,
            "school_name": "264",
            "country_name": "Peru",
            "connectivity": false
        },
        {
            "lon": -74.7352,
            "lat": -11.3696,
            "school_name": "30683",
            "country_name": "Peru",
            "connectivity": false
        },