{
    "name": "Patchwork Kingdom #714 | Osimandar",
    "description": "The twin kingdoms of Osimandar, separated by a digital divide. A bustling kingdom of 103 schools on top that are all connected to the internet, and 69 schools, not connected, hidden in the upside down kingdom | Created for Giga (GigaConnect.org) \u2014 connecting every school in the world \u2014 in celebration of UNICEF's 75th birthday, by Nadieh Bremer",
    "external_url": "https://dummyURL.com/patchwork_kingdoms_714",
    "image": "https://dummy-storage-url.com/patchwork_kingdoms_714.png",
    "attributes": [
        {
            "trait_type": "Color palette",
            "value": "super powers"
        },
        {
            "display_type": "number",
            "trait_type": "Schools",
            "value": 179,
            "max_value": 460
        },
        {
            "display_type": "number",
            "trait_type": "Ratio - Connected",
            "value": 0.58,
            "max_value": 1
        },
        {
            "display_type": "number",
            "trait_type": "Ratio - Unconnected",
            "value": 0.39,
            "max_value": 1
        },
        {
            "display_type": "number",
            "trait_type": "Ratio - Data unavailable",
            "value": 0.04,
            "max_value": 1
        },
        {
            "trait_type": "Countries",
            "value": "BJ-BR-CO-CR-HN-KZ-MS-PH-PS-RW-SL-ZW"
        },
        {
            "display_type": "number",
            "trait_type": "Symbols",
            "value": 44,
            "max_value": 51
        }
    ],
    "cluster_id": 714,
    "num_schools": 179,
    "num_schools_connected": 103,
    "num_schools_unconnected": 69,
    "num_schools_unknown": 7,
    "schools": [
        {
            "lon": -87.44339,
            "lat": 15.61604,
            "school_name": "HUERTO DEL EDEN",
            "country_name": "Honduras",
            "connectivity": true
        },
        {
            "lon": -88.10386,
            "lat": 14.12671,
            "school_name": "CARLOS A SANCHEZ",
            "country_name": "Honduras",
            "connectivity": true
        },
        {
            "lon": -88.55612,
            "lat": 14.88837,
            "school_name": "MARIA JERONIMA LOPEZ",
            "country_name": "Honduras",
            "connectivity": true
        },
        {
            "lon": -88.70067,
            "lat": 14.38229,
            "school_name": "JOSE MARTIN HERNANDEZ",
            "country_name": "Honduras",
            "connectivity": true
        },
        {
            "lon": -87.13599,
            "lat": 15.13431,
            "school_name": "DARIO ROLANDO URBINA",
            "country_name": "Honduras",
            "connectivity": true
        },
        {
            "lon": -86.88152,
            "lat": 14.61457,
            "school_name": "JARDIN DE ABEJAS",
            "country_name": "Honduras",
            "connectivity": true
        },
        {
            "lon": -87.37999,
            "lat": 14.06953,
            "school_name": "RAMON ROSA",
            "country_name": "Honduras",
            "connectivity": true
        },
        {
            "lon": -87.03639,
            "lat": 13.79691,
            "school_name": "ARNULFO SALGADO GALO",
            "country_name": "Honduras",
            "connectivity": true
        },
        {
            "lon": 32.71121,
            "lat": -18.19188,
            "school_name": "NYATONDO",
            "country_name": "Zimbabwe",
            "connectivity": true
        },
        {
            "lon": 31.35439,
            "lat": -16.46321,
            "school_name": "DARWIN",
            "country_name": "Zimbabwe",
            "connectivity": true
        },
        {
            "lon": -46.2714,
            "lat": -23.9731,
            "school_name": "IVONETE DA SILVA CAMARA PROFESSORA ESCOLA MUNICIPAL",
            "country_name": "Brazil",
            "connectivity": true
        },
        {
            "lon": -83.63358743,
            "lat": 9.43415998,
            "school_name": "CHIMIROL",
            "country_name": "Costa Rica",
            "connectivity": true
        },
        {
            "lon": -83.37165948,
            "lat": 9.147224,
            "school_name": "EL CEIBO",
            "country_name": "Costa Rica",
            "connectivity": true
        },
        {
            "lon": -84.47061213,
            "lat": 10.08457634,
            "school_name": "JORGE WASHINGTON",
            "country_name": "Costa Rica",
            "connectivity": true
        },
        {
            "lon": -83.98930884,
            "lat": 9.84361781,
            "school_name": "QUEBRADILLA",
            "country_name": "Costa Rica",
            "connectivity": true
        },
        {
            "lon": -85.11722324,
            "lat": 9.68173418,
            "school_name": "LOS MANGOS",
            "country_name": "Costa Rica",
            "connectivity": true
        },
        {
            "lon": -83.07933913,
            "lat": 8.64662442,
            "school_name": "KILOMETRO 24",
            "country_name": "Costa Rica",
            "connectivity": true
        },
        {
            "lon": -73.51787986,
            "lat": 7.680100569,
            "school_name": "CENT EDUC RUR EL TROPEZON",
            "country_name": "Colombia",
            "connectivity": true
        },
        {
            "lon": 35.291278,
            "lat": 32.462857,
            "school_name": "Burhan aldeen alaboushi basic girls",
            "country_name": "Palestine",
            "connectivity": true
        },
        {
            "lon": -84.65447203,
            "lat": 10.83664147,
            "school_name": "GRANADA",
            "country_name": "Costa Rica",
            "connectivity": true
        },
        {
            "lon": 30.53769,
            "lat": -20.93023,
            "school_name": "RUFARO",
            "country_name": "Zimbabwe",
            "connectivity": true
        },
        {
            "lon": 27.96686,
            "lat": -19.1858,
            "school_name": "MAFA",
            "country_name": "Zimbabwe",
            "connectivity": true
        },
        {
            "lon": 29.18138,
            "lat": -18.83471,
            "school_name": "SOMOZA",
            "country_name": "Zimbabwe",
            "connectivity": true
        },
        {
            "lon": -54.9827,
            "lat": -10.2482,
            "school_name": "ESCOLA MUNIC DOM HELDER CAMARA",
            "country_name": "Brazil",
            "connectivity": true
        },
        {
            "lon": 28.66186,
            "lat": -21.4417,
            "school_name": "LUBHANGWE PRIMARY",
            "country_name": "Zimbabwe",
            "connectivity": true
        },
        {
            "lon": 29.7745,
            "lat": -20.03365,
            "school_name": "MPALAWANI",
            "country_name": "Zimbabwe",
            "connectivity": true
        },
        {
            "lon": -74.24134735,
            "lat": 4.574526111,
            "school_name": "Name unknown",
            "country_name": "Colombia",
            "connectivity": false
        },
        {
            "lon": -46.6839,
            "lat": -23.7547,
            "school_name": "SAMUEL WAINER",
            "country_name": "Brazil",
            "connectivity": true
        },
        {
            "lon": -50.032,
            "lat": -8.049,
            "school_name": "EMEF DIOCESANA IMACULADA CONCEICAO",
            "country_name": "Brazil",
            "connectivity": true
        },
        {
            "lon": -76.93472222,
            "lat": 0.672222222,
            "school_name": "ESC RUR MIX PALESTINA",
            "country_name": "Colombia",
            "connectivity": true
        },
        {
            "lon": -62.191,
            "lat": 16.78764833,
            "school_name": "LookOut Primary",
            "country_name": "Montserrat",
            "connectivity": true
        },
        {
            "lon": -62.205,
            "lat": 16.78789139,
            "school_name": "Little Angles: Day Care",
            "country_name": "Montserrat",
            "connectivity": true
        },
        {
            "lon": -73.10682909,
            "lat": 7.09628769,
            "school_name": "Name unknown",
            "country_name": "Colombia",
            "connectivity": false
        },
        {
            "lon": 118.785508,
            "lat": 9.967225,
            "school_name": "Macarascas NHS",
            "country_name": "Philippines",
            "connectivity": true
        },
        {
            "lon": 120.164169,
            "lat": 14.953554,
            "school_name": "Linusungan ES",
            "country_name": "Philippines",
            "connectivity": true
        },
        {
            "lon": 120.807387,
            "lat": 15.61769,
            "school_name": "Sta. Cruz ES",
            "country_name": "Philippines",
            "connectivity": true
        },
        {
            "lon": 121.45472,
            "lat": 12.951949,
            "school_name": "Malamig ES",
            "country_name": "Philippines",
            "connectivity": true
        },
        {
            "lon": 123.728172,
            "lat": 13.356469,
            "school_name": "Sta. Cruz ES",
            "country_name": "Philippines",
            "connectivity": true
        },
        {
            "lon": 124.039639,
            "lat": 9.75325,
            "school_name": "Calinginan Norte PS",
            "country_name": "Philippines",
            "connectivity": true
        },
        {
            "lon": 124.9689014,
            "lat": 11.07816004,
            "school_name": "Salvador ES",
            "country_name": "Philippines",
            "connectivity": true
        },
        {
            "lon": 121.1880427,
            "lat": 16.96725448,
            "school_name": "Guinihon ES",
            "country_name": "Philippines",
            "connectivity": true
        },
        {
            "lon": -40.736053,
            "lat": -15.694049,
            "school_name": "PEM CANTO DE APRENDER",
            "country_name": "Brazil",
            "connectivity": true
        },
        {
            "lon": -89.16912,
            "lat": 14.84102,
            "school_name": "JESUS NU\u00c3\u2018EZ CHINCHILLA",
            "country_name": "Honduras",
            "connectivity": true
        },
        {
            "lon": -48.549168,
            "lat": -20.540588,
            "school_name": "IFSP - CAMPUS BARRETOS",
            "country_name": "Brazil",
            "connectivity": true
        },
        {
            "lon": -87.66662,
            "lat": 15.89013,
            "school_name": "ALVARO CONTRERAS",
            "country_name": "Honduras",
            "connectivity": true
        },
        {
            "lon": 122.9486111,
            "lat": 14.16194444,
            "school_name": "San Jose ES",
            "country_name": "Philippines",
            "connectivity": true
        },
        {
            "lon": -72.63268601,
            "lat": 6.372252634,
            "school_name": "ESC RURAL LA PUERTA",
            "country_name": "Colombia",
            "connectivity": true
        },
        {
            "lon": -72.59594713,
            "lat": 6.353359714,
            "school_name": "ESC RIO DE ARRIBA",
            "country_name": "Colombia",
            "connectivity": true
        },
        {
            "lon": -73.19018585,
            "lat": 4.342458659,
            "school_name": "ESCUELA  RURAL  QUIENQUITA",
            "country_name": "Colombia",
            "connectivity": true
        },
        {
            "lon": -72.97659483,
            "lat": 8.165600932,
            "school_name": "SEDE EL SILENCIO",
            "country_name": "Colombia",
            "connectivity": true
        },
        {
            "lon": -73.162778,
            "lat": -1.754444,
            "school_name": "SEDE SAN JUAN BAUTISTA",
            "country_name": "Colombia",
            "connectivity": true
        },
        {
            "lon": -74.86396079,
            "lat": 6.635227288,
            "school_name": "COLEGIO LA FLORESTA",
            "country_name": "Colombia",
            "connectivity": true
        },
        {
            "lon": -75.410653,
            "lat": 1.471122,
            "school_name": "LA CUMBRE",
            "country_name": "Colombia",
            "connectivity": true
        },
        {
            "lon": -75.937778,
            "lat": 5.844167,
            "school_name": "C. E. R. AMARANTO",
            "country_name": "Colombia",
            "connectivity": true
        },
        {
            "lon": -75.963333,
            "lat": 1.811389,
            "school_name": "CANTARITO",
            "country_name": "Colombia",
            "connectivity": true
        },
        {
            "lon": -76.16676597,
            "lat": 4.80364337,
            "school_name": "MARCO FIDEL SUAREZ",
            "country_name": "Colombia",
            "connectivity": true
        },
        {
            "lon": -76.12266845,
            "lat": 8.111806112,
            "school_name": "IE LAS DELICIAS",
            "country_name": "Colombia",
            "connectivity": true
        },
        {
            "lon": -76.4802167,
            "lat": 3.45349493,
            "school_name": "CARLOS VILLAFA\u00d1E",
            "country_name": "Colombia",
            "connectivity": true
        },
        {
            "lon": -76.41943121,
            "lat": 2.533543267,
            "school_name": "CENTRO DOCENTE RURAL MIXTO MIRAFLORES",
            "country_name": "Colombia",
            "connectivity": true
        },
        {
            "lon": -60.1459,
            "lat": -12.7247,
            "school_name": "EMEI PROFESSORA PENHA ROSENDO LEITE",
            "country_name": "Brazil",
            "connectivity": true
        },
        {
            "lon": -68.6252,
            "lat": -10.3955,
            "school_name": "ESC PADRE JOSIMO",
            "country_name": "Brazil",
            "connectivity": false
        },
        {
            "lon": -67.7808,
            "lat": -10.0186,
            "school_name": "ESC COLEGIO MILITAR DOM PEDRO II",
            "country_name": "Brazil",
            "connectivity": true
        },
        {
            "lon": -69.4276,
            "lat": -3.9903,
            "school_name": "ESCOLA MUL NOSSA SENHORA DO PERPETUO SOCORRO",
            "country_name": "Brazil",
            "connectivity": false
        },
        {
            "lon": -50.434,
            "lat": -0.7815,
            "school_name": "E M E F LAURA DE PAIVA MESQUITA",
            "country_name": "Brazil",
            "connectivity": false
        },
        {
            "lon": -55.1142,
            "lat": -4.2244,
            "school_name": "E M E F VISTA ALEGRE",
            "country_name": "Brazil",
            "connectivity": false
        },
        {
            "lon": -50.2988,
            "lat": -3.5224,
            "school_name": "E M E F JANILCE SOUZA MONTEIRO",
            "country_name": "Brazil",
            "connectivity": true
        },
        {
            "lon": -54.2336,
            "lat": -2.4723,
            "school_name": "E M E F HILDEBRANDO BATISTA NASCIMENTO",
            "country_name": "Brazil",
            "connectivity": false
        },
        {
            "lon": -47.7135,
            "lat": -2.4301,
            "school_name": "E M E F MONTE SIAO",
            "country_name": "Brazil",
            "connectivity": false
        },
        {
            "lon": -50.0474,
            "lat": -1.6792,
            "school_name": "CENTRO EDUCACIONAL CANTO DO SABER",
            "country_name": "Brazil",
            "connectivity": false
        },
        {
            "lon": -49.588,
            "lat": -0.4063,
            "school_name": "E M E F ITAMAR DE OLIVEIRA",
            "country_name": "Brazil",
            "connectivity": false
        },
        {
            "lon": -44.2461,
            "lat": -2.9398,
            "school_name": "COLEGIO MUNICIPAL SILO AQUINO",
            "country_name": "Brazil",
            "connectivity": true
        },
        {
            "lon": -45.176,
            "lat": -4.043,
            "school_name": "ESCOLA MUNICIPAL SANTA TEREZINHA",
            "country_name": "Brazil",
            "connectivity": false
        },
        {
            "lon": -44.9782,
            "lat": -4.6089,
            "school_name": "CENTRO DE ENSINO INFANTIL PROFESSORA INACIA FERNANDES DA SILVA",
            "country_name": "Brazil",
            "connectivity": true
        },
        {
            "lon": -43.7238,
            "lat": -4.0261,
            "school_name": "UE MANOEL DOS SANTOS",
            "country_name": "Brazil",
            "connectivity": false
        },
        {
            "lon": -41.5543,
            "lat": -2.9388,
            "school_name": "ESCOLA MUNICIPAL RUI BARBOSA",
            "country_name": "Brazil",
            "connectivity": false
        },
        {
            "lon": -38.51,
            "lat": -3.815,
            "school_name": "ESCOLA MUNICIPAL OTAVIO DE FARIAS",
            "country_name": "Brazil",
            "connectivity": true
        },
        {
            "lon": -38.1147,
            "lat": -4.1866,
            "school_name": "PEDRO DE QUEIROZ LIMA EEEP",
            "country_name": "Brazil",
            "connectivity": true
        },
        {
            "lon": -38.1653,
            "lat": -6.4358,
            "school_name": "UNIDADE DE ENSINO JOAQUINA PINTO LOPES",
            "country_name": "Brazil",
            "connectivity": true
        },
        {
            "lon": -37.4512,
            "lat": -6.4921,
            "school_name": "EMEIEF DR JARQUES LUCIO DA SILVA",
            "country_name": "Brazil",
            "connectivity": true
        },
        {
            "lon": -35.4705,
            "lat": -7.3932,
            "school_name": "EMEIEF DO BAIXIO",
            "country_name": "Brazil",
            "connectivity": false
        },
        {
            "lon": -35.5881,
            "lat": -8.4369,
            "school_name": "ESCOLA MANOEL AFONSO DA SILVA",
            "country_name": "Brazil",
            "connectivity": false
        },
        {
            "lon": -34.9769,
            "lat": -8.0825,
            "school_name": "CENTRO EDUCACIONAL CRISTO REDENTOR",
            "country_name": "Brazil",
            "connectivity": true
        },
        {
            "lon": -48.8669,
            "lat": -1.7289,
            "school_name": "EMEI MARIA LORENZA CIVALLERI",
            "country_name": "Brazil",
            "connectivity": true
        },
        {
            "lon": -36.409,
            "lat": -9.6568,
            "school_name": "ESCOLA MUNICIPAL MARECHAL FLORIANO PEIXOTO",
            "country_name": "Brazil",
            "connectivity": false
        },
        {
            "lon": -36.3293,
            "lat": -9.328,
            "school_name": "ESCOLA MUNICIPAL MANOEL LEITE DOS PASSOS",
            "country_name": "Brazil",
            "connectivity": false
        },
        {
            "lon": -36.5416,
            "lat": -9.5979,
            "school_name": "ESC MUNICIPAL E CRECHE MARIA GORETE SOARES DE ALENCAR",
            "country_name": "Brazil",
            "connectivity": false
        },
        {
            "lon": -43.2505,
            "lat": -12.17,
            "school_name": "ESCOLA MUNICIPAL INDIGENA KIRIRI",
            "country_name": "Brazil",
            "connectivity": true
        },
        {
            "lon": -42.1001,
            "lat": -19.6899,
            "school_name": "EE JOSE ANTUNES MOREIRA",
            "country_name": "Brazil",
            "connectivity": true
        },
        {
            "lon": -45.477,
            "lat": -22.4449,
            "school_name": "EE FLORIVAL XAVIER",
            "country_name": "Brazil",
            "connectivity": true
        },
        {
            "lon": -44.0154,
            "lat": -15.6085,
            "school_name": "EM JOSIAS RODRIGUES DA LUZ",
            "country_name": "Brazil",
            "connectivity": true
        },
        {
            "lon": -43.6204,
            "lat": -16.1957,
            "school_name": "EM MESTRE JOSE DE MELO",
            "country_name": "Brazil",
            "connectivity": true
        },
        {
            "lon": -41.9891,
            "lat": -16.468,
            "school_name": "EM DA VILA DO JACARE",
            "country_name": "Brazil",
            "connectivity": false
        },
        {
            "lon": -43.0968,
            "lat": -20.0051,
            "school_name": "PEM BRANCA DE NEVE II",
            "country_name": "Brazil",
            "connectivity": false
        },
        {
            "lon": -43.5317,
            "lat": -21.4487,
            "school_name": "EM MALAQUE NEIF HADDAD",
            "country_name": "Brazil",
            "connectivity": true
        },
        {
            "lon": -36.6617,
            "lat": -9.7413,
            "school_name": "CENTRO DE EDUCACAO INFANTIL MANOEL ROLIM",
            "country_name": "Brazil",
            "connectivity": true
        },
        {
            "lon": -45.9483,
            "lat": -22.2307,
            "school_name": "COLEGIO TIRADENTES PMMG",
            "country_name": "Brazil",
            "connectivity": true
        },
        {
            "lon": -54.4025,
            "lat": -25.4552,
            "school_name": "ARCANGELO NANDI C E EF M",
            "country_name": "Brazil",
            "connectivity": true
        },
        {
            "lon": -43.113,
            "lat": -22.9046,
            "school_name": "E M PROFESSOR PAULO DE ALMEIDA CAMPOS",
            "country_name": "Brazil",
            "connectivity": true
        },
        {
            "lon": -46.6973,
            "lat": -23.4863,
            "school_name": "GALDINO LOPES CHAGAS PROFESSOR",
            "country_name": "Brazil",
            "connectivity": false
        },
        {
            "lon": -46.5535,
            "lat": -23.453,
            "school_name": "IRMA CELESTE LAR",
            "country_name": "Brazil",
            "connectivity": true
        },
        {
            "lon": -46.795,
            "lat": -23.6549,
            "school_name": "JACARANDA EM",
            "country_name": "Brazil",
            "connectivity": true
        },
        {
            "lon": -46.8743,
            "lat": -23.3652,
            "school_name": "VENERANDA DE FREITAS PINTO PROF EMEB",
            "country_name": "Brazil",
            "connectivity": true
        },
        {
            "lon": -44.3226,
            "lat": -22.6822,
            "school_name": "NOGUEIRA COBRA CORONEL EMEIEF",
            "country_name": "Brazil",
            "connectivity": true
        },
        {
            "lon": -46.8656,
            "lat": -23.5386,
            "school_name": "MARIO JOAQUIM ESCOBAR DE ANDRADE EMEF",
            "country_name": "Brazil",
            "connectivity": true
        },
        {
            "lon": -48.0661,
            "lat": -23.5907,
            "school_name": "CECILIA MOREIRA PROFA EMEI",
            "country_name": "Brazil",
            "connectivity": true
        },
        {
            "lon": -50.0699,
            "lat": -21.4159,
            "school_name": "CEL JTO A EE ADELINO PETERS",
            "country_name": "Brazil",
            "connectivity": true
        },
        {
            "lon": -49.3785,
            "lat": -26.245,
            "school_name": "CEI MUN NOSSO MUNDO",
            "country_name": "Brazil",
            "connectivity": true
        },
        {
            "lon": -43.0893,
            "lat": -13.5605,
            "school_name": "COLEGIO MUNICIPAL JOAO MEIRA",
            "country_name": "Brazil",
            "connectivity": true
        },
        {
            "lon": -46.7655,
            "lat": -1.057,
            "school_name": "EEEF CASA DA AMIZADE",
            "country_name": "Brazil",
            "connectivity": true
        },
        {
            "lon": -52.37,
            "lat": -25.1016,
            "school_name": "DOMINGOS LOPES E R M EI EF",
            "country_name": "Brazil",
            "connectivity": false
        },
        {
            "lon": -53.4405,
            "lat": -24.9438,
            "school_name": "ROBERT FRANCIS KENNEDY E M EI EF",
            "country_name": "Brazil",
            "connectivity": true
        },
        {
            "lon": -49.3043,
            "lat": -25.463,
            "school_name": "MARIA NICOLAS E M PROFA EF",
            "country_name": "Brazil",
            "connectivity": true
        },
        {
            "lon": -43.2794,
            "lat": -22.9047,
            "school_name": "0313018 ESCOLA MUNICIPAL ISABEL MENDES",
            "country_name": "Brazil",
            "connectivity": true
        },
        {
            "lon": -49.2991,
            "lat": -25.4105,
            "school_name": "MARIA VIEZZER HERMANN C M E I PROFA",
            "country_name": "Brazil",
            "connectivity": true
        },
        {
            "lon": -48.773,
            "lat": -26.8594,
            "school_name": "CEI TIA LOLI",
            "country_name": "Brazil",
            "connectivity": true
        },
        {
            "lon": -51.2075,
            "lat": -27.3794,
            "school_name": "ESCOLA ITINERANTE ESTUDANDO E PLANTANDO",
            "country_name": "Brazil",
            "connectivity": true
        },
        {
            "lon": -52.6298,
            "lat": -29.8622,
            "school_name": "ESC MUN ENS FUN ANDRE VIDAL",
            "country_name": "Brazil",
            "connectivity": true
        },
        {
            "lon": -52.5618,
            "lat": -28.7197,
            "school_name": "ESC MUN ENS FUND JOAQUIM FLORIANO PINTO",
            "country_name": "Brazil",
            "connectivity": true
        },
        {
            "lon": -50.9663,
            "lat": -12.2901,
            "school_name": "ESCOLA MUNICIPAL DE EDUCACAO BASICA PROFESSORA NAIR BARBOSA DE SOUZA",
            "country_name": "Brazil",
            "connectivity": true
        },
        {
            "lon": -43.6636,
            "lat": -22.8832,
            "school_name": "1019831 EDI PROFESSORA MARIA MESQUITA DE SIQUEIRA",
            "country_name": "Brazil",
            "connectivity": true
        },
        {
            "lon": -52.0369,
            "lat": -28.7966,
            "school_name": "ESC EST ENS FUN ALEXANDRE FERREIRA",
            "country_name": "Brazil",
            "connectivity": true
        },
        {
            "lon": -53.2909,
            "lat": -23.385,
            "school_name": "DOURADINA C E EF M",
            "country_name": "Brazil",
            "connectivity": true
        },
        {
            "lon": -48.5174,
            "lat": -25.5192,
            "school_name": "ROQUE VERNALHA E E DR EF",
            "country_name": "Brazil",
            "connectivity": true
        },
        {
            "lon": -61.0539,
            "lat": 2.1673,
            "school_name": "ESC MUN GIOVANEI SOUZA DOS SANTOS",
            "country_name": "Brazil",
            "connectivity": true
        },
        {
            "lon": -48.4732,
            "lat": -1.3445,
            "school_name": "EEEFM NOSSA SENHORA DO CARMO",
            "country_name": "Brazil",
            "connectivity": true
        },
        {
            "lon": -51.8128,
            "lat": -24.3755,
            "school_name": "ROMEOPOLIS E E DO C DE EF",
            "country_name": "Brazil",
            "connectivity": true
        },
        {
            "lon": -42.7691,
            "lat": -5.0717,
            "school_name": "CEJA PROF ANGELINA DE MOURA LEAL",
            "country_name": "Brazil",
            "connectivity": true
        },
        {
            "lon": -40.3711,
            "lat": -3.6678,
            "school_name": "CSTI MARIA DIAS IBIAPINA",
            "country_name": "Brazil",
            "connectivity": true
        },
        {
            "lon": -38.5612,
            "lat": -7.1899,
            "school_name": "EMEIF IDELFONSO MANUEL DO NASCIMENTO",
            "country_name": "Brazil",
            "connectivity": true
        },
        {
            "lon": -40.4237,
            "lat": -9.262,
            "school_name": "ESCOLA NUCLEO DE MORADORES - 11",
            "country_name": "Brazil",
            "connectivity": true
        }
    ],
    "num_countries": 12,
    "countries": [
        "Benin",
        "Brazil",
        "Colombia",
        "Costa Rica",
        "Honduras",
        "Kazakhstan",
        "Montserrat",
        "Palestine",
        "Philippines",
        "Rwanda",
        "Sierra Leone",
        "Zimbabwe"
    ],
    "schools_no_data": [
        {
            "lon": -10.28747,
            "lat": 6.550456,
            "school_name": "Gailiala Public School",
            "country_name": "Liberia",
            "connectivity": false
        },
        {
            "lon": -8.727131,
            "lat": 7.372936,
            "school_name": "Dahnlorpa Public",
            "country_name": "Liberia",
            "connectivity": false
        },
        {
            "lon": -8.497135,
            "lat": 6.820694,
            "school_name": "Goah Memorial Institute",
            "country_name": "Liberia",
            "connectivity": false
        },
        {
            "lon": 7.439183,
            "lat": 6.894098,
            "school_name": "Name unknown",
            "country_name": "Nigeria",
            "connectivity": false
        },
        {
            "lon": 33.28844,
            "lat": -5.41708,
            "school_name": "NYAHUA",
            "country_name": "United Republic of Tanzania",
            "connectivity": false
        },
        {
            "lon": -1.8632213,
            "lat": 9.2220793,
            "school_name": "Name unknown",
            "country_name": "Ghana",
            "connectivity": false
        },
        {
            "lon": -0.2235863,
            "lat": 5.5366291,
            "school_name": "Name unknown",
            "country_name": "Ghana",
            "connectivity": false
        },
        {
            "lon": -0.2006907,
            "lat": 5.5988344,
            "school_name": "Name unknown",
            "country_name": "Ghana",
            "connectivity": false
        },
        {
            "lon": 32.9874403333333,
            "lat": 14.2663726,
            "school_name": "Name unknown",
            "country_name": "Sudan",
            "connectivity": false
        },
        {
            "lon": 23.96767052,
            "lat": 12.962817,
            "school_name": "Name unknown",
            "country_name": "Sudan",
            "connectivity": false
        },
        {
            "lon": -1.8501172,
            "lat": 9.25202,
            "school_name": "Name unknown",
            "country_name": "Ghana",
            "connectivity": false
        },
        {
            "lon": -0.9959581,
            "lat": 5.9219434,
            "school_name": "Name unknown",
            "country_name": "Ghana",
            "connectivity": false
        },
        {
            "lon": 0.5278427,
            "lat": 6.5952937,
            "school_name": "Name unknown",
            "country_name": "Ghana",
            "connectivity": false
        },
        {
            "lon": -0.8655492,
            "lat": 9.4169423,
            "school_name": "Name unknown",
            "country_name": "Ghana",
            "connectivity": false
        },
        {
            "lon": -1.8631821,
            "lat": 9.2220623,
            "school_name": "Name unknown",
            "country_name": "Ghana",
            "connectivity": false
        },
        {
            "lon": 39.11461,
            "lat": -6.621,
            "school_name": "NEW HAZINA",
            "country_name": "United Republic of Tanzania",
            "connectivity": false
        },
        {
            "lon": 35.45164,
            "lat": -4.4757,
            "school_name": "SAGONG",
            "country_name": "United Republic of Tanzania",
            "connectivity": false
        },
        {
            "lon": 38.63338,
            "lat": -4.71223,
            "school_name": "KISINGA",
            "country_name": "United Republic of Tanzania",
            "connectivity": false
        },
        {
            "lon": 31.05394,
            "lat": -1.26704,
            "school_name": "AHAKAKUNYU",
            "country_name": "United Republic of Tanzania",
            "connectivity": false
        },
        {
            "lon": 33.2249,
            "lat": -7.48222,
            "school_name": "MATWIGA",
            "country_name": "United Republic of Tanzania",
            "connectivity": false
        },
        {
            "lon": 32.24039,
            "lat": -2.86967,
            "school_name": "ALOYSIUS",
            "country_name": "United Republic of Tanzania",
            "connectivity": false
        },
        {
            "lon": 34.70016,
            "lat": -4.28221,
            "school_name": "NDUGUTI",
            "country_name": "United Republic of Tanzania",
            "connectivity": false
        },
        {
            "lon": -2.8239282,
            "lat": 5.8172997,
            "school_name": "Name unknown",
            "country_name": "Ghana",
            "connectivity": false
        },
        {
            "lon": 1.44157,
            "lat": 6.199725,
            "school_name": "CEPE ANYMAGNA",
            "country_name": "Togo",
            "connectivity": false
        },
        {
            "lon": 1.171423333,
            "lat": 6.729778333,
            "school_name": "EPC GAME-SEVA",
            "country_name": "Togo",
            "connectivity": false
        },
        {
            "lon": 0.605087,
            "lat": 7.511148,
            "school_name": "EPC TOMRGBE",
            "country_name": "Togo",
            "connectivity": false
        },
        {
            "lon": 1.173994,
            "lat": 6.947532,
            "school_name": "EPC SS PIERRE ET PAUL NOTSE",
            "country_name": "Togo",
            "connectivity": false
        },
        {
            "lon": 0.779238,
            "lat": 6.866372,
            "school_name": "EPP AGOU AVEDZE",
            "country_name": "Togo",
            "connectivity": false
        },
        {
            "lon": 0.862587,
            "lat": 6.996429,
            "school_name": "EPP KPELE TUTU KPEKPETA",
            "country_name": "Togo",
            "connectivity": false
        },
        {
            "lon": 1.331505,
            "lat": 9.363031,
            "school_name": "EPP KODOLE",
            "country_name": "Togo",
            "connectivity": false
        },
        {
            "lon": 0.614083,
            "lat": 9.66757,
            "school_name": "EPP KOUSSAM",
            "country_name": "Togo",
            "connectivity": false
        },
        {
            "lon": 33.97171,
            "lat": -2.85971,
            "school_name": "IMALILO",
            "country_name": "United Republic of Tanzania",
            "connectivity": false
        },
        {
            "lon": 33.73938,
            "lat": -2.39799,
            "school_name": "BUSEGA",
            "country_name": "United Republic of Tanzania",
            "connectivity": false
        },
        {
            "lon": 0.183253333,
            "lat": 10.887745,
            "school_name": "CPC SAINT PAUL",
            "country_name": "Togo",
            "connectivity": false
        },
        {
            "lon": 33.57875625,
            "lat": -12.58513068,
            "school_name": "Kanunkha",
            "country_name": "Malawi",
            "connectivity": false
        },
        {
            "lon": 35.23098264,
            "lat": -15.74513593,
            "school_name": "Masalani Primary",
            "country_name": "Malawi",
            "connectivity": false
        },
        {
            "lon": 34.86042279,
            "lat": -16.27151524,
            "school_name": "Zatonse Pvt",
            "country_name": "Malawi",
            "connectivity": false
        },
        {
            "lon": 33.58062536,
            "lat": -14.01894032,
            "school_name": "Chimvite Prim School",
            "country_name": "Malawi",
            "connectivity": false
        },
        {
            "lon": 33.87610711,
            "lat": -13.48945838,
            "school_name": "Mingu Full Primary",
            "country_name": "Malawi",
            "connectivity": false
        },
        {
            "lon": 34.01600947,
            "lat": -11.22549252,
            "school_name": "Kasasire",
            "country_name": "Malawi",
            "connectivity": false
        },
        {
            "lon": 33.51754261,
            "lat": -12.60482632,
            "school_name": "Kanyata Primary",
            "country_name": "Malawi",
            "connectivity": false
        },
        {
            "lon": 31.09734822,
            "lat": 2.127174662,
            "school_name": "INST ANYIKO",
            "country_name": "Democratic Republic of the Congo",
            "connectivity": false
        },
        {
            "lon": 21.99498541,
            "lat": -1.251227957,
            "school_name": "LYCEE BOKELA",
            "country_name": "Democratic Republic of the Congo",
            "connectivity": false
        },
        {
            "lon": 20.75301162,
            "lat": -6.416252546,
            "school_name": "EP VANESA",
            "country_name": "Democratic Republic of the Congo",
            "connectivity": false
        },
        {
            "lon": 20.75478536,
            "lat": -5.931897625,
            "school_name": "EP KABAMBAYI",
            "country_name": "Democratic Republic of the Congo",
            "connectivity": false
        },
        {
            "lon": 7.171417,
            "lat": 5.599186,
            "school_name": "Name unknown",
            "country_name": "Nigeria",
            "connectivity": false
        },
        {
            "lon": 7.210728,
            "lat": 5.637569,
            "school_name": "Name unknown",
            "country_name": "Nigeria",
            "connectivity": false
        },
        {
            "lon": 7.074575,
            "lat": 5.730683,
            "school_name": "Name unknown",
            "country_name": "Nigeria",
            "connectivity": false
        },
        {
            "lon": 27.99387004,
            "lat": 2.144024977,
            "school_name": "INST BAFWAKOY",
            "country_name": "Democratic Republic of the Congo",
            "connectivity": false
        },
        {
            "lon": 22.27055167,
            "lat": -5.482824538,
            "school_name": "INST MALENGU",
            "country_name": "Democratic Republic of the Congo",
            "connectivity": false
        },
        {
            "lon": 24.77439374,
            "lat": -6.202658114,
            "school_name": "INST YANTAMBUE",
            "country_name": "Democratic Republic of the Congo",
            "connectivity": false
        },
        {
            "lon": 25.75117654,
            "lat": -5.385948706,
            "school_name": "CS AMI DE DIEU",
            "country_name": "Democratic Republic of the Congo",
            "connectivity": false
        },
        {
            "lon": 34.68073,
            "lat": -1.51979,
            "school_name": "KARAKATONGA",
            "country_name": "United Republic of Tanzania",
            "connectivity": false
        },
        {
            "lon": 23.61352556,
            "lat": -6.12911092,
            "school_name": "INST BULONGAME",
            "country_name": "Democratic Republic of the Congo",
            "connectivity": false
        },
        {
            "lon": -68.846276,
            "lat": -15.454777,
            "school_name": "VITOCOTA",
            "country_name": "Bolivia (Plurinational State of)",
            "connectivity": false
        },
        {
            "lon": -65.861913,
            "lat": -17.963981,
            "school_name": "THAYAPAYA",
            "country_name": "Bolivia (Plurinational State of)",
            "connectivity": false
        },
        {
            "lon": -12.10234,
            "lat": 16.51374,
            "school_name": "ehsseyeatguigue",
            "country_name": "Mauritania",
            "connectivity": false
        },
        {
            "lon": 33.2488,
            "lat": 0.49394,
            "school_name": "MUSIMA P/SCHOOL",
            "country_name": "Uganda",
            "connectivity": false
        },
        {
            "lon": 33.14474,
            "lat": 0.89787,
            "school_name": "NAMISAMBYA SDA PRI SCHOOL",
            "country_name": "Uganda",
            "connectivity": false
        },
        {
            "lon": 33.91675,
            "lat": 1.38142,
            "school_name": "Name unknown",
            "country_name": "Uganda",
            "connectivity": false
        },
        {
            "lon": 31.60806,
            "lat": -0.53396,
            "school_name": "ST ANTHONY PRI SCHOOL",
            "country_name": "Uganda",
            "connectivity": false
        },
        {
            "lon": 32.04796,
            "lat": 0.39667,
            "school_name": "BRAINLAND N/SCH",
            "country_name": "Uganda",
            "connectivity": false
        },
        {
            "lon": 33.35442,
            "lat": 1.80039,
            "school_name": "Kakuya S.S.",
            "country_name": "Uganda",
            "connectivity": false
        },
        {
            "lon": 32.61601,
            "lat": 0.26284,
            "school_name": "Marble Nur. & P.S",
            "country_name": "Uganda",
            "connectivity": false
        },
        {
            "lon": 29.62773,
            "lat": -1.34236,
            "school_name": "Gisozi",
            "country_name": "Uganda",
            "connectivity": false
        },
        {
            "lon": 31.32831,
            "lat": 0.58722,
            "school_name": "Kayinja Skilled Cope Centre",
            "country_name": "Uganda",
            "connectivity": false
        },
        {
            "lon": 32.62996,
            "lat": 2.22176,
            "school_name": "Abari P.S.",
            "country_name": "Uganda",
            "connectivity": false
        },
        {
            "lon": 30.77756,
            "lat": -0.84386,
            "school_name": "St. Peters Kyoga",
            "country_name": "Uganda",
            "connectivity": false
        },
        {
            "lon": 32.64709,
            "lat": 3.379,
            "school_name": "Gem P.7 School",
            "country_name": "Uganda",
            "connectivity": false
        },
        {
            "lon": 32.66886,
            "lat": 3.49274,
            "school_name": "Lapalangwen P.S.",
            "country_name": "Uganda",
            "connectivity": false
        },
        {
            "lon": 34.15172,
            "lat": 1.51215,
            "school_name": "Kangole P.S.",
            "country_name": "Uganda",
            "connectivity": false
        },
        {
            "lon": 34.14848,
            "lat": 1.11483,
            "school_name": "Watsemba P.S.",
            "country_name": "Uganda",
            "connectivity": false
        },
        {
            "lon": 33.50285,
            "lat": 0.5252,
            "school_name": "Buwaya P.S.",
            "country_name": "Uganda",
            "connectivity": false
        },
        {
            "lon": 32.10895,
            "lat": 0.63601,
            "school_name": "Kabongezo P.S.",
            "country_name": "Uganda",
            "connectivity": false
        },
        {
            "lon": 32.77675,
            "lat": 0.58619,
            "school_name": "Nabalanga P.S",
            "country_name": "Uganda",
            "connectivity": false
        },
        {
            "lon": 29.30134,
            "lat": -26.78591,
            "school_name": "Ulwazi Primary School",
            "country_name": "South Africa",
            "connectivity": false
        },
        {
            "lon": 28.78412,
            "lat": -25.37732,
            "school_name": "Bongumusa Secondary School",
            "country_name": "South Africa",
            "connectivity": false
        },
        {
            "lon": 33.03037,
            "lat": 0.34665,
            "school_name": "Ssabawali P.S.",
            "country_name": "Uganda",
            "connectivity": false
        },
        {
            "lon": 27.05124,
            "lat": -26.72311,
            "school_name": "Seiphemelo Secondary School",
            "country_name": "South Africa",
            "connectivity": false
        },
        {
            "lon": 24.78781,
            "lat": -28.70963,
            "school_name": "Jannie Brink Special School",
            "country_name": "South Africa",
            "connectivity": false
        },
        {
            "lon": 18.58784,
            "lat": -33.92514,
            "school_name": "Cravenby Secondary School",
            "country_name": "South Africa",
            "connectivity": false
        },
        {
            "lon": 29.77228,
            "lat": -24.71676,
            "school_name": "Letebele Marishane Secondary School",
            "country_name": "South Africa",
            "connectivity": false
        },
        {
            "lon": 29.87245,
            "lat": -23.91535,
            "school_name": "Makome Secondary",
            "country_name": "South Africa",
            "connectivity": false
        },
        {
            "lon": 29.91265,
            "lat": -28.38649,
            "school_name": "Mashobane Secondary School",
            "country_name": "South Africa",
            "connectivity": false
        },
        {
            "lon": 30.28163,
            "lat": -30.90251,
            "school_name": "Imbizane Primary School",
            "country_name": "South Africa",
            "connectivity": false
        },
        {
            "lon": 30.34548,
            "lat": -29.6738,
            "school_name": "Siqongweni Secondary School",
            "country_name": "South Africa",
            "connectivity": false
        },
        {
            "lon": 30.77844,
            "lat": -28.07632,
            "school_name": "Emvunyane Primary School",
            "country_name": "South Africa",
            "connectivity": false
        },
        {
            "lon": 30.45122,
            "lat": -22.81036,
            "school_name": "Mbahela Primary",
            "country_name": "South Africa",
            "connectivity": false
        },
        {
            "lon": 30.85705,
            "lat": -29.86746,
            "school_name": "Isizanda Secondary School",
            "country_name": "South Africa",
            "connectivity": false
        },
        {
            "lon": 30.97238,
            "lat": -28.68082,
            "school_name": "Nkanyiso High School",
            "country_name": "South Africa",
            "connectivity": false
        },
        {
            "lon": 28.05023,
            "lat": -26.20175,
            "school_name": "Beyhan College",
            "country_name": "South Africa",
            "connectivity": false
        },
        {
            "lon": 27.84192,
            "lat": -26.13678,
            "school_name": "Princess High School",
            "country_name": "South Africa",
            "connectivity": false
        },
        {
            "lon": 27.60962,
            "lat": -31.84755,
            "school_name": "Ngxabangu Junior Secondary School",
            "country_name": "South Africa",
            "connectivity": false
        },
        {
            "lon": 27.99104,
            "lat": -31.6729,
            "school_name": "Tembeni Senior Primary School",
            "country_name": "South Africa",
            "connectivity": false
        },
        {
            "lon": 28.29146,
            "lat": -32.58438,
            "school_name": "Qolora Feni Junior Secondary School",
            "country_name": "South Africa",
            "connectivity": false
        },
        {
            "lon": 28.29952,
            "lat": -25.80417,
            "school_name": "Swimming Academy",
            "country_name": "South Africa",
            "connectivity": false
        },
        {
            "lon": 27.23343,
            "lat": -32.92328,
            "school_name": "Bhele Public School",
            "country_name": "South Africa",
            "connectivity": false
        },
        {
            "lon": 26.97449,
            "lat": -32.92058,
            "school_name": "Dikidikana Primary School",
            "country_name": "South Africa",
            "connectivity": false
        },
        {
            "lon": 25.61067,
            "lat": -33.96795,
            "school_name": "Greenwood Primary School",
            "country_name": "South Africa",
            "connectivity": false
        },
        {
            "lon": 28.51688,
            "lat": -31.55879,
            "school_name": "Dukatole Junior Secondary School",
            "country_name": "South Africa",
            "connectivity": false
        },
        {
            "lon": 27.78952,
            "lat": -32.03367,
            "school_name": "Tsomo Secondary School",
            "country_name": "South Africa",
            "connectivity": false
        },
        {
            "lon": 29.21737,
            "lat": -31.64983,
            "school_name": "Mpikeleli Junior Secondary School",
            "country_name": "South Africa",
            "connectivity": false
        },
        {
            "lon": 19.46737,
            "lat": -33.65698,
            "school_name": "Hexpark Primary School",
            "country_name": "South Africa",
            "connectivity": false
        },
        {
            "lon": -58.51964182,
            "lat": -34.54519353,
            "school_name": "INSTITUTO MANUEL DORREGO",
            "country_name": "Argentina",
            "connectivity": false
        },
        {
            "lon": -58.26896232,
            "lat": -34.76070877,
            "school_name": "JARDIN DE INFANTES N\u00ba928 \\JARDIN DEL OMBU\\",
            "country_name": "Argentina",
            "connectivity": false
        },
        {
            "lon": -58.63422346,
            "lat": -34.46218112,
            "school_name": "JARDIN DE INFANTES N\u00ba905 CRUCERO A.R.A. GRAL.BELGRANO",
            "country_name": "Argentina",
            "connectivity": false
        },
        {
            "lon": -58.24646114,
            "lat": -34.78930674,
            "school_name": "JARDIN DE INFANTES MODELO SARA C. DE ECCLESTON",
            "country_name": "Argentina",
            "connectivity": false
        },
        {
            "lon": -57.6934199,
            "lat": -35.0093329,
            "school_name": "JARDIN DE INFANTES N\u00ba906",
            "country_name": "Argentina",
            "connectivity": false
        },
        {
            "lon": -62.1045491,
            "lat": -38.8108383,
            "school_name": "ESCUELA PRIMARIA N\u00ba7 JAIME HARRIS",
            "country_name": "Argentina",
            "connectivity": false
        },
        {
            "lon": -58.40330925,
            "lat": -34.76563822,
            "school_name": "ESCUELA SECUNDARIA N\u00ba13",
            "country_name": "Argentina",
            "connectivity": false
        },
        {
            "lon": -58.05986867,
            "lat": -34.87999648,
            "school_name": "INSTITUTO SUPERIOR DE FORMACION DOCENTE N\u00ba94 R.T. SPERONI",
            "country_name": "Argentina",
            "connectivity": false
        },
        {
            "lon": -60.96552489,
            "lat": -34.59896592,
            "school_name": "ESCUELA PRIMARIA N\u00ba8 SARGENTO CABRAL",
            "country_name": "Argentina",
            "connectivity": false
        },
        {
            "lon": -58.81414332,
            "lat": -34.36688976,
            "school_name": "CENTRO DE ADULTOS 710/07",
            "country_name": "Argentina",
            "connectivity": false
        },
        {
            "lon": -58.68363159,
            "lat": -34.69184612,
            "school_name": "CENTRO DE ALFABETIZACION N\u00ba799/107 (PARROQUIA SAN JOSE)",
            "country_name": "Argentina",
            "connectivity": false
        },
        {
            "lon": -58.38622478,
            "lat": -34.70582656,
            "school_name": "ESC. SECUNDARIA BASICA N\u00ba30",
            "country_name": "Argentina",
            "connectivity": false
        },
        {
            "lon": -59.0912044,
            "lat": -35.1710792,
            "school_name": "ESCUELA SECUNDARIA N\u00ba5",
            "country_name": "Argentina",
            "connectivity": false
        },
        {
            "lon": -58.72317624,
            "lat": -34.46899787,
            "school_name": "ESC. SECUNDARIA BASICA N\u00ba28",
            "country_name": "Argentina",
            "connectivity": false
        },
        {
            "lon": -58.9608972,
            "lat": -34.16254572,
            "school_name": "ESC. SECUNDARIA BASICA N\u00ba5",
            "country_name": "Argentina",
            "connectivity": false
        },
        {
            "lon": -58.6914773,
            "lat": -34.66240313,
            "school_name": "COLEGIO PRIVADO NUESTRA SE\u00d1ORA DE BELEN",
            "country_name": "Argentina",
            "connectivity": false
        },
        {
            "lon": -58.20365794,
            "lat": -34.76314604,
            "school_name": "INSTITUTO SUPERIOR DE FORMACION TECNICA N\u00ba198",
            "country_name": "Argentina",
            "connectivity": false
        },
        {
            "lon": -65.2903233,
            "lat": -29.37888737,
            "school_name": "ESCUELA N\u00b0 215",
            "country_name": "Argentina",
            "connectivity": false
        },
        {
            "lon": -59.65912114,
            "lat": -27.56510493,
            "school_name": "E.E.P. N\u00ba 508",
            "country_name": "Argentina",
            "connectivity": false
        },
        {
            "lon": -60.96800924,
            "lat": -25.58874164,
            "school_name": "E.E.P. N\u00ba 819",
            "country_name": "Argentina",
            "connectivity": false
        },
        {
            "lon": -61.30075171,
            "lat": -27.29676856,
            "school_name": "E.E.P. N\u00ba 104-ALAS ARGENTINAS",
            "country_name": "Argentina",
            "connectivity": false
        },
        {
            "lon": -56.21697445,
            "lat": -28.00686194,
            "school_name": "ESCUELA N\u00ba 561 CTTE. GREGORIO A. PORTILLO",
            "country_name": "Argentina",
            "connectivity": false
        },
        {
            "lon": -58.84088931,
            "lat": -27.46631648,
            "school_name": "CENTRO DE FORMACION PROFESIONAL NTRA.SRA.DE LA MISERICORDIA",
            "country_name": "Argentina",
            "connectivity": false
        },
        {
            "lon": -60.05989167,
            "lat": -25.39400479,
            "school_name": "CBSR EPEP N\u00b0 191",
            "country_name": "Argentina",
            "connectivity": false
        },
        {
            "lon": -64.80786495,
            "lat": -24.22036309,
            "school_name": "ESCUELA N 230 ANTARTIDA ARGENTINA",
            "country_name": "Argentina",
            "connectivity": false
        },
        {
            "lon": -66.74919405,
            "lat": -31.20798259,
            "school_name": "J.I.N. N\u00b05 EXTENSION 05",
            "country_name": "Argentina",
            "connectivity": false
        },
        {
            "lon": -68.04724258,
            "lat": -33.30404674,
            "school_name": "LEANDRO DELLA SANTA",
            "country_name": "Argentina",
            "connectivity": false
        },
        {
            "lon": -71.35404211,
            "lat": -40.15470984,
            "school_name": "I.F.D. 3 NIVEL TERCIARIO",
            "country_name": "Argentina",
            "connectivity": false
        },
        {
            "lon": -67.9775467,
            "lat": -38.91468608,
            "school_name": "ESCUELA PRIMARIA NRO.294 MAESTROS ARGENTINOS",
            "country_name": "Argentina",
            "connectivity": false
        },
        {
            "lon": -64.9718489,
            "lat": -25.80008497,
            "school_name": "COLEGIO SAN GABRIEL COOP.DE TRABAJO DE ED.LTDA. EX N\u00b0 42 BIS",
            "country_name": "Argentina",
            "connectivity": false
        },
        {
            "lon": -60.64525908,
            "lat": -32.9535396,
            "school_name": "ESCUELA NRO 60 MARIANO MORENO",
            "country_name": "Argentina",
            "connectivity": false
        },
        {
            "lon": -61.22281356,
            "lat": -30.29820912,
            "school_name": "CENTRO DE EDUCACION FISICA 39 REGION IX",
            "country_name": "Argentina",
            "connectivity": false
        },
        {
            "lon": -76.9514,
            "lat": -12.2317,
            "school_name": "MIS PRIMERAS HUELLITAS",
            "country_name": "Peru",
            "connectivity": false
        },
        {
            "lon": -64.24967082,
            "lat": -27.81034117,
            "school_name": "CENTRO DE EDUCACION BASICA DE ADULTOS N\u00b0 181",
            "country_name": "Argentina",
            "connectivity": false
        },
        {
            "lon": -64.20905696,
            "lat": -27.93245648,
            "school_name": "INSTITUTO SAN ROQUE",
            "country_name": "Argentina",
            "connectivity": false
        },
        {
            "lon": -65.2716592,
            "lat": -26.9590406,
            "school_name": "C.E.F.P. N\u00b0 2-183",
            "country_name": "Argentina",
            "connectivity": false
        },
        {
            "lon": 6.341769,
            "lat": 5.549628,
            "school_name": "Name unknown",
            "country_name": "Nigeria",
            "connectivity": false
        },
        {
            "lon": 7.385535,
            "lat": 5.130166,
            "school_name": "Name unknown",
            "country_name": "Nigeria",
            "connectivity": false
        },
        {
            "lon": 6.046202,
            "lat": 5.518747,
            "school_name": "Name unknown",
            "country_name": "Nigeria",
            "connectivity": false
        },
        {
            "lon": 5.724566,
            "lat": 5.534885,
            "school_name": "Name unknown",
            "country_name": "Nigeria",
            "connectivity": false
        },
        {
            "lon": 7.561903,
            "lat": 5.617946,
            "school_name": "Name unknown",
            "country_name": "Nigeria",
            "connectivity": false
        },
        {
            "lon": 7.458544,
            "lat": 5.153528,
            "school_name": "Name unknown",
            "country_name": "Nigeria",
            "connectivity": false
        },
        {
            "lon": 7.837177503,
            "lat": 5.631007693,
            "school_name": "Name unknown",
            "country_name": "Nigeria",
            "connectivity": false
        },
        {
            "lon": 7.448578485,
            "lat": 5.54746376,
            "school_name": "Name unknown",
            "country_name": "Nigeria",
            "connectivity": false
        },
        {
            "lon": 7.494552856,
            "lat": 5.479997087,
            "school_name": "Name unknown",
            "country_name": "Nigeria",
            "connectivity": false
        },
        {
            "lon": 12.38919499,
            "lat": 10.70128192,
            "school_name": "Name unknown",
            "country_name": "Nigeria",
            "connectivity": false
        },
        {
            "lon": 7.820053,
            "lat": 5.780473,
            "school_name": "Name unknown",
            "country_name": "Nigeria",
            "connectivity": false
        },
        {
            "lon": 8.2229,
            "lat": 6.42751,
            "school_name": "Name unknown",
            "country_name": "Nigeria",
            "connectivity": false
        },
        {
            "lon": 8.1594,
            "lat": 6.604487,
            "school_name": "Name unknown",
            "country_name": "Nigeria",
            "connectivity": false
        },
        {
            "lon": 7.955441667,
            "lat": 6.39955,
            "school_name": "Name unknown",
            "country_name": "Nigeria",
            "connectivity": false
        },
        {
            "lon": 7.869495,
            "lat": 6.063154,
            "school_name": "Name unknown",
            "country_name": "Nigeria",
            "connectivity": false
        },
        {
            "lon": 5.129056,
            "lat": 7.665227,
            "school_name": "Name unknown",
            "country_name": "Nigeria",
            "connectivity": false
        },
        {
            "lon": 5.41623,
            "lat": 7.535995,
            "school_name": "Name unknown",
            "country_name": "Nigeria",
            "connectivity": false
        },
        {
            "lon": 7.269352,
            "lat": 6.251842,
            "school_name": "Name unknown",
            "country_name": "Nigeria",
            "connectivity": false
        },
        {
            "lon": 7.452727,
            "lat": 6.432694,
            "school_name": "Name unknown",
            "country_name": "Nigeria",
            "connectivity": false
        },
        {
            "lon": 6.803836,
            "lat": 8.768152,
            "school_name": "Name unknown",
            "country_name": "Nigeria",
            "connectivity": false
        },
        {
            "lon": 7.39882,
            "lat": 8.71252,
            "school_name": "Name unknown",
            "country_name": "Nigeria",
            "connectivity": false
        },
        {
            "lon": 7.529503,
            "lat": 9.043667,
            "school_name": "Name unknown",
            "country_name": "Nigeria",
            "connectivity": false
        },
        {
            "lon": 11.74317,
            "lat": 9.777918,
            "school_name": "Name unknown",
            "country_name": "Nigeria",
            "connectivity": false
        },
        {
            "lon": 11.43193,
            "lat": 9.62409,
            "school_name": "Name unknown",
            "country_name": "Nigeria",
            "connectivity": false
        },
        {
            "lon": 11.36916,
            "lat": 10.30597,
            "school_name": "Name unknown",
            "country_name": "Nigeria",
            "connectivity": false
        },
        {
            "lon": 7.216555,
            "lat": 5.511568333,
            "school_name": "Name unknown",
            "country_name": "Nigeria",
            "connectivity": false
        },
        {
            "lon": 7.170185922,
            "lat": 5.595638242,
            "school_name": "Name unknown",
            "country_name": "Nigeria",
            "connectivity": false
        },
        {
            "lon": 7.110651,
            "lat": 5.650339,
            "school_name": "Name unknown",
            "country_name": "Nigeria",
            "connectivity": false
        },
        {
            "lon": 7.10625,
            "lat": 5.57808,
            "school_name": "Name unknown",
            "country_name": "Nigeria",
            "connectivity": false
        },
        {
            "lon": 6.890759,
            "lat": 5.645507,
            "school_name": "Name unknown",
            "country_name": "Nigeria",
            "connectivity": false
        },
        {
            "lon": -71.9896,
            "lat": -13.3366,
            "school_name": "50899",
            "country_name": "Peru",
            "connectivity": false
        },
        {
            "lon": -76.7316,
            "lat": -7.18766,
            "school_name": "12",
            "country_name": "Peru",
            "connectivity": false
        },
        {
            "lon": -80.4569,
            "lat": -3.56409,
            "school_name": "013 LEONARDO RODRIGUEZ ARELLANO",
            "country_name": "Peru",
            "connectivity": false
        },
        {
            "lon": -79.362,
            "lat": -6.22042,
            "school_name": "10082 SAGRADO CORAZON DE JESUS",
            "country_name": "Peru",
            "connectivity": false
        },
        {
            "lon": -71.3186,
            "lat": -14.204,
            "school_name": "103",
            "country_name": "Peru",
            "connectivity": false
        },
        {
            "lon": -79.1216,
            "lat": -6.51377,
            "school_name": "10536",
            "country_name": "Peru",
            "connectivity": false
        },
        {
            "lon": -71.6773,
            "lat": -13.484,
            "school_name": "1060",
            "country_name": "Peru",
            "connectivity": false
        },
        {
            "lon": -78.4173,
            "lat": -6.35714,
            "school_name": "10960",
            "country_name": "Peru",
            "connectivity": false
        },
        {
            "lon": -78.9593,
            "lat": -6.0421,
            "school_name": "10965",
            "country_name": "Peru",
            "connectivity": false
        },
        {
            "lon": -76.6775,
            "lat": -6.39945,
            "school_name": "1144",
            "country_name": "Peru",
            "connectivity": false
        },
        {
            "lon": -71.3676,
            "lat": -14.1337,
            "school_name": "118",
            "country_name": "Peru",
            "connectivity": false
        },
        {
            "lon": -80.0928,
            "lat": -4.80031,
            "school_name": "15268",
            "country_name": "Peru",
            "connectivity": false
        },
        {
            "lon": -78.1525,
            "lat": -4.4942,
            "school_name": "16344",
            "country_name": "Peru",
            "connectivity": false
        },
        {
            "lon": -78.6463,
            "lat": -6.06494,
            "school_name": "16384",
            "country_name": "Peru",
            "connectivity": false
        },
        {
            "lon": -79.434,
            "lat": -5.13837,
            "school_name": "178",
            "country_name": "Peru",
            "connectivity": false
        },
        {
            "lon": -80.6785,
            "lat": -5.0232,
            "school_name": "20140",
            "country_name": "Peru",
            "connectivity": false
        },
        {
            "lon": -76.6658,
            "lat": -11.9244,
            "school_name": "20575 JOSE ANTONIO ENCINAS FRANCO",
            "country_name": "Peru",
            "connectivity": false
        },
        {
            "lon": -80.0079,
            "lat": -4.6445,
            "school_name": "20655",
            "country_name": "Peru",
            "connectivity": false
        },
        {
            "lon": -76.3753,
            "lat": -6.49092,
            "school_name": "218",
            "country_name": "Peru",
            "connectivity": false
        },
        {
            "lon": -75.0693,
            "lat": -14.6443,
            "school_name": "22397 ADELINA FERNANDEZ ALVARADO",
            "country_name": "Peru",
            "connectivity": false
        },
        {
            "lon": -74.5138,
            "lat": -12.1922,
            "school_name": "296",
            "country_name": "Peru",
            "connectivity": false
        },
        {
            "lon": -75.1266,
            "lat": -12.1999,
            "school_name": "30047",
            "country_name": "Peru",
            "connectivity": false
        },
        {
            "lon": -75.3173,
            "lat": -11.8747,
            "school_name": "30342",
            "country_name": "Peru",
            "connectivity": false
        },
        {
            "lon": -74.9426,
            "lat": -10.9738,
            "school_name": "31631",
            "country_name": "Peru",
            "connectivity": false
        },
        {
            "lon": -79.7307,
            "lat": -6.23443,
            "school_name": "ARCO IRIS",
            "country_name": "Peru",
            "connectivity": false
        },
        {
            "lon": -70.2494,
            "lat": -18.0223,
            "school_name": "ARCO IRIS",
            "country_name": "Peru",
            "connectivity": false
        },
        {
            "lon": -76.7205,
            "lat": -9.39001,
            "school_name": "32420",
            "country_name": "Peru",
            "connectivity": false
        },
        {
            "lon": -76.2603,
            "lat": -10.7558,
            "school_name": "34045",
            "country_name": "Peru",
            "connectivity": false
        },
        {
            "lon": -75.406,
            "lat": -10.0319,
            "school_name": "34508",
            "country_name": "Peru",
            "connectivity": false
        },
        {
            "lon": -75.1508,
            "lat": -9.86828,
            "school_name": "34713 JORGE GUILLEN",
            "country_name": "Peru",
            "connectivity": false
        },
        {
            "lon": -74.9174,
            "lat": -12.7538,
            "school_name": "36367",
            "country_name": "Peru",
            "connectivity": false
        },
        {
            "lon": 9.2841997,
            "lat": 12.2278948,
            "school_name": "Name unknown",
            "country_name": "Nigeria",
            "connectivity": false
        },
        {
            "lon": -73.8654,
            "lat": -13.5503,
            "school_name": "431-23",
            "country_name": "Peru",
            "connectivity": false
        },
        {
            "lon": -79.0183,
            "lat": -5.68722,
            "school_name": "458",
            "country_name": "Peru",
            "connectivity": false
        },
        {
            "lon": -73.6226,
            "lat": -13.7015,
            "school_name": "475-27",
            "country_name": "Peru",
            "connectivity": false
        },
        {
            "lon": -77.5983,
            "lat": -11.0981,
            "school_name": "479",
            "country_name": "Peru",
            "connectivity": false
        },
        {
            "lon": -71.6419,
            "lat": -13.9507,
            "school_name": "50077",
            "country_name": "Peru",
            "connectivity": false
        },
        {
            "lon": -71.1127,
            "lat": -14.5021,
            "school_name": "501429 ANTAPAMPA",
            "country_name": "Peru",
            "connectivity": false
        },
        {
            "lon": -77.1237,
            "lat": -11.8859,
            "school_name": "5093 ANTONIO RAYMONDI",
            "country_name": "Peru",
            "connectivity": false
        },
        {
            "lon": -77.7432,
            "lat": -10.8007,
            "school_name": "511",
            "country_name": "Peru",
            "connectivity": false
        },
        {
            "lon": -75.2348,
            "lat": -12.1373,
            "school_name": "519",
            "country_name": "Peru",
            "connectivity": false
        },
        {
            "lon": -79.8371,
            "lat": -6.77438,
            "school_name": "CEBA - RAMON CASTILLA MARQUEZADO",
            "country_name": "Peru",
            "connectivity": false
        },
        {
            "lon": -78.6388,
            "lat": -6.66906,
            "school_name": "579",
            "country_name": "Peru",
            "connectivity": false
        },
        {
            "lon": -72.4966,
            "lat": -3.51184,
            "school_name": "60069",
            "country_name": "Peru",
            "connectivity": false
        },
        {
            "lon": -75.3375,
            "lat": -7.80473,
            "school_name": "6010144",
            "country_name": "Peru",
            "connectivity": false
        },
        {
            "lon": -74.9347,
            "lat": -4.27339,
            "school_name": "601091",
            "country_name": "Peru",
            "connectivity": false
        },
        {
            "lon": -72.9203,
            "lat": -5.21709,
            "school_name": "60948",
            "country_name": "Peru",
            "connectivity": false
        },
        {
            "lon": -75.8863,
            "lat": -5.69036,
            "school_name": "62254",
            "country_name": "Peru",
            "connectivity": false
        },
        {
            "lon": -74.5785,
            "lat": -8.35637,
            "school_name": "633",
            "country_name": "Peru",
            "connectivity": false
        },
        {
            "lon": -77.0203,
            "lat": -12.143,
            "school_name": "7050 NICANOR RIVERA CACERES",
            "country_name": "Peru",
            "connectivity": false
        },
        {
            "lon": -77.0785,
            "lat": -8.1436,
            "school_name": "80499",
            "country_name": "Peru",
            "connectivity": false
        },
        {
            "lon": -78.4297,
            "lat": -8.27423,
            "school_name": "80580",
            "country_name": "Peru",
            "connectivity": false
        },
        {
            "lon": -78.4655,
            "lat": -7.71528,
            "school_name": "80814",
            "country_name": "Peru",
            "connectivity": false
        },
        {
            "lon": -78.3471,
            "lat": -7.37808,
            "school_name": "814",
            "country_name": "Peru",
            "connectivity": false
        },
        {
            "lon": -77.0612,
            "lat": -11.9638,
            "school_name": "8162",
            "country_name": "Peru",
            "connectivity": false
        },
        {
            "lon": -77.2795,
            "lat": -8.8064,
            "school_name": "84118 SANTA CRUZ",
            "country_name": "Peru",
            "connectivity": false
        },
        {
            "lon": -77.2634,
            "lat": -9.01357,
            "school_name": "86903",
            "country_name": "Peru",
            "connectivity": false
        },
        {
            "lon": -77.1039,
            "lat": -12.0461,
            "school_name": "94 MIGUEL GRAU",
            "country_name": "Peru",
            "connectivity": false
        },
        {
            "lon": -80.0209,
            "lat": -6.50836,
            "school_name": "ACUARELA DE COLORES",
            "country_name": "Peru",
            "connectivity": false
        },
        {
            "lon": -74.2219,
            "lat": -14.8221,
            "school_name": "AGRPECUARIO SANTA MAGDALENA",
            "country_name": "Peru",
            "connectivity": false
        },
        {
            "lon": -77.0001,
            "lat": -12.2003,
            "school_name": "ALEPH",
            "country_name": "Peru",
            "connectivity": false
        },
        {
            "lon": -76.2452,
            "lat": -9.96417,
            "school_name": "ANDRES FERNANDEZ GARRIDO",
            "country_name": "Peru",
            "connectivity": false
        },
        {
            "lon": -71.5262,
            "lat": -16.3968,
            "school_name": "BRYCE S.A.C.",
            "country_name": "Peru",
            "connectivity": false
        },
        {
            "lon": -73.6588,
            "lat": -13.9848,
            "school_name": "CCARMENCCA",
            "country_name": "Peru",
            "connectivity": false
        },
        {
            "lon": -77.0543,
            "lat": -11.9797,
            "school_name": "CEBA - LIBERTADOR SAN MARTIN",
            "country_name": "Peru",
            "connectivity": false
        },
        {
            "lon": -79.0788,
            "lat": -8.06459,
            "school_name": "CEBA - MUNDO FELIZ",
            "country_name": "Peru",
            "connectivity": false
        },
        {
            "lon": -76.1355,
            "lat": -13.4052,
            "school_name": "CHINCHA",
            "country_name": "Peru",
            "connectivity": false
        },
        {
            "lon": -76.7892,
            "lat": -9.33597,
            "school_name": "CORAZON DE JESUS",
            "country_name": "Peru",
            "connectivity": false
        },
        {
            "lon": -80.6827,
            "lat": -4.9055,
            "school_name": "ESMELDA JIMENEZ DE VASQUEZ",
            "country_name": "Peru",
            "connectivity": false
        },
        {
            "lon": -77.0102,
            "lat": -12.023,
            "school_name": "FE Y ALEGRIA 04",
            "country_name": "Peru",
            "connectivity": false
        },
        {
            "lon": -74.533,
            "lat": -8.75312,
            "school_name": "FERNANDO PINEDO",
            "country_name": "Peru",
            "connectivity": false
        },
        {
            "lon": -77.1063,
            "lat": -11.9685,
            "school_name": "FRANCISCA DIEZ CANSECO DE CASTILLA",
            "country_name": "Peru",
            "connectivity": false
        },
        {
            "lon": -76.9814,
            "lat": -12.115,
            "school_name": "FRIENDS",
            "country_name": "Peru",
            "connectivity": false
        },
        {
            "lon": -78.4458,
            "lat": -5.50613,
            "school_name": "GILMER HORNA CORRALES",
            "country_name": "Peru",
            "connectivity": false
        },
        {
            "lon": -71.9743,
            "lat": -13.5247,
            "school_name": "JOSE PARDO",
            "country_name": "Peru",
            "connectivity": false
        },
        {
            "lon": -76.202,
            "lat": -13.7114,
            "school_name": "LIBERTADOR SIMON BOLIVAR",
            "country_name": "Peru",
            "connectivity": false
        },
        {
            "lon": -75.0811,
            "lat": -12.5504,
            "school_name": "LOS ANDES",
            "country_name": "Peru",
            "connectivity": false
        },
        {
            "lon": -77.0737,
            "lat": -12.0166,
            "school_name": "LOS PEQUE\u00d1ITOS",
            "country_name": "Peru",
            "connectivity": false
        },
        {
            "lon": 26.261,
            "lat": 0.774,
            "school_name": "EP ELIKYA",
            "country_name": "Democratic Republic of the Congo",
            "connectivity": false
        },
        {
            "lon": -79.24,
            "lat": -7.9615,
            "school_name": "MANUEL AREVALO",
            "country_name": "Peru",
            "connectivity": false
        },
        {
            "lon": -79.5142,
            "lat": -5.23786,
            "school_name": "MARIA AUXILIADORA",
            "country_name": "Peru",
            "connectivity": false
        },
        {
            "lon": -79.8518,
            "lat": -6.76132,
            "school_name": "MI DULCE AMANECER",
            "country_name": "Peru",
            "connectivity": false
        },
        {
            "lon": -80.6831,
            "lat": -4.85853,
            "school_name": "MI MUNDO DE COLORES",
            "country_name": "Peru",
            "connectivity": false
        },
        {
            "lon": -70.9646,
            "lat": -17.8612,
            "school_name": "PAMPA ALTA I",
            "country_name": "Peru",
            "connectivity": false
        },
        {
            "lon": -74.9655,
            "lat": -12.7841,
            "school_name": "RAMON CASTILLA Y MARQUESADO",
            "country_name": "Peru",
            "connectivity": false
        },
        {
            "lon": -72.1695,
            "lat": -14.2379,
            "school_name": "SAN ANTONIO DE PICHIGUA",
            "country_name": "Peru",
            "connectivity": false
        },
        {
            "lon": -77.0635,
            "lat": -12.0334,
            "school_name": "SAN CARLOS",
            "country_name": "Peru",
            "connectivity": false
        },
        {
            "lon": -71.3403,
            "lat": -17.6569,
            "school_name": "SAN IGNACIO SCHOOL",
            "country_name": "Peru",
            "connectivity": false
        },
        {
            "lon": -77.0208,
            "lat": -12.1413,
            "school_name": "SAN LUIS",
            "country_name": "Peru",
            "connectivity": false
        },
        {
            "lon": -78.9253,
            "lat": -5.62593,
            "school_name": "SAN RAMON BAJO",
            "country_name": "Peru",
            "connectivity": false
        },
        {
            "lon": -77.1007,
            "lat": -11.9985,
            "school_name": "SANTA TERESA DE JESUS - SOPHIANUM",
            "country_name": "Peru",
            "connectivity": false
        },
        {
            "lon": -76.9062,
            "lat": -12.2246,
            "school_name": "SANTA URSULA DE JOSE GALVEZ",
            "country_name": "Peru",
            "connectivity": false
        },
        {
            "lon": -80.5923,
            "lat": -5.19981,
            "school_name": "SANTISIMA CRUZ DE MOTUPE",
            "country_name": "Peru",
            "connectivity": false
        },
        {
            "lon": -76.9077,
            "lat": -12.2236,
            "school_name": "SEMILLITAS I",
            "country_name": "Peru",
            "connectivity": false
        },
        {
            "lon": -69.7734,
            "lat": -15.8976,
            "school_name": "SIHUECANI",
            "country_name": "Peru",
            "connectivity": false
        },
        {
            "lon": -77.1158,
            "lat": -12.0735,
            "school_name": "THOMAS JEFFERSON",
            "country_name": "Peru",
            "connectivity": false
        },
        {
            "lon": 9.1516438,
            "lat": 12.6530313,
            "school_name": "Name unknown",
            "country_name": "Nigeria",
            "connectivity": false
        },
        {
            "lon": 7.303051446,
            "lat": 10.81197262,
            "school_name": "Name unknown",
            "country_name": "Nigeria",
            "connectivity": false
        },
        {
            "lon": 8.19665732,
            "lat": 11.1356252,
            "school_name": "Name unknown",
            "country_name": "Nigeria",
            "connectivity": false
        },
        {
            "lon": 8.116541505,
            "lat": 9.356478453,
            "school_name": "Name unknown",
            "country_name": "Nigeria",
            "connectivity": false
        },
        {
            "lon": 7.404086667,
            "lat": 10.52786,
            "school_name": "Name unknown",
            "country_name": "Nigeria",
            "connectivity": false
        },
        {
            "lon": 8.66472135,
            "lat": 9.276705411,
            "school_name": "Name unknown",
            "country_name": "Nigeria",
            "connectivity": false
        },
        {
            "lon": 7.992793,
            "lat": 12.37112,
            "school_name": "Name unknown",
            "country_name": "Nigeria",
            "connectivity": false
        },
        {
            "lon": 8.508972,
            "lat": 11.98823,
            "school_name": "Name unknown",
            "country_name": "Nigeria",
            "connectivity": false
        },
        {
            "lon": 8.689637,
            "lat": 11.95045,
            "school_name": "Name unknown",
            "country_name": "Nigeria",
            "connectivity": false
        },
        {
            "lon": 8.43684,
            "lat": 12.09396,
            "school_name": "Name unknown",
            "country_name": "Nigeria",
            "connectivity": false
        },
        {
            "lon": 12.277097,
            "lat": 8.527915,
            "school_name": "Name unknown",
            "country_name": "Nigeria",
            "connectivity": false
        },
        {
            "lon": 8.032816,
            "lat": 12.09266,
            "school_name": "Name unknown",
            "country_name": "Nigeria",
            "connectivity": false
        },
        {
            "lon": 12.574649,
            "lat": 9.502567,
            "school_name": "Name unknown",
            "country_name": "Nigeria",
            "connectivity": false
        },
        {
            "lon": 12.637897,
            "lat": 10.036253,
            "school_name": "Name unknown",
            "country_name": "Nigeria",
            "connectivity": false
        },
        {
            "lon": 11.82247257,
            "lat": 9.09746196,
            "school_name": "Name unknown",
            "country_name": "Nigeria",
            "connectivity": false
        },
        {
            "lon": 6.359226,
            "lat": 7.519819,
            "school_name": "Name unknown",
            "country_name": "Nigeria",
            "connectivity": false
        },
        {
            "lon": 6.896461,
            "lat": 7.097916,
            "school_name": "Name unknown",
            "country_name": "Nigeria",
            "connectivity": false
        },
        {
            "lon": 6.721948,
            "lat": 7.414763,
            "school_name": "Name unknown",
            "country_name": "Nigeria",
            "connectivity": false
        },
        {
            "lon": 6.20381,
            "lat": 7.551363,
            "school_name": "Name unknown",
            "country_name": "Nigeria",
            "connectivity": false
        },
        {
            "lon": 3.30813,
            "lat": 6.6336,
            "school_name": "Name unknown",
            "country_name": "Nigeria",
            "connectivity": false
        },
        {
            "lon": 3.288162,
            "lat": 6.472005,
            "school_name": "Name unknown",
            "country_name": "Nigeria",
            "connectivity": false
        },
        {
            "lon": 8.307998,
            "lat": 9.180906,
            "school_name": "Name unknown",
            "country_name": "Nigeria",
            "connectivity": false
        },
        {
            "lon": 8.676925,
            "lat": 9.073929,
            "school_name": "Name unknown",
            "country_name": "Nigeria",
            "connectivity": false
        },
        {
            "lon": 5.997939706,
            "lat": 9.088638425,
            "school_name": "Name unknown",
            "country_name": "Nigeria",
            "connectivity": false
        },
        {
            "lon": 5.300676778,
            "lat": 11.0661989,
            "school_name": "Name unknown",
            "country_name": "Nigeria",
            "connectivity": false
        },
        {
            "lon": 3.488235886,
            "lat": 7.015113948,
            "school_name": "Name unknown",
            "country_name": "Nigeria",
            "connectivity": false
        },
        {
            "lon": 3.36496245,
            "lat": 7.23451746,
            "school_name": "Name unknown",
            "country_name": "Nigeria",
            "connectivity": false
        },
        {
            "lon": 3.65509343,
            "lat": 6.84976778,
            "school_name": "Name unknown",
            "country_name": "Nigeria",
            "connectivity": false
        },
        {
            "lon": 5.14776,
            "lat": 7.275476,
            "school_name": "Name unknown",
            "country_name": "Nigeria",
            "connectivity": false
        },
        {
            "lon": 4.835358,
            "lat": 7.067432,
            "school_name": "Name unknown",
            "country_name": "Nigeria",
            "connectivity": false
        },
        {
            "lon": 5.5778,
            "lat": 7.22279,
            "school_name": "Name unknown",
            "country_name": "Nigeria",
            "connectivity": false
        },
        {
            "lon": 4.182278,
            "lat": 7.602681,
            "school_name": "Name unknown",
            "country_name": "Nigeria",
            "connectivity": false
        },
        {
            "lon": 4.541452,
            "lat": 7.474464,
            "school_name": "Name unknown",
            "country_name": "Nigeria",
            "connectivity": false
        },
        {
            "lon": 4.577672,
            "lat": 7.466663,
            "school_name": "Name unknown",
            "country_name": "Nigeria",
            "connectivity": false
        },
        {
            "lon": 3.893471,
            "lat": 7.399522,
            "school_name": "Name unknown",
            "country_name": "Nigeria",
            "connectivity": false
        },
        {
            "lon": 3.918096,
            "lat": 7.342564,
            "school_name": "Name unknown",
            "country_name": "Nigeria",
            "connectivity": false
        },
        {
            "lon": 9.019317,
            "lat": 10.004581,
            "school_name": "Name unknown",
            "country_name": "Nigeria",
            "connectivity": false
        },
        {
            "lon": 8.825197,
            "lat": 9.899358,
            "school_name": "Name unknown",
            "country_name": "Nigeria",
            "connectivity": false
        },
        {
            "lon": 8.88681,
            "lat": 9.76427,
            "school_name": "Name unknown",
            "country_name": "Nigeria",
            "connectivity": false
        },
        {
            "lon": 10.2694,
            "lat": 9.192945,
            "school_name": "Name unknown",
            "country_name": "Nigeria",
            "connectivity": false
        },
        {
            "lon": 10.52464,
            "lat": 7.090054,
            "school_name": "Name unknown",
            "country_name": "Nigeria",
            "connectivity": false
        },
        {
            "lon": 6.826744,
            "lat": 6.14909,
            "school_name": "Name unknown",
            "country_name": "Nigeria",
            "connectivity": false
        },
        {
            "lon": 6.957199,
            "lat": 6.18397,
            "school_name": "Name unknown",
            "country_name": "Nigeria",
            "connectivity": false
        },
        {
            "lon": 6.900821,
            "lat": 5.966485,
            "school_name": "Name unknown",
            "country_name": "Nigeria",
            "connectivity": false
        },
        {
            "lon": 6.788709,
            "lat": 6.123087,
            "school_name": "Name unknown",
            "country_name": "Nigeria",
            "connectivity": false
        },
        {
            "lon": 7.194953,
            "lat": 6.082069,
            "school_name": "Name unknown",
            "country_name": "Nigeria",
            "connectivity": false
        },
        {
            "lon": 7.55337,
            "lat": 12.73432,
            "school_name": "Name unknown",
            "country_name": "Nigeria",
            "connectivity": false
        },
        {
            "lon": 6.912655,
            "lat": 6.215988,
            "school_name": "Name unknown",
            "country_name": "Nigeria",
            "connectivity": false
        },
        {
            "lon": 7.7698,
            "lat": 12.6693,
            "school_name": "Name unknown",
            "country_name": "Nigeria",
            "connectivity": false
        },
        {
            "lon": 7.63311,
            "lat": 11.3711,
            "school_name": "Name unknown",
            "country_name": "Nigeria",
            "connectivity": false
        },
        {
            "lon": 7.55837999,
            "lat": 11.63293531,
            "school_name": "Name unknown",
            "country_name": "Nigeria",
            "connectivity": false
        },
        {
            "lon": 7.29066391,
            "lat": 12.36619977,
            "school_name": "Name unknown",
            "country_name": "Nigeria",
            "connectivity": false
        },
        {
            "lon": 10.62790502,
            "lat": 11.38876824,
            "school_name": "Name unknown",
            "country_name": "Nigeria",
            "connectivity": false
        },
        {
            "lon": 9.992725,
            "lat": 10.91086167,
            "school_name": "Name unknown",
            "country_name": "Nigeria",
            "connectivity": false
        },
        {
            "lon": 9.936965,
            "lat": 10.96721167,
            "school_name": "Name unknown",
            "country_name": "Nigeria",
            "connectivity": false
        },
        {
            "lon": 5.0440848,
            "lat": 11.57805077,
            "school_name": "Name unknown",
            "country_name": "Nigeria",
            "connectivity": false
        },
        {
            "lon": 5.99108,
            "lat": 5.010342,
            "school_name": "Name unknown",
            "country_name": "Nigeria",
            "connectivity": false
        },
        {
            "lon": 6.303528,
            "lat": 5.119257,
            "school_name": "Name unknown",
            "country_name": "Nigeria",
            "connectivity": false
        },
        {
            "lon": 5.29281288,
            "lat": 13.48136289,
            "school_name": "Name unknown",
            "country_name": "Nigeria",
            "connectivity": false
        },
        {
            "lon": 4.6235293,
            "lat": 12.01707121,
            "school_name": "Name unknown",
            "country_name": "Nigeria",
            "connectivity": false
        },
        {
            "lon": 6.172981839,
            "lat": 13.44025354,
            "school_name": "Name unknown",
            "country_name": "Nigeria",
            "connectivity": false
        },
        {
            "lon": 5.19959433,
            "lat": 13.03245351,
            "school_name": "Name unknown",
            "country_name": "Nigeria",
            "connectivity": false
        },
        {
            "lon": 7.969165,
            "lat": 6.807784,
            "school_name": "Name unknown",
            "country_name": "Nigeria",
            "connectivity": false
        },
        {
            "lon": 9.19266,
            "lat": 7.734466,
            "school_name": "Name unknown",
            "country_name": "Nigeria",
            "connectivity": false
        },
        {
            "lon": 7.669492,
            "lat": 7.146333,
            "school_name": "Name unknown",
            "country_name": "Nigeria",
            "connectivity": false
        },
        {
            "lon": 8.155606,
            "lat": 7.233059,
            "school_name": "Name unknown",
            "country_name": "Nigeria",
            "connectivity": false
        },
        {
            "lon": 11.11129274,
            "lat": 12.87816771,
            "school_name": "Name unknown",
            "country_name": "Nigeria",
            "connectivity": false
        },
        {
            "lon": 8.391193333,
            "lat": 5.318743333,
            "school_name": "Name unknown",
            "country_name": "Nigeria",
            "connectivity": false
        },
        {
            "lon": -58.22420539,
            "lat": -35.16330874,
            "school_name": "ESCUELA PRIMARIA N\u00ba17 CARLOS FEDERICO BRANDSEN",
            "country_name": "Argentina",
            "connectivity": false
        },
        {
            "lon": -58.55246362,
            "lat": -34.59939277,
            "school_name": "INSTITUTO SANTA TERESITA",
            "country_name": "Argentina",
            "connectivity": false
        },
        {
            "lon": -71.96,
            "lat": -13.5322,
            "school_name": "164 SE\u00d1OR DE LOS MILAGROS",
            "country_name": "Peru",
            "connectivity": false
        },
        {
            "lon": -77.949,
            "lat": -5.1224,
            "school_name": "17107",
            "country_name": "Peru",
            "connectivity": false
        },
        {
            "lon": -78.8394,
            "lat": -6.99128,
            "school_name": "82778",
            "country_name": "Peru",
            "connectivity": false
        },
        {
            "lon": 7.021622,
            "lat": 5.49002,
            "school_name": "Name unknown",
            "country_name": "Nigeria",
            "connectivity": false
        },
        {
            "lon": 7.626314163,
            "lat": 11.07027054,
            "school_name": "Name unknown",
            "country_name": "Nigeria",
            "connectivity": false
        },
        {
            "lon": 3.706443,
            "lat": 8.878865,
            "school_name": "Name unknown",
            "country_name": "Nigeria",
            "connectivity": false
        },
        {
            "lon": 2.1275711,
            "lat": 13.5542621,
            "school_name": "Name unknown",
            "country_name": "Niger",
            "connectivity": false
        },
        {
            "lon": 66.81377,
            "lat": 37.40828,
            "school_name": "28 -  sonli umumta\u2018lim maktabi",
            "country_name": "Uzbekistan",
            "connectivity": false
        },
        {
            "lon": 66.47923,
            "lat": 38.91616,
            "school_name": "60 -  sonli umumta\u2018lim maktabi",
            "country_name": "Uzbekistan",
            "connectivity": false
        },
        {
            "lon": 67.026086,
            "lat": 40.123756,
            "school_name": "68 -  sonli umumta\u2018lim maktabi",
            "country_name": "Uzbekistan",
            "connectivity": false
        },
        {
            "lon": 70.847453,
            "lat": 40.439839,
            "school_name": "39 -  sonli umumta\u2018lim maktabi",
            "country_name": "Uzbekistan",
            "connectivity": false
        },
        {
            "lon": 72.73869021,
            "lat": 40.81595069,
            "school_name": "33 -  sonli umumta\u2018lim maktabi",
            "country_name": "Uzbekistan",
            "connectivity": false
        },
        {
            "lon": -104.614258,
            "lat": 24.615338,
            "school_name": "TELESECUNDARIA NUM. 335",
            "country_name": "Mexico",
            "connectivity": false
        },
        {
            "lon": -101.184356,
            "lat": 20.311841,
            "school_name": "TELESECUNDARIA NUM. 297",
            "country_name": "Mexico",
            "connectivity": false
        },
        {
            "lon": -101.444515,
            "lat": 20.94435,
            "school_name": "TELESECUNDARIA NUM. 1088",
            "country_name": "Mexico",
            "connectivity": false
        },
        {
            "lon": -98.5028,
            "lat": 16.6943,
            "school_name": "TELEBACHILERATO COMUNITARIO NUM 224",
            "country_name": "Mexico",
            "connectivity": false
        },