{
    "name": "Patchwork Kingdom #72 | Dirhimar",
    "description": "The twin kingdoms of Dirhimar, separated by a digital divide. A bustling kingdom of 65 schools on top that are all connected to the internet, and 52 schools, not connected, hidden in the upside down kingdom | Created for Giga (GigaConnect.org) \u2014 connecting every school in the world \u2014 in celebration of UNICEF's 75th birthday, by Nadieh Bremer",
    "external_url": "https://dummyURL.com/patchwork_kingdoms_72",
    "image": "https://dummy-storage-url.com/patchwork_kingdoms_72.png",
    "attributes": [
        {
            "trait_type": "Color palette",
            "value": "kaleidoscope"
        },
        {
            "display_type": "number",
            "trait_type": "Schools",
            "value": 122,
            "max_value": 460
        },
        {
            "display_type": "number",
            "trait_type": "Ratio - Connected",
            "value": 0.53,
            "max_value": 1
        },
        {
            "display_type": "number",
            "trait_type": "Ratio - Unconnected",
            "value": 0.43,
            "max_value": 1
        },
        {
            "display_type": "number",
            "trait_type": "Ratio - Data unavailable",
            "value": 0.04,
            "max_value": 1
        },
        {
            "trait_type": "Countries",
            "value": "BR-CO-HN-KG-KZ-NA-PH-SL-ZW"
        },
        {
            "display_type": "number",
            "trait_type": "Symbols",
            "value": 34,
            "max_value": 51
        }
    ],
    "cluster_id": 72,
    "num_schools": 122,
    "num_schools_connected": 65,
    "num_schools_unconnected": 52,
    "num_schools_unknown": 5,
    "schools": [
        {
            "lon": -52.1581,
            "lat": -14.0582,
            "school_name": "EM BOM PRINCIPIO",
            "country_name": "Brazil",
            "connectivity": true
        },
        {
            "lon": 120.6637568,
            "lat": 15.0819525,
            "school_name": "Bulaon ES",
            "country_name": "Philippines",
            "connectivity": true
        },
        {
            "lon": -87.27563,
            "lat": 15.58724,
            "school_name": "FEDERICO LOPEZ",
            "country_name": "Honduras",
            "connectivity": true
        },
        {
            "lon": -86.41035,
            "lat": 15.35555,
            "school_name": "SIMON BOLIVAR",
            "country_name": "Honduras",
            "connectivity": true
        },
        {
            "lon": -86.46321,
            "lat": 15.28985,
            "school_name": "HAYDEE LOBO MASIS",
            "country_name": "Honduras",
            "connectivity": true
        },
        {
            "lon": -87.5934,
            "lat": 13.53557,
            "school_name": "POLICARPO PAZ GARCIA",
            "country_name": "Honduras",
            "connectivity": true
        },
        {
            "lon": -46.5794,
            "lat": -22.424,
            "school_name": "ESCOLA MUNICIPAL PADRE REINALDO",
            "country_name": "Brazil",
            "connectivity": true
        },
        {
            "lon": -55.2082,
            "lat": -23.0622,
            "school_name": "EMP INDIGENA MBO EROY GUARANI KAIOWA",
            "country_name": "Brazil",
            "connectivity": true
        },
        {
            "lon": -87.40964,
            "lat": 14.74943,
            "school_name": "LUIS ALONZO SUAZO",
            "country_name": "Honduras",
            "connectivity": true
        },
        {
            "lon": -87.50456,
            "lat": 14.28404,
            "school_name": "CRISTOBAL COLON",
            "country_name": "Honduras",
            "connectivity": true
        },
        {
            "lon": -50.298,
            "lat": -26.6083,
            "school_name": "PRE-ESCOLAR CHAPEUZINHO VERMELHO",
            "country_name": "Brazil",
            "connectivity": true
        },
        {
            "lon": -87.53024,
            "lat": 13.80572,
            "school_name": "JOSE NEPTALI VALLADARES",
            "country_name": "Honduras",
            "connectivity": true
        },
        {
            "lon": 32.39166,
            "lat": -20.5462,
            "school_name": "RIMBI",
            "country_name": "Zimbabwe",
            "connectivity": true
        },
        {
            "lon": 32.15956,
            "lat": -18.02926,
            "school_name": "CHENDAMBUYA",
            "country_name": "Zimbabwe",
            "connectivity": true
        },
        {
            "lon": -46.75,
            "lat": -23.3237,
            "school_name": "EMEB CEVERO DE OLIVEIRA MORAES",
            "country_name": "Brazil",
            "connectivity": true
        },
        {
            "lon": 28.82823,
            "lat": -19.84048,
            "school_name": "GRAVESAND",
            "country_name": "Zimbabwe",
            "connectivity": true
        },
        {
            "lon": 29.07347,
            "lat": -19.07792,
            "school_name": "NTOBE",
            "country_name": "Zimbabwe",
            "connectivity": true
        },
        {
            "lon": -71.888889,
            "lat": 5.119167,
            "school_name": "LA COLONIA",
            "country_name": "Colombia",
            "connectivity": true
        },
        {
            "lon": 120.546394,
            "lat": 15.599888,
            "school_name": "Sembrano ES",
            "country_name": "Philippines",
            "connectivity": true
        },
        {
            "lon": 121.379909,
            "lat": 14.206972,
            "school_name": "San Miguel ES",
            "country_name": "Philippines",
            "connectivity": true
        },
        {
            "lon": 121.0621291,
            "lat": 14.36659471,
            "school_name": "San Roque ES",
            "country_name": "Philippines",
            "connectivity": true
        },
        {
            "lon": 122.985886,
            "lat": 13.711364,
            "school_name": "Sigamot ES",
            "country_name": "Philippines",
            "connectivity": true
        },
        {
            "lon": 124.7251417,
            "lat": 11.725475,
            "school_name": "Cabiton-An ES",
            "country_name": "Philippines",
            "connectivity": true
        },
        {
            "lon": 124.401569,
            "lat": 12.198093,
            "school_name": "Pe\u00f1a I Elementary School",
            "country_name": "Philippines",
            "connectivity": true
        },
        {
            "lon": 122.7413922,
            "lat": 7.910649665,
            "school_name": "Upper Tipan ES",
            "country_name": "Philippines",
            "connectivity": true
        },
        {
            "lon": 126.206589,
            "lat": 7.034251,
            "school_name": "Taguibo Elementary School",
            "country_name": "Philippines",
            "connectivity": true
        },
        {
            "lon": 120.7714382,
            "lat": 16.35283855,
            "school_name": "Lusod Com. Sch.",
            "country_name": "Philippines",
            "connectivity": true
        },
        {
            "lon": 120.2720889,
            "lat": 14.85479261,
            "school_name": "Barretto II ES",
            "country_name": "Philippines",
            "connectivity": true
        },
        {
            "lon": -88.20892,
            "lat": 14.4839,
            "school_name": "SAN MIGUEL",
            "country_name": "Honduras",
            "connectivity": true
        },
        {
            "lon": -72.52916374,
            "lat": 11.38062806,
            "school_name": "CENTRO ETNOEDUCATIVO RURAL UTPURAI - SEDE PRINCIPAL",
            "country_name": "Colombia",
            "connectivity": true
        },
        {
            "lon": -72.96449807,
            "lat": 5.731451084,
            "school_name": "IE ROBERTO FRANCO IZASA - SEDE PRINCIPAL",
            "country_name": "Colombia",
            "connectivity": true
        },
        {
            "lon": -73.10722201,
            "lat": 7.126234278,
            "school_name": "IE BICENTENARIO DE LA INDEPENDENCIA DE LA REPUBLICA DE COLOMBIA - SEDE PRINCIPAL",
            "country_name": "Colombia",
            "connectivity": true
        },
        {
            "lon": -72.819167,
            "lat": 11.295833,
            "school_name": "ANCASTURA",
            "country_name": "Colombia",
            "connectivity": true
        },
        {
            "lon": -73.29846447,
            "lat": 4.54494591,
            "school_name": "ESCUELA RURAL ALTO QUEMADO",
            "country_name": "Colombia",
            "connectivity": true
        },
        {
            "lon": -74.33727346,
            "lat": 8.507647791,
            "school_name": "I.E. DE TIQUISIO NUEVO - SEDE PRINCIPAL",
            "country_name": "Colombia",
            "connectivity": true
        },
        {
            "lon": -76.1573159,
            "lat": 4.410819414,
            "school_name": "JHON F. KENNEDY",
            "country_name": "Colombia",
            "connectivity": true
        },
        {
            "lon": -76.07361111,
            "lat": 8.365,
            "school_name": "INSTITUCION EDUCATIVA GUASIMAL - SEDE PRINCIPAL",
            "country_name": "Colombia",
            "connectivity": true
        },
        {
            "lon": -76.77775408,
            "lat": 2.553406711,
            "school_name": "RIO HONDO",
            "country_name": "Colombia",
            "connectivity": true
        },
        {
            "lon": -35.22959,
            "lat": -5.7516193,
            "school_name": "CMEI PROF LUIZ GONZAGA DINIZ FILHO",
            "country_name": "Brazil",
            "connectivity": true
        },
        {
            "lon": -48.3398,
            "lat": -10.1692,
            "school_name": "COLEGIO ESTADUAL CRIANCA ESPERANCA",
            "country_name": "Brazil",
            "connectivity": true
        },
        {
            "lon": -64.4491,
            "lat": -3.2349,
            "school_name": "ESC MUN FILADELFIA",
            "country_name": "Brazil",
            "connectivity": false
        },
        {
            "lon": -59.137,
            "lat": -4.0283,
            "school_name": "ESCOLA MUNICIPAL INDIGENA SAO LUIZ",
            "country_name": "Brazil",
            "connectivity": false
        },
        {
            "lon": -59.6861,
            "lat": -4.7269,
            "school_name": "ESCOLA MUNICIPAL NOSSA SENHORA DE NAZARE",
            "country_name": "Brazil",
            "connectivity": false
        },
        {
            "lon": -54.4799,
            "lat": -2.9346,
            "school_name": "E M E F SAO JOAO",
            "country_name": "Brazil",
            "connectivity": false
        },
        {
            "lon": -47.5563,
            "lat": -1.5484,
            "school_name": "E M E F SAO SEBASTIAO",
            "country_name": "Brazil",
            "connectivity": false
        },
        {
            "lon": -48.141,
            "lat": -0.8546,
            "school_name": "CENTRO E E I F CINDERELA",
            "country_name": "Brazil",
            "connectivity": false
        },
        {
            "lon": -50.0721,
            "lat": -0.8266,
            "school_name": "E M E F ANTONIO CARDOSO SOBRINHO",
            "country_name": "Brazil",
            "connectivity": false
        },
        {
            "lon": -47.1308,
            "lat": -5.144,
            "school_name": "U I FREI TOME",
            "country_name": "Brazil",
            "connectivity": false
        },
        {
            "lon": -44.7937,
            "lat": -4.2255,
            "school_name": "UEF JOSE ROMEU NETO",
            "country_name": "Brazil",
            "connectivity": false
        },
        {
            "lon": -43.6834,
            "lat": -3.9544,
            "school_name": "UE SALES MONTELES",
            "country_name": "Brazil",
            "connectivity": false
        },
        {
            "lon": -45.5761,
            "lat": -4.8647,
            "school_name": "EM SEBASTIAO TEREZA",
            "country_name": "Brazil",
            "connectivity": false
        },
        {
            "lon": -45.3012,
            "lat": -2.2304,
            "school_name": "CEF GASTAO DIAS VIEIRA",
            "country_name": "Brazil",
            "connectivity": true
        },
        {
            "lon": -41.2833,
            "lat": -4.0114,
            "school_name": "ESC MUL PERU",
            "country_name": "Brazil",
            "connectivity": false
        },
        {
            "lon": -39.8289,
            "lat": -2.9388,
            "school_name": "MARIA CLARICE DE ANDRADE EMEF",
            "country_name": "Brazil",
            "connectivity": true
        },
        {
            "lon": -40.9652,
            "lat": -4.0613,
            "school_name": "GUILHERME FERREIRA LIMA E E F",
            "country_name": "Brazil",
            "connectivity": true
        },
        {
            "lon": -49.5998,
            "lat": -6.0922,
            "school_name": "E M E F JOSE RODRIGUES",
            "country_name": "Brazil",
            "connectivity": true
        },
        {
            "lon": -38.1203,
            "lat": -6.0802,
            "school_name": "UNIDADE I MANOEL PRAXEDES",
            "country_name": "Brazil",
            "connectivity": false
        },
        {
            "lon": -37.7948,
            "lat": -6.7651,
            "school_name": "EEEFM ARRUDA CAMARA",
            "country_name": "Brazil",
            "connectivity": true
        },
        {
            "lon": -37.8122,
            "lat": -6.9427,
            "school_name": "EMEF ANTONIO RODRIGUES DE SOUSA",
            "country_name": "Brazil",
            "connectivity": false
        },
        {
            "lon": -38.141,
            "lat": -6.9413,
            "school_name": "CRECHE MUL OTILIA COURA DE BRITO",
            "country_name": "Brazil",
            "connectivity": true
        },
        {
            "lon": -48.7493,
            "lat": -2.4853,
            "school_name": "EEEM ERIBERTO JASPER",
            "country_name": "Brazil",
            "connectivity": true
        },
        {
            "lon": -37.7611,
            "lat": -9.6071,
            "school_name": "ESCOLA MUNICIPAL DE ENSINO FUNDAMENTAL NOSSA SENHORA DA SAUDE",
            "country_name": "Brazil",
            "connectivity": true
        },
        {
            "lon": -40.7687,
            "lat": -13.1588,
            "school_name": "ESCOLA FIRMO JOSE DA LUZ",
            "country_name": "Brazil",
            "connectivity": true
        },
        {
            "lon": -40.0251,
            "lat": -17.4038,
            "school_name": "GINASIO ANTONIO CARLOS MAGALHAES",
            "country_name": "Brazil",
            "connectivity": true
        },
        {
            "lon": -41.4079,
            "lat": -16.7598,
            "school_name": "EM JOAO JOSE DA SILVA",
            "country_name": "Brazil",
            "connectivity": true
        },
        {
            "lon": -42.3762,
            "lat": -17.1838,
            "school_name": "EE ANTONIO MARQUES DE ABREU",
            "country_name": "Brazil",
            "connectivity": true
        },
        {
            "lon": -39.9747,
            "lat": -18.9337,
            "school_name": "EMEF ORELIO CALIMAN",
            "country_name": "Brazil",
            "connectivity": true
        },
        {
            "lon": -39.8687,
            "lat": -18.7128,
            "school_name": "EMEF ALMIR QUEIROZ",
            "country_name": "Brazil",
            "connectivity": true
        },
        {
            "lon": -43.4056,
            "lat": -22.7186,
            "school_name": "CE BRANDAO MONTEIRO",
            "country_name": "Brazil",
            "connectivity": true
        },
        {
            "lon": -43.5653,
            "lat": -22.8997,
            "school_name": "0918082 ESCOLA MUNICIPAL MARIA MONTESSORI",
            "country_name": "Brazil",
            "connectivity": true
        },
        {
            "lon": -45.794,
            "lat": -23.217,
            "school_name": "POUSADA DO VALE IMI",
            "country_name": "Brazil",
            "connectivity": true
        },
        {
            "lon": -46.7266,
            "lat": -23.5584,
            "school_name": "EAD ESCOLA DE ARTE DRAMATICA DA USP",
            "country_name": "Brazil",
            "connectivity": true
        },
        {
            "lon": -47.3112,
            "lat": -22.8039,
            "school_name": "CMEI GRAZIOSO MARCHIORO",
            "country_name": "Brazil",
            "connectivity": true
        },
        {
            "lon": -47.8367,
            "lat": -24.5189,
            "school_name": "CECILIA SANTANA MARQUES OLIVEIRA PROFA CRECHE MUNICIPAL",
            "country_name": "Brazil",
            "connectivity": false
        },
        {
            "lon": -46.6761,
            "lat": -23.1922,
            "school_name": "ANTONIO PINTOR GALDEANO CRECHE MUNICIPAL",
            "country_name": "Brazil",
            "connectivity": true
        },
        {
            "lon": -52.8212,
            "lat": -25.9509,
            "school_name": "PEDRO V PARIGOT SOUZA E M PROF EI EF",
            "country_name": "Brazil",
            "connectivity": true
        },
        {
            "lon": -48.5346,
            "lat": -27.5736,
            "school_name": "CENTRO DE CONVIVENCIA E FORTALECIMENTO DE VINCULOS AGRONOMICA",
            "country_name": "Brazil",
            "connectivity": true
        },
        {
            "lon": -52.8143,
            "lat": -29.6893,
            "school_name": "ESC MUN ENS FUN ADELINA MOREIRA KNEWITZ",
            "country_name": "Brazil",
            "connectivity": true
        },
        {
            "lon": -49.098,
            "lat": -16.7134,
            "school_name": "ESCOLA MUNICIPAL WALTER FERREIRA DE CARVALHO",
            "country_name": "Brazil",
            "connectivity": true
        },
        {
            "lon": -49.1079,
            "lat": -16.7045,
            "school_name": "ESCOLA MUNICIPAL ANTONIO EVARISTO DE MORAES",
            "country_name": "Brazil",
            "connectivity": true
        },
        {
            "lon": -43.4348,
            "lat": -22.7429,
            "school_name": "E M ALICE COUTO",
            "country_name": "Brazil",
            "connectivity": true
        },
        {
            "lon": -44.2797,
            "lat": -2.5413,
            "school_name": "IEMA - INSTITUTO ESTADUAL DE EDUCACAO CIENCIA E TECNOLOGIA DO MA - UNIDADE PLENA GONCALVES DIAS",
            "country_name": "Brazil",
            "connectivity": true
        },
        {
            "lon": -38.0742,
            "lat": -5.0952,
            "school_name": "JOSE ALVES DE MOURA E E F",
            "country_name": "Brazil",
            "connectivity": true
        },
        {
            "lon": -60.0196,
            "lat": -3.0074,
            "school_name": "EM ARQUITETA ANGELICA MARIA VIEIRA DA CRUZ",
            "country_name": "Brazil",
            "connectivity": true
        },
        {
            "lon": -53.6334,
            "lat": -2.1418,
            "school_name": "E M E F EZILDA ARAGAO BRASIL",
            "country_name": "Brazil",
            "connectivity": true
        }
    ],
    "num_countries": 9,
    "countries": [
        "Brazil",
        "Colombia",
        "Honduras",
        "Kazakhstan",
        "Kyrgyzstan",
        "Namibia",
        "Philippines",
        "Sierra Leone",
        "Zimbabwe"
    ],
    "schools_no_data": [
        {
            "lon": -10.498164,
            "lat": 6.90353,
            "school_name": "Gotomah Community School",
            "country_name": "Liberia",
            "connectivity": false
        },
        {
            "lon": -8.017229,
            "lat": 5.255511,
            "school_name": "Flewroken",
            "country_name": "Liberia",
            "connectivity": false
        },
        {
            "lon": 7.643297,
            "lat": 6.358978,
            "school_name": "Name unknown",
            "country_name": "Nigeria",
            "connectivity": false
        },
        {
            "lon": 32.53841082,
            "lat": 19.15576408,
            "school_name": "Name unknown",
            "country_name": "Sudan",
            "connectivity": false
        },
        {
            "lon": 33.52758915,
            "lat": 16.78432823,
            "school_name": "Name unknown",
            "country_name": "Sudan",
            "connectivity": false
        },
        {
            "lon": 33.61550983,
            "lat": 16.7532901,
            "school_name": "Name unknown",
            "country_name": "Sudan",
            "connectivity": false
        },
        {
            "lon": -0.0256662,
            "lat": 5.6798438,
            "school_name": "Name unknown",
            "country_name": "Ghana",
            "connectivity": false
        },
        {
            "lon": -1.8511664,
            "lat": 9.2527383,
            "school_name": "Name unknown",
            "country_name": "Ghana",
            "connectivity": false
        },
        {
            "lon": -0.1579541,
            "lat": 5.5728055,
            "school_name": "Name unknown",
            "country_name": "Ghana",
            "connectivity": false
        },
        {
            "lon": -1.4059737,
            "lat": 7.0722366,
            "school_name": "Name unknown",
            "country_name": "Ghana",
            "connectivity": false
        },
        {
            "lon": -1.420463,
            "lat": 6.2848287,
            "school_name": "Name unknown",
            "country_name": "Ghana",
            "connectivity": false
        },
        {
            "lon": -2.4751344,
            "lat": 9.0297845,
            "school_name": "Name unknown",
            "country_name": "Ghana",
            "connectivity": false
        },
        {
            "lon": 38.57742,
            "lat": -10.02708,
            "school_name": "NGANGAMBO",
            "country_name": "United Republic of Tanzania",
            "connectivity": false
        },
        {
            "lon": 37.22727,
            "lat": -3.26117,
            "school_name": "KISOLOLI",
            "country_name": "United Republic of Tanzania",
            "connectivity": false
        },
        {
            "lon": 35.37996,
            "lat": -4.0828,
            "school_name": "YAMAY",
            "country_name": "United Republic of Tanzania",
            "connectivity": false
        },
        {
            "lon": 32.91026,
            "lat": -3.67124,
            "school_name": "MWASELE",
            "country_name": "United Republic of Tanzania",
            "connectivity": false
        },
        {
            "lon": 34.82083,
            "lat": -8.97256,
            "school_name": "IKELU",
            "country_name": "United Republic of Tanzania",
            "connectivity": false
        },
        {
            "lon": 37.24621,
            "lat": -11.06331,
            "school_name": "TULIVU",
            "country_name": "United Republic of Tanzania",
            "connectivity": false
        },
        {
            "lon": 39.28283,
            "lat": -10.94534,
            "school_name": "JULIA",
            "country_name": "United Republic of Tanzania",
            "connectivity": false
        },
        {
            "lon": 37.31692,
            "lat": -3.36364,
            "school_name": "MOSHI AIRPORT",
            "country_name": "United Republic of Tanzania",
            "connectivity": false
        },
        {
            "lon": 33.14222,
            "lat": -2.5261,
            "school_name": "NYASHIGWE",
            "country_name": "United Republic of Tanzania",
            "connectivity": false
        },
        {
            "lon": 1.370127,
            "lat": 9.473459,
            "school_name": "JEP KPINDI",
            "country_name": "Togo",
            "connectivity": false
        },
        {
            "lon": 1.25557,
            "lat": 6.14528,
            "school_name": "EPP GBENYEDZI G/B",
            "country_name": "Togo",
            "connectivity": false
        },
        {
            "lon": 1.563989,
            "lat": 6.434174,
            "school_name": "EPP ATCHANVEGLO G/A",
            "country_name": "Togo",
            "connectivity": false
        },
        {
            "lon": 1.275338333,
            "lat": 6.368058333,
            "school_name": "EPP HAGBLEVOU",
            "country_name": "Togo",
            "connectivity": false
        },
        {
            "lon": 1.48846093,
            "lat": 8.99992563,
            "school_name": "CEG DANTCHO",
            "country_name": "Togo",
            "connectivity": false
        },
        {
            "lon": 1.04967,
            "lat": 8.734323,
            "school_name": "CEG LES ETOILES",
            "country_name": "Togo",
            "connectivity": false
        },
        {
            "lon": 1.333977,
            "lat": 9.54473,
            "school_name": "CEG SIRKA",
            "country_name": "Togo",
            "connectivity": false
        },
        {
            "lon": 1.537857,
            "lat": 6.342563,
            "school_name": "CEG EKPUI",
            "country_name": "Togo",
            "connectivity": false
        },
        {
            "lon": 19.7177124,
            "lat": 44.20485056,
            "school_name": "\u0417\u0434\u0440\u0430\u0432\u043a\u043e \u0408\u043e\u0432\u043d\u043e\u0432\u0438\u045b",
            "country_name": "Serbia",
            "connectivity": false
        },
        {
            "lon": 21.34279311,
            "lat": 44.1513047,
            "school_name": "\u0421\u0442\u0435\u0432\u0430\u043d \u0421\u0438\u043d\u0452\u0435\u043b\u0438\u045b",
            "country_name": "Serbia",
            "connectivity": false
        },
        {
            "lon": 35.82035,
            "lat": -5.11338,
            "school_name": "KELEMA BALAI",
            "country_name": "United Republic of Tanzania",
            "connectivity": false
        },
        {
            "lon": 0.439365,
            "lat": 10.63968,
            "school_name": "CEGIL BIAGA",
            "country_name": "Togo",
            "connectivity": false
        },
        {
            "lon": 1.16731,
            "lat": 6.25699,
            "school_name": "LPL SAINT RAPHAEL",
            "country_name": "Togo",
            "connectivity": false
        },
        {
            "lon": 35.07559199,
            "lat": -15.80114941,
            "school_name": "St. Kizito CDSS",
            "country_name": "Malawi",
            "connectivity": false
        },
        {
            "lon": 35.43257833,
            "lat": -16.10577819,
            "school_name": "Naminkhate",
            "country_name": "Malawi",
            "connectivity": false
        },
        {
            "lon": 34.28806085,
            "lat": -11.72162449,
            "school_name": "Sanga",
            "country_name": "Malawi",
            "connectivity": false
        },
        {
            "lon": 11.29145,
            "lat": 9.82141,
            "school_name": "Name unknown",
            "country_name": "Nigeria",
            "connectivity": false
        },
        {
            "lon": 23.90496658,
            "lat": -6.527290531,
            "school_name": "INST  KABATA",
            "country_name": "Democratic Republic of the Congo",
            "connectivity": false
        },
        {
            "lon": 24.72715584,
            "lat": -5.974145307,
            "school_name": "INST SAINT CHARLES",
            "country_name": "Democratic Republic of the Congo",
            "connectivity": false
        },
        {
            "lon": 27.44220613,
            "lat": -11.68052194,
            "school_name": "CS HERMON",
            "country_name": "Democratic Republic of the Congo",
            "connectivity": false
        },
        {
            "lon": 29.0573473,
            "lat": -1.253502833,
            "school_name": "INST PILIPILI",
            "country_name": "Democratic Republic of the Congo",
            "connectivity": false
        },
        {
            "lon": 26.22282375,
            "lat": -0.431874979,
            "school_name": "INST  MENGWE",
            "country_name": "Democratic Republic of the Congo",
            "connectivity": false
        },
        {
            "lon": 29.09416305,
            "lat": -4.093881695,
            "school_name": "INST FAIDA",
            "country_name": "Democratic Republic of the Congo",
            "connectivity": false
        },
        {
            "lon": 29.10957707,
            "lat": -3.827493938,
            "school_name": "EP KENYA",
            "country_name": "Democratic Republic of the Congo",
            "connectivity": false
        },
        {
            "lon": 12.78810064,
            "lat": -4.963712836,
            "school_name": "INST  NGANDA KASAMVU",
            "country_name": "Democratic Republic of the Congo",
            "connectivity": false
        },
        {
            "lon": 31.5897508,
            "lat": 4.8447856,
            "school_name": "University of Juba",
            "country_name": "South Sudan",
            "connectivity": false
        },
        {
            "lon": 20.07978648,
            "lat": 45.04755697,
            "school_name": "\u0422\u0435\u0445\u043d\u0438\u0447\u043a\u0430 \u0448\u043a\u043e\u043b\u0430 \u041c\u0438\u0445\u0430\u0458\u043b\u043e \u041f\u0443\u043f\u0438\u043d",
            "country_name": "Serbia",
            "connectivity": false
        },
        {
            "lon": -68.673066,
            "lat": -17.028146,
            "school_name": "ACERO MARCA",
            "country_name": "Bolivia (Plurinational State of)",
            "connectivity": false
        },
        {
            "lon": -103.347819,
            "lat": 20.688195,
            "school_name": "CENTRO UNIVERSITARIO UTEG",
            "country_name": "Mexico",
            "connectivity": false
        },
        {
            "lon": 19.42229,
            "lat": -34.22741,
            "school_name": "Overberg Laerskool",
            "country_name": "South Africa",
            "connectivity": false
        },
        {
            "lon": -10.36115,
            "lat": 15.90337,
            "school_name": "\u0645\u062f\u0631\u0633\u0629\u0627\u0646\u062e\u064a\u0644",
            "country_name": "Mauritania",
            "connectivity": false
        },
        {
            "lon": -15.91523333,
            "lat": 18.14845,
            "school_name": "EL IMAM ELBOUKHARY",
            "country_name": "Mauritania",
            "connectivity": false
        },
        {
            "lon": 31.44296,
            "lat": -0.1283,
            "school_name": "KYAMAYIBA PRIMARY SCHOOL",
            "country_name": "Uganda",
            "connectivity": false
        },
        {
            "lon": 31.63232,
            "lat": -0.54628,
            "school_name": "KALISIZO COMMUNITY SEC AND VOCATIONAL COLLEGE",
            "country_name": "Uganda",
            "connectivity": false
        },
        {
            "lon": 31.49904,
            "lat": -0.7929,
            "school_name": "SANJE COMMUNITY POLYTEC",
            "country_name": "Uganda",
            "connectivity": false
        },
        {
            "lon": 33.20337,
            "lat": 0.69694,
            "school_name": "Luzinga COU",
            "country_name": "Uganda",
            "connectivity": false
        },
        {
            "lon": 30.96939,
            "lat": 0.30405,
            "school_name": "Kabirara",
            "country_name": "Uganda",
            "connectivity": false
        },
        {
            "lon": 33.83882,
            "lat": 0.8934,
            "school_name": "Bwirya P.S.",
            "country_name": "Uganda",
            "connectivity": false
        },
        {
            "lon": 5.794889,
            "lat": 5.499193,
            "school_name": "Name unknown",
            "country_name": "Nigeria",
            "connectivity": false
        },
        {
            "lon": -57.62613043,
            "lat": -37.97008269,
            "school_name": "ESCUELA SECUNDARIA N\u00ba44",
            "country_name": "Argentina",
            "connectivity": false
        },
        {
            "lon": 32.18758,
            "lat": 2.05276,
            "school_name": "Nyamahasa P.S.",
            "country_name": "Uganda",
            "connectivity": false
        },
        {
            "lon": 34.34044,
            "lat": 1.23315,
            "school_name": "Buluganya P.S.",
            "country_name": "Uganda",
            "connectivity": false
        },
        {
            "lon": -67.1353,
            "lat": -28.25925,
            "school_name": "ESCUELA N\u00b0 293",
            "country_name": "Argentina",
            "connectivity": false
        },
        {
            "lon": 31.12655,
            "lat": -25.14457,
            "school_name": "Khombindlela Primary School",
            "country_name": "South Africa",
            "connectivity": false
        },
        {
            "lon": 24.64955,
            "lat": -27.38383,
            "school_name": "Ntikang Primary School",
            "country_name": "South Africa",
            "connectivity": false
        },
        {
            "lon": 18.66971,
            "lat": -34.06059,
            "school_name": "Emvelwano Day Care Centre",
            "country_name": "South Africa",
            "connectivity": false
        },
        {
            "lon": 22.99709,
            "lat": -29.53727,
            "school_name": "Bloukrans Prim?\u0192?\u00d7re Skool",
            "country_name": "South Africa",
            "connectivity": false
        },
        {
            "lon": 29.8283,
            "lat": -24.82682,
            "school_name": "Mapalagadi Primary Project",
            "country_name": "South Africa",
            "connectivity": false
        },
        {
            "lon": 29.97246,
            "lat": -23.27848,
            "school_name": "Denga Secondary School",
            "country_name": "South Africa",
            "connectivity": false
        },
        {
            "lon": 30.20493,
            "lat": -24.72132,
            "school_name": "Tingeling Kleuterskool",
            "country_name": "South Africa",
            "connectivity": false
        },
        {
            "lon": 22.57505,
            "lat": -32.36992,
            "school_name": "Bastiaanse Senior Secondary School",
            "country_name": "South Africa",
            "connectivity": false
        },
        {
            "lon": 30.05662,
            "lat": -23.14393,
            "school_name": "Tshimonela Primary School",
            "country_name": "South Africa",
            "connectivity": false
        },
        {
            "lon": 30.3056,
            "lat": -23.94855,
            "school_name": "Lefara Senior Secondary School",
            "country_name": "South Africa",
            "connectivity": false
        },
        {
            "lon": 29.84118,
            "lat": -27.74964,
            "school_name": "Glencalder Primary School",
            "country_name": "South Africa",
            "connectivity": false
        },
        {
            "lon": 30.36456,
            "lat": -27.81317,
            "school_name": "Ndwakazana Commercial High School",
            "country_name": "South Africa",
            "connectivity": false
        },
        {
            "lon": 30.3923,
            "lat": -28.13652,
            "school_name": "Bapaume Primary School",
            "country_name": "South Africa",
            "connectivity": false
        },
        {
            "lon": 30.31382,
            "lat": -29.71812,
            "school_name": "Ndlelayabasha Primary School",
            "country_name": "South Africa",
            "connectivity": false
        },
        {
            "lon": 30.70542,
            "lat": -27.98643,
            "school_name": "Phembukuthula Primary",
            "country_name": "South Africa",
            "connectivity": false
        },
        {
            "lon": 30.73044,
            "lat": -29.74984,
            "school_name": "Chef School",
            "country_name": "South Africa",
            "connectivity": false
        },
        {
            "lon": 31.05667,
            "lat": -23.55329,
            "school_name": "School",
            "country_name": "South Africa",
            "connectivity": false
        },
        {
            "lon": 28.81537,
            "lat": -23.96569,
            "school_name": "Mapuso Primary",
            "country_name": "South Africa",
            "connectivity": false
        },
        {
            "lon": 30.6115,
            "lat": -22.81506,
            "school_name": "Bababa Secondary School",
            "country_name": "South Africa",
            "connectivity": false
        },
        {
            "lon": 30.87672,
            "lat": -29.9155,
            "school_name": "Arena Park Secondary School",
            "country_name": "South Africa",
            "connectivity": false
        },
        {
            "lon": 30.38388,
            "lat": -29.58906,
            "school_name": "Alston Primary School",
            "country_name": "South Africa",
            "connectivity": false
        },
        {
            "lon": 31.64943,
            "lat": -27.93141,
            "school_name": "Prince Mnyayiza High School",
            "country_name": "South Africa",
            "connectivity": false
        },
        {
            "lon": 30.88802,
            "lat": -30.04229,
            "school_name": "Amanzimtoti Primary School",
            "country_name": "South Africa",
            "connectivity": false
        },
        {
            "lon": 28.09908,
            "lat": -32.46421,
            "school_name": "Mrwaqa Junior Secondary School",
            "country_name": "South Africa",
            "connectivity": false
        },
        {
            "lon": 28.15682,
            "lat": -32.2954,
            "school_name": "Zazulwana Secondary School",
            "country_name": "South Africa",
            "connectivity": false
        },
        {
            "lon": 28.29952,
            "lat": -31.41825,
            "school_name": "Makukanye Senior Primary School",
            "country_name": "South Africa",
            "connectivity": false
        },
        {
            "lon": 26.61858,
            "lat": -33.12925,
            "school_name": "Fort Brown Primary School",
            "country_name": "South Africa",
            "connectivity": false
        },
        {
            "lon": 25.97827,
            "lat": -30.50632,
            "school_name": "Wongalethu Secondary School",
            "country_name": "South Africa",
            "connectivity": false
        },
        {
            "lon": 27.00875,
            "lat": -32.99286,
            "school_name": "Washington Primary School",
            "country_name": "South Africa",
            "connectivity": false
        },
        {
            "lon": 25.59176,
            "lat": -33.79101,
            "school_name": "Melisiwe Primary School",
            "country_name": "South Africa",
            "connectivity": false
        },
        {
            "lon": 25.94736,
            "lat": -29.72689,
            "school_name": "Botle Ba Thuto Primary School",
            "country_name": "South Africa",
            "connectivity": false
        },
        {
            "lon": 29.67365,
            "lat": -31.42043,
            "school_name": "Magwa Primary School",
            "country_name": "South Africa",
            "connectivity": false
        },
        {
            "lon": 29.49676,
            "lat": -31.41541,
            "school_name": "Meyiwa Junior Secondary School",
            "country_name": "South Africa",
            "connectivity": false
        },
        {
            "lon": -58.35318417,
            "lat": -34.73549255,
            "school_name": "INSTITUTO 9 DE JULIO",
            "country_name": "Argentina",
            "connectivity": false
        },
        {
            "lon": -62.2586451,
            "lat": -38.72890327,
            "school_name": "COLEGIO JOSE DE SAN MARTIN",
            "country_name": "Argentina",
            "connectivity": false
        },
        {
            "lon": -63.60098286,
            "lat": -31.11738217,
            "school_name": "J.DE INF. JOSE GABRIEL BROCHERO - ANEXO EL ALCALDE",
            "country_name": "Argentina",
            "connectivity": false
        },
        {
            "lon": -58.3910039,
            "lat": -34.75672383,
            "school_name": "ESCUELA PRIMARIA N\u00ba20 DOMINGO FAUSTINO SARMIENTO",
            "country_name": "Argentina",
            "connectivity": false
        },
        {
            "lon": -58.88292007,
            "lat": -34.62527206,
            "school_name": "ESCUELA PRIMARIA N\u00ba7 GENERAL MANUEL BELGRANO",
            "country_name": "Argentina",
            "connectivity": false
        },
        {
            "lon": -58.40631697,
            "lat": -34.69005786,
            "school_name": "INSTITUTO SANTA FAZ",
            "country_name": "Argentina",
            "connectivity": false
        },
        {
            "lon": -58.57532497,
            "lat": -34.67898761,
            "school_name": "ESCUELA PRIMARIA N\u00ba53 VICEALMIRANTE JULIAN IRIZAR",
            "country_name": "Argentina",
            "connectivity": false
        },
        {
            "lon": -58.69006168,
            "lat": -34.69722909,
            "school_name": "JARDIN DE INFANTES TRAPITO",
            "country_name": "Argentina",
            "connectivity": false
        },
        {
            "lon": -58.73897447,
            "lat": -34.53475473,
            "school_name": "COLEGIO GREGORIA MATORRAS",
            "country_name": "Argentina",
            "connectivity": false
        },
        {
            "lon": -58.46653017,
            "lat": -34.81603299,
            "school_name": "JARDIN DE INFANTES ARCO IRIS",
            "country_name": "Argentina",
            "connectivity": false
        },
        {
            "lon": -58.69529485,
            "lat": -34.5780045,
            "school_name": "ESCUELA SECUNDARIA N\u00ba 11",
            "country_name": "Argentina",
            "connectivity": false
        },
        {
            "lon": -58.36050396,
            "lat": -34.82872341,
            "school_name": "ESC. SECUNDARIA BASICA N\u00ba68",
            "country_name": "Argentina",
            "connectivity": false
        },
        {
            "lon": -58.20305829,
            "lat": -34.81088298,
            "school_name": "ESC. SECUNDARIA BASICA N\u00ba41",
            "country_name": "Argentina",
            "connectivity": false
        },
        {
            "lon": -64.2013,
            "lat": -26.26071,
            "school_name": "ESCUELA N\u00ba489",
            "country_name": "Argentina",
            "connectivity": false
        },
        {
            "lon": -61.25635378,
            "lat": -27.0828722,
            "school_name": "E.E.P. N\u00ba 102",
            "country_name": "Argentina",
            "connectivity": false
        },
        {
            "lon": -60.68620893,
            "lat": -25.2898669,
            "school_name": "E.E.P. N\u00ba 913",
            "country_name": "Argentina",
            "connectivity": false
        },
        {
            "lon": -60.72297455,
            "lat": -27.47246733,
            "school_name": "PRIM.ADULTOS N\u00ba 3",
            "country_name": "Argentina",
            "connectivity": false
        },
        {
            "lon": -58.947573,
            "lat": -27.466546,
            "school_name": "JARDIN DE INFANTES N\u00ba 112-OLGA COSSETTINI",
            "country_name": "Argentina",
            "connectivity": false
        },
        {
            "lon": -65.32447136,
            "lat": -43.24674382,
            "school_name": "JARDIN N\u00ba 453",
            "country_name": "Argentina",
            "connectivity": false
        },
        {
            "lon": -59.06132354,
            "lat": -30.3192113,
            "school_name": "JUAN JOSE CASTELLI 25",
            "country_name": "Argentina",
            "connectivity": false
        },
        {
            "lon": -76.7033,
            "lat": -11.9431,
            "school_name": "101 ALDEA INFANTIL",
            "country_name": "Peru",
            "connectivity": false
        },
        {
            "lon": -62.10109304,
            "lat": -24.19160553,
            "school_name": "JIN N\u00b0 20 - EPEP N\u00b0 23",
            "country_name": "Argentina",
            "connectivity": false
        },
        {
            "lon": -65.55266993,
            "lat": -23.22291285,
            "school_name": "ESCUELA N 316 CONSCRIPTO TEODORO LAGUNA",
            "country_name": "Argentina",
            "connectivity": false
        },
        {
            "lon": -65.41527384,
            "lat": -24.78006416,
            "school_name": "INSTITUTO TECNOLOGICO DE CIENCIAS E INNOVACIONES PRODUCTIVAS - INTECIPRO",
            "country_name": "Argentina",
            "connectivity": false
        },
        {
            "lon": -62.04316,
            "lat": -33.63555,
            "school_name": "A.E.S. ORIENTADA NRO 1238 DOCTOR RICARDO TORRES BLANCO",
            "country_name": "Argentina",
            "connectivity": false
        },
        {
            "lon": -63.34116374,
            "lat": -28.98767479,
            "school_name": "ESCUELA N\u00ba643",
            "country_name": "Argentina",
            "connectivity": false
        },
        {
            "lon": -63.94425589,
            "lat": -27.8461418,
            "school_name": "MISION DE CULTURA RURAL Y DOMESTICA N.6",
            "country_name": "Argentina",
            "connectivity": false
        },
        {
            "lon": 6.748904,
            "lat": 6.174891,
            "school_name": "Name unknown",
            "country_name": "Nigeria",
            "connectivity": false
        },
        {
            "lon": 7.335978917,
            "lat": 5.09587316,
            "school_name": "Name unknown",
            "country_name": "Nigeria",
            "connectivity": false
        },
        {
            "lon": 6.213069,
            "lat": 5.89306,
            "school_name": "Name unknown",
            "country_name": "Nigeria",
            "connectivity": false
        },
        {
            "lon": 7.442826,
            "lat": 5.544173,
            "school_name": "Name unknown",
            "country_name": "Nigeria",
            "connectivity": false
        },
        {
            "lon": 8.03908,
            "lat": 6.1742,
            "school_name": "Name unknown",
            "country_name": "Nigeria",
            "connectivity": false
        },
        {
            "lon": 8.0883033,
            "lat": 6.3470517,
            "school_name": "Name unknown",
            "country_name": "Nigeria",
            "connectivity": false
        },
        {
            "lon": 8.314585,
            "lat": 6.149398,
            "school_name": "Name unknown",
            "country_name": "Nigeria",
            "connectivity": false
        },
        {
            "lon": 7.918441,
            "lat": 6.491208,
            "school_name": "Name unknown",
            "country_name": "Nigeria",
            "connectivity": false
        },
        {
            "lon": 8.191126667,
            "lat": 6.550138333,
            "school_name": "Name unknown",
            "country_name": "Nigeria",
            "connectivity": false
        },
        {
            "lon": 7.834688333,
            "lat": 6.167228333,
            "school_name": "Name unknown",
            "country_name": "Nigeria",
            "connectivity": false
        },
        {
            "lon": 12.25216531,
            "lat": 10.39248853,
            "school_name": "Name unknown",
            "country_name": "Nigeria",
            "connectivity": false
        },
        {
            "lon": 14.39945429,
            "lat": 11.96118211,
            "school_name": "Name unknown",
            "country_name": "Nigeria",
            "connectivity": false
        },
        {
            "lon": 6.095921,
            "lat": 7.509477,
            "school_name": "Name unknown",
            "country_name": "Nigeria",
            "connectivity": false
        },
        {
            "lon": 6.153744,
            "lat": 6.711404,
            "school_name": "Name unknown",
            "country_name": "Nigeria",
            "connectivity": false
        },
        {
            "lon": 6.08094,
            "lat": 6.04746,
            "school_name": "Name unknown",
            "country_name": "Nigeria",
            "connectivity": false
        },
        {
            "lon": 5.745844,
            "lat": 7.771128,
            "school_name": "Name unknown",
            "country_name": "Nigeria",
            "connectivity": false
        },
        {
            "lon": 7.235934,
            "lat": 6.326021,
            "school_name": "Name unknown",
            "country_name": "Nigeria",
            "connectivity": false
        },
        {
            "lon": 7.358102,
            "lat": 8.989658,
            "school_name": "Name unknown",
            "country_name": "Nigeria",
            "connectivity": false
        },
        {
            "lon": 11.6855383,
            "lat": 9.8430133,
            "school_name": "Name unknown",
            "country_name": "Nigeria",
            "connectivity": false
        },
        {
            "lon": 11.34747,
            "lat": 10.71283,
            "school_name": "Name unknown",
            "country_name": "Nigeria",
            "connectivity": false
        },
        {
            "lon": 7.269626,
            "lat": 5.729999,
            "school_name": "Name unknown",
            "country_name": "Nigeria",
            "connectivity": false
        },
        {
            "lon": 7.090644,
            "lat": 5.586274,
            "school_name": "Name unknown",
            "country_name": "Nigeria",
            "connectivity": false
        },
        {
            "lon": 7.145876667,
            "lat": 5.696935,
            "school_name": "Name unknown",
            "country_name": "Nigeria",
            "connectivity": false
        },
        {
            "lon": -71.9554,
            "lat": -13.5396,
            "school_name": "50820",
            "country_name": "Peru",
            "connectivity": false
        },
        {
            "lon": -77.3667,
            "lat": -5.9105,
            "school_name": "161",
            "country_name": "Peru",
            "connectivity": false
        },
        {
            "lon": -76.4065,
            "lat": -6.4079,
            "school_name": "0081 JULIO GARCIA VEGA",
            "country_name": "Peru",
            "connectivity": false
        },
        {
            "lon": -77.0126,
            "lat": -11.9999,
            "school_name": "0147 LUIS ALBERTO GARCIA ROJAS",
            "country_name": "Peru",
            "connectivity": false
        },
        {
            "lon": -76.5035,
            "lat": -7.56322,
            "school_name": "0473 JOSE GALVEZ EGUSQUIZA",
            "country_name": "Peru",
            "connectivity": false
        },
        {
            "lon": -79.8412,
            "lat": -6.77951,
            "school_name": "10024 NUESTRA SE\u00d1ORA.DE FATIMA",
            "country_name": "Peru",
            "connectivity": false
        },
        {
            "lon": -75.0,
            "lat": -12.7758,
            "school_name": "1033",
            "country_name": "Peru",
            "connectivity": false
        },
        {
            "lon": -70.0502,
            "lat": -13.9484,
            "school_name": "72192 JOSE MACEDO MENDOZA",
            "country_name": "Peru",
            "connectivity": false
        },
        {
            "lon": -79.3484,
            "lat": -6.01123,
            "school_name": "10624",
            "country_name": "Peru",
            "connectivity": false
        },
        {
            "lon": -76.7352,
            "lat": -8.35586,
            "school_name": "1235",
            "country_name": "Peru",
            "connectivity": false
        },
        {
            "lon": -79.8322,
            "lat": -4.79781,
            "school_name": "1258",
            "country_name": "Peru",
            "connectivity": false
        },
        {
            "lon": -79.6,
            "lat": -5.61865,
            "school_name": "14608",
            "country_name": "Peru",
            "connectivity": false
        },
        {
            "lon": -80.8534,
            "lat": -5.76212,
            "school_name": "15318",
            "country_name": "Peru",
            "connectivity": false
        },
        {
            "lon": -79.1171,
            "lat": -5.69881,
            "school_name": "17597",
            "country_name": "Peru",
            "connectivity": false
        },
        {
            "lon": -78.2261,
            "lat": -6.3061,
            "school_name": "18161",
            "country_name": "Peru",
            "connectivity": false
        },
        {
            "lon": -77.8762,
            "lat": -6.328,
            "school_name": "18358",
            "country_name": "Peru",
            "connectivity": false
        },
        {
            "lon": -77.2122,
            "lat": -11.4699,
            "school_name": "21010-11 GELACIO RAMIREZ CACERES",
            "country_name": "Peru",
            "connectivity": false
        },
        {
            "lon": -79.021,
            "lat": -8.05556,
            "school_name": "2193",
            "country_name": "Peru",
            "connectivity": false
        },
        {
            "lon": -73.6152,
            "lat": -15.394,
            "school_name": "25510",
            "country_name": "Peru",
            "connectivity": false
        },
        {
            "lon": -75.0185,
            "lat": -7.84793,
            "school_name": "257-B",
            "country_name": "Peru",
            "connectivity": false
        },
        {
            "lon": -75.2564,
            "lat": -11.9553,
            "school_name": "30241",
            "country_name": "Peru",
            "connectivity": false
        },
        {
            "lon": -75.3636,
            "lat": -11.1219,
            "school_name": "30545",
            "country_name": "Peru",
            "connectivity": false
        },
        {
            "lon": -77.5915,
            "lat": -8.555,
            "school_name": "308",
            "country_name": "Peru",
            "connectivity": false
        },
        {
            "lon": -76.2521,
            "lat": -10.6642,
            "school_name": "31 NUESTRA SE\u00d1ORA DEL CARMEN",
            "country_name": "Peru",
            "connectivity": false
        },
        {
            "lon": -74.3969,
            "lat": -12.7183,
            "school_name": "31122 JORGE CHAVEZ DARTNELL",
            "country_name": "Peru",
            "connectivity": false
        },
        {
            "lon": -74.5604,
            "lat": -12.5251,
            "school_name": "318 LAS NUBECITAS",
            "country_name": "Peru",
            "connectivity": false
        },
        {
            "lon": -78.9283,
            "lat": -6.44283,
            "school_name": "366",
            "country_name": "Peru",
            "connectivity": false
        },
        {
            "lon": -73.9876,
            "lat": -12.9816,
            "school_name": "38748",
            "country_name": "Peru",
            "connectivity": false
        },
        {
            "lon": -74.3512,
            "lat": -13.2632,
            "school_name": "432-151",
            "country_name": "Peru",
            "connectivity": false
        },
        {
            "lon": -78.8267,
            "lat": -6.63862,
            "school_name": "435",
            "country_name": "Peru",
            "connectivity": false
        },
        {
            "lon": -73.0725,
            "lat": -12.4214,
            "school_name": "501278",
            "country_name": "Peru",
            "connectivity": false
        },
        {
            "lon": -73.16,
            "lat": -13.0281,
            "school_name": "501421 SAN JOSE DE UNION",
            "country_name": "Peru",
            "connectivity": false
        },
        {
            "lon": -73.1534,
            "lat": -13.9002,
            "school_name": "54327",
            "country_name": "Peru",
            "connectivity": false
        },
        {
            "lon": -74.3278,
            "lat": -8.5554,
            "school_name": "570",
            "country_name": "Peru",
            "connectivity": false
        },
        {
            "lon": -71.3683,
            "lat": -14.0819,
            "school_name": "579",
            "country_name": "Peru",
            "connectivity": false
        },
        {
            "lon": -70.3081,
            "lat": -13.3154,
            "school_name": "600 CUESTA BLANCA",
            "country_name": "Peru",
            "connectivity": false
        },
        {
            "lon": -70.2845,
            "lat": -4.17933,
            "school_name": "6010347",
            "country_name": "Peru",
            "connectivity": false
        },
        {
            "lon": -69.6524,
            "lat": -16.24,
            "school_name": "700",
            "country_name": "Peru",
            "connectivity": false
        },
        {
            "lon": -70.0948,
            "lat": -15.2136,
            "school_name": "72028",
            "country_name": "Peru",
            "connectivity": false
        },
        {
            "lon": -69.7007,
            "lat": -14.9898,
            "school_name": "72340",
            "country_name": "Peru",
            "connectivity": false
        },
        {
            "lon": -70.4821,
            "lat": -14.6141,
            "school_name": "75",
            "country_name": "Peru",
            "connectivity": false
        },
        {
            "lon": -78.1412,
            "lat": -7.78679,
            "school_name": "80144",
            "country_name": "Peru",
            "connectivity": false
        },
        {
            "lon": -79.5844,
            "lat": -7.14398,
            "school_name": "80411 VIRGILIO PURIZAGA AZNARAN",
            "country_name": "Peru",
            "connectivity": false
        },
        {
            "lon": -78.4426,
            "lat": -6.78408,
            "school_name": "82962",
            "country_name": "Peru",
            "connectivity": false
        },
        {
            "lon": -77.6652,
            "lat": -8.5326,
            "school_name": "84185 SANTA CRUZ",
            "country_name": "Peru",
            "connectivity": false
        },
        {
            "lon": -74.9175,
            "lat": -12.6476,
            "school_name": "931",
            "country_name": "Peru",
            "connectivity": false
        },
        {
            "lon": -77.596,
            "lat": -11.0916,
            "school_name": "AMOR Y HUMILDAD",
            "country_name": "Peru",
            "connectivity": false
        },
        {
            "lon": -72.2338,
            "lat": -16.2964,
            "school_name": "ASENTAMIENTO E - 7",
            "country_name": "Peru",
            "connectivity": false
        },
        {
            "lon": -77.0114,
            "lat": -12.0586,
            "school_name": "CAMPANITAS",
            "country_name": "Peru",
            "connectivity": false
        },
        {
            "lon": -78.1822,
            "lat": -7.39261,
            "school_name": "CAUTIVAS",
            "country_name": "Peru",
            "connectivity": false
        },
        {
            "lon": -80.6472,
            "lat": -5.17299,
            "school_name": "CEBA - 018",
            "country_name": "Peru",
            "connectivity": false
        },
        {
            "lon": -81.0557,
            "lat": -4.90888,
            "school_name": "CEBA - MARISCAL RAMON CASTILLA",
            "country_name": "Peru",
            "connectivity": false
        },
        {
            "lon": -74.091,
            "lat": -11.9868,
            "school_name": "CENTRO TSOMAVENI",
            "country_name": "Peru",
            "connectivity": false
        },
        {
            "lon": -79.8368,
            "lat": -6.79469,
            "school_name": "CEPAS COLLEGE",
            "country_name": "Peru",
            "connectivity": false
        },
        {
            "lon": -77.1007,
            "lat": -12.0797,
            "school_name": "CORAZON DE JESUS",
            "country_name": "Peru",
            "connectivity": false
        },
        {
            "lon": -77.6804,
            "lat": -9.31694,
            "school_name": "CPED - 86301 VIRGEN PURISIMA",
            "country_name": "Peru",
            "connectivity": false
        },
        {
            "lon": -77.879,
            "lat": -3.34092,
            "school_name": "CUCUASA",
            "country_name": "Peru",
            "connectivity": false
        },
        {
            "lon": -74.0923,
            "lat": -12.2099,
            "school_name": "DIVINO MAESTRO",
            "country_name": "Peru",
            "connectivity": false
        },
        {
            "lon": -76.9797,
            "lat": -12.0421,
            "school_name": "ESTRELLITAS",
            "country_name": "Peru",
            "connectivity": false
        },
        {
            "lon": -72.0683,
            "lat": -13.1156,
            "school_name": "FLORIPONDIO",
            "country_name": "Peru",
            "connectivity": false
        },
        {
            "lon": -71.5083,
            "lat": -16.4035,
            "school_name": "GABRIEL CRAMER",
            "country_name": "Peru",
            "connectivity": false
        },
        {
            "lon": -76.1278,
            "lat": -5.88429,
            "school_name": "GRACIOSITOS",
            "country_name": "Peru",
            "connectivity": false
        },
        {
            "lon": -79.3737,
            "lat": -5.55806,
            "school_name": "IEGECOM LA LIMA",
            "country_name": "Peru",
            "connectivity": false
        },
        {
            "lon": -71.0045,
            "lat": -16.1502,
            "school_name": "JOSE MANUEL UBALDE ZEVALLOS",
            "country_name": "Peru",
            "connectivity": false
        },
        {
            "lon": -71.5213,
            "lat": -16.3928,
            "school_name": "JUAN GREGORIO MENDEL",
            "country_name": "Peru",
            "connectivity": false
        },
        {
            "lon": -70.0123,
            "lat": -15.2226,
            "school_name": "JUCHUY JASANA",
            "country_name": "Peru",
            "connectivity": false
        },
        {
            "lon": -79.063,
            "lat": -8.02644,
            "school_name": "KARL FREDERICH GAUSS",
            "country_name": "Peru",
            "connectivity": false
        },
        {
            "lon": -70.7563,
            "lat": -15.4261,
            "school_name": "LLANCA",
            "country_name": "Peru",
            "connectivity": false
        },
        {
            "lon": -70.1438,
            "lat": -15.4972,
            "school_name": "LOS ANGELES",
            "country_name": "Peru",
            "connectivity": false
        },
        {
            "lon": -77.5056,
            "lat": -8.83709,
            "school_name": "LOS NEVADOS",
            "country_name": "Peru",
            "connectivity": false
        },
        {
            "lon": -80.4525,
            "lat": -3.57213,
            "school_name": "LOS PATITOS",
            "country_name": "Peru",
            "connectivity": false
        },
        {
            "lon": -77.0308,
            "lat": -12.0649,
            "school_name": "LUCERITOS DEL FUTURO",
            "country_name": "Peru",
            "connectivity": false
        },
        {
            "lon": -76.315,
            "lat": -8.65341,
            "school_name": "NUEVO CAJHAN",
            "country_name": "Peru",
            "connectivity": false
        },
        {
            "lon": -72.0675,
            "lat": -13.4058,
            "school_name": "OLONES",
            "country_name": "Peru",
            "connectivity": false
        },
        {
            "lon": -72.1771,
            "lat": -13.9451,
            "school_name": "PAMPA\u00d1A II",
            "country_name": "Peru",
            "connectivity": false
        },
        {
            "lon": -71.5239,
            "lat": -16.3525,
            "school_name": "PINTO TALAVERA",
            "country_name": "Peru",
            "connectivity": false
        },
        {
            "lon": -79.3838,
            "lat": -6.6453,
            "school_name": "RITELA CHECA BLAMCO",
            "country_name": "Peru",
            "connectivity": false
        },
        {
            "lon": -77.0034,
            "lat": -11.8425,
            "school_name": "SAN AGUSTIN DE VILLA VICTORIA",
            "country_name": "Peru",
            "connectivity": false
        },
        {
            "lon": -76.1896,
            "lat": -10.4404,
            "school_name": "SAN JUAN BAUTISTA",
            "country_name": "Peru",
            "connectivity": false
        },
        {
            "lon": -77.015,
            "lat": -11.9931,
            "school_name": "SAN VICENTE",
            "country_name": "Peru",
            "connectivity": false
        },
        {
            "lon": 6.52138,
            "lat": 9.62434,
            "school_name": "Name unknown",
            "country_name": "Nigeria",
            "connectivity": false
        },
        {
            "lon": -77.2096,
            "lat": -11.4899,
            "school_name": "SE\u00d1OR DE LA MISERICORDIA",
            "country_name": "Peru",
            "connectivity": false
        },
        {
            "lon": -80.6369,
            "lat": -5.19109,
            "school_name": "STELLA MARIS",
            "country_name": "Peru",
            "connectivity": false
        },
        {
            "lon": -78.5654,
            "lat": -7.90416,
            "school_name": "SYSTEM",
            "country_name": "Peru",
            "connectivity": false
        },
        {
            "lon": 9.641789605,
            "lat": 11.91173807,
            "school_name": "Name unknown",
            "country_name": "Nigeria",
            "connectivity": false
        },
        {
            "lon": 10.1205492,
            "lat": 12.0317802,
            "school_name": "Name unknown",
            "country_name": "Nigeria",
            "connectivity": false
        },
        {
            "lon": 7.30255582,
            "lat": 10.28336508,
            "school_name": "Name unknown",
            "country_name": "Nigeria",
            "connectivity": false
        },
        {
            "lon": 7.95844051,
            "lat": 9.998292151,
            "school_name": "Name unknown",
            "country_name": "Nigeria",
            "connectivity": false
        },
        {
            "lon": 7.732017715,
            "lat": 11.11135169,
            "school_name": "Name unknown",
            "country_name": "Nigeria",
            "connectivity": false
        },
        {
            "lon": 8.55017925,
            "lat": 9.09191778,
            "school_name": "Name unknown",
            "country_name": "Nigeria",
            "connectivity": false
        },
        {
            "lon": 7.87656729,
            "lat": 10.98669953,
            "school_name": "Name unknown",
            "country_name": "Nigeria",
            "connectivity": false
        },
        {
            "lon": 8.18239836,
            "lat": 9.81282527,
            "school_name": "Name unknown",
            "country_name": "Nigeria",
            "connectivity": false
        },
        {
            "lon": 9.226942,
            "lat": 11.53669,
            "school_name": "Name unknown",
            "country_name": "Nigeria",
            "connectivity": false
        },
        {
            "lon": 8.936502,
            "lat": 11.97442,
            "school_name": "Name unknown",
            "country_name": "Nigeria",
            "connectivity": false
        },
        {
            "lon": 7.990714,
            "lat": 12.05094,
            "school_name": "Name unknown",
            "country_name": "Nigeria",
            "connectivity": false
        },
        {
            "lon": 8.667671173,
            "lat": 10.6743026,
            "school_name": "Name unknown",
            "country_name": "Nigeria",
            "connectivity": false
        },
        {
            "lon": 8.648505,
            "lat": 11.91111,
            "school_name": "Name unknown",
            "country_name": "Nigeria",
            "connectivity": false
        },
        {
            "lon": 8.900611,
            "lat": 11.8777,
            "school_name": "Name unknown",
            "country_name": "Nigeria",
            "connectivity": false
        },
        {
            "lon": 8.343061,
            "lat": 12.22626,
            "school_name": "Name unknown",
            "country_name": "Nigeria",
            "connectivity": false
        },
        {
            "lon": 8.318518,
            "lat": 12.19157,
            "school_name": "Name unknown",
            "country_name": "Nigeria",
            "connectivity": false
        },
        {
            "lon": 8.328817,
            "lat": 12.3466,
            "school_name": "Name unknown",
            "country_name": "Nigeria",
            "connectivity": false
        },
        {
            "lon": 8.462549,
            "lat": 11.92383,
            "school_name": "Name unknown",
            "country_name": "Nigeria",
            "connectivity": false
        },
        {
            "lon": 13.279171,
            "lat": 10.274752,
            "school_name": "Name unknown",
            "country_name": "Nigeria",
            "connectivity": false
        },
        {
            "lon": 6.702552,
            "lat": 7.30325,
            "school_name": "Name unknown",
            "country_name": "Nigeria",
            "connectivity": false
        },
        {
            "lon": 7.591664,
            "lat": 7.216135,
            "school_name": "Name unknown",
            "country_name": "Nigeria",
            "connectivity": false
        },
        {
            "lon": 4.981436,
            "lat": 8.54854,
            "school_name": "Name unknown",
            "country_name": "Nigeria",
            "connectivity": false
        },
        {
            "lon": 3.319075,
            "lat": 6.630208,
            "school_name": "Name unknown",
            "country_name": "Nigeria",
            "connectivity": false
        },
        {
            "lon": 3.219119755,
            "lat": 6.591278036,
            "school_name": "Name unknown",
            "country_name": "Nigeria",
            "connectivity": false
        },
        {
            "lon": 3.28144,
            "lat": 6.53651,
            "school_name": "Name unknown",
            "country_name": "Nigeria",
            "connectivity": false
        },
        {
            "lon": 3.24541,
            "lat": 6.52023,
            "school_name": "Name unknown",
            "country_name": "Nigeria",
            "connectivity": false
        },
        {
            "lon": 3.285901309,
            "lat": 6.48131833,
            "school_name": "Name unknown",
            "country_name": "Nigeria",
            "connectivity": false
        },
        {
            "lon": 3.349547,
            "lat": 6.47356,
            "school_name": "Name unknown",
            "country_name": "Nigeria",
            "connectivity": false
        },
        {
            "lon": 3.987614,
            "lat": 6.607576,
            "school_name": "Name unknown",
            "country_name": "Nigeria",
            "connectivity": false
        },
        {
            "lon": 3.56901,
            "lat": 6.45458,
            "school_name": "Name unknown",
            "country_name": "Nigeria",
            "connectivity": false
        },
        {
            "lon": 3.64008,
            "lat": 6.46096,
            "school_name": "Name unknown",
            "country_name": "Nigeria",
            "connectivity": false
        },
        {
            "lon": 3.22035,
            "lat": 6.49152,
            "school_name": "Name unknown",
            "country_name": "Nigeria",
            "connectivity": false
        },
        {
            "lon": 3.318658793,
            "lat": 6.521820754,
            "school_name": "Name unknown",
            "country_name": "Nigeria",
            "connectivity": false
        },
        {
            "lon": 3.392113,
            "lat": 6.544561,
            "school_name": "Name unknown",
            "country_name": "Nigeria",
            "connectivity": false
        },
        {
            "lon": 8.507807,
            "lat": 8.484586,
            "school_name": "Name unknown",
            "country_name": "Nigeria",
            "connectivity": false
        },
        {
            "lon": 5.641466667,
            "lat": 8.973953333,
            "school_name": "Name unknown",
            "country_name": "Nigeria",
            "connectivity": false
        },
        {
            "lon": 5.318182111,
            "lat": 9.556587338,
            "school_name": "Name unknown",
            "country_name": "Nigeria",
            "connectivity": false
        },
        {
            "lon": 6.72439456,
            "lat": 9.66792047,
            "school_name": "Name unknown",
            "country_name": "Nigeria",
            "connectivity": false
        },
        {
            "lon": 7.192359567,
            "lat": 9.146386385,
            "school_name": "Name unknown",
            "country_name": "Nigeria",
            "connectivity": false
        },
        {
            "lon": 7.189573333,
            "lat": 9.141653333,
            "school_name": "Name unknown",
            "country_name": "Nigeria",
            "connectivity": false
        },
        {
            "lon": 3.201391667,
            "lat": 6.612763333,
            "school_name": "Name unknown",
            "country_name": "Nigeria",
            "connectivity": false
        },
        {
            "lon": 3.00101237,
            "lat": 7.226301,
            "school_name": "Name unknown",
            "country_name": "Nigeria",
            "connectivity": false
        },
        {
            "lon": 4.033711667,
            "lat": 6.782886667,
            "school_name": "Name unknown",
            "country_name": "Nigeria",
            "connectivity": false
        },
        {
            "lon": 3.92642584,
            "lat": 6.80866445,
            "school_name": "Name unknown",
            "country_name": "Nigeria",
            "connectivity": false
        },
        {
            "lon": 2.79822558,
            "lat": 6.769648115,
            "school_name": "Name unknown",
            "country_name": "Nigeria",
            "connectivity": false
        },
        {
            "lon": 4.176365892,
            "lat": 7.637292259,
            "school_name": "Name unknown",
            "country_name": "Nigeria",
            "connectivity": false
        },
        {
            "lon": 7.549885,
            "lat": 4.560263,
            "school_name": "Name unknown",
            "country_name": "Nigeria",
            "connectivity": false
        },
        {
            "lon": 7.62873,
            "lat": 4.732291,
            "school_name": "Name unknown",
            "country_name": "Nigeria",
            "connectivity": false
        },
        {
            "lon": 8.133482,
            "lat": 4.741663,
            "school_name": "Name unknown",
            "country_name": "Nigeria",
            "connectivity": false
        },
        {
            "lon": 3.850294,
            "lat": 7.37141,
            "school_name": "Name unknown",
            "country_name": "Nigeria",
            "connectivity": false
        },
        {
            "lon": 4.011318,
            "lat": 8.19413,
            "school_name": "Name unknown",
            "country_name": "Nigeria",
            "connectivity": false
        },
        {
            "lon": 8.87361,
            "lat": 9.92347,
            "school_name": "Name unknown",
            "country_name": "Nigeria",
            "connectivity": false
        },
        {
            "lon": 8.93819,
            "lat": 9.77773,
            "school_name": "Name unknown",
            "country_name": "Nigeria",
            "connectivity": false
        },
        {
            "lon": 8.867508,
            "lat": 9.794869,
            "school_name": "Name unknown",
            "country_name": "Nigeria",
            "connectivity": false
        },
        {
            "lon": 10.026674,
            "lat": 9.353706,
            "school_name": "Name unknown",
            "country_name": "Nigeria",
            "connectivity": false
        },
        {
            "lon": 6.700819,
            "lat": 5.182509,
            "school_name": "Name unknown",
            "country_name": "Nigeria",
            "connectivity": false
        },
        {
            "lon": 10.15444,
            "lat": 7.098209,
            "school_name": "Name unknown",
            "country_name": "Nigeria",
            "connectivity": false
        },
        {
            "lon": 7.058244,
            "lat": 5.981954,
            "school_name": "Name unknown",
            "country_name": "Nigeria",
            "connectivity": false
        },
        {
            "lon": 7.112616,
            "lat": 5.940392,
            "school_name": "Name unknown",
            "country_name": "Nigeria",
            "connectivity": false
        },
        {
            "lon": 7.111164,
            "lat": 5.967008,
            "school_name": "Name unknown",
            "country_name": "Nigeria",
            "connectivity": false
        },
        {
            "lon": 7.486463785,
            "lat": 12.66428053,
            "school_name": "Name unknown",
            "country_name": "Nigeria",
            "connectivity": false
        },
        {
            "lon": 7.98066,
            "lat": 12.46685,
            "school_name": "Name unknown",
            "country_name": "Nigeria",
            "connectivity": false
        },
        {
            "lon": 9.718807945,
            "lat": 9.989068002,
            "school_name": "Name unknown",
            "country_name": "Nigeria",
            "connectivity": false
        },
        {
            "lon": 10.66698667,
            "lat": 11.638045,
            "school_name": "Name unknown",
            "country_name": "Nigeria",
            "connectivity": false
        },
        {
            "lon": 10.00156581,
            "lat": 11.32032752,
            "school_name": "Name unknown",
            "country_name": "Nigeria",
            "connectivity": false
        },
        {
            "lon": 4.19976429,
            "lat": 12.32865192,
            "school_name": "Name unknown",
            "country_name": "Nigeria",
            "connectivity": false
        },
        {
            "lon": 5.857529,
            "lat": 4.790248,
            "school_name": "Name unknown",
            "country_name": "Nigeria",
            "connectivity": false
        },
        {
            "lon": 4.888326702,
            "lat": 13.10855872,
            "school_name": "Name unknown",
            "country_name": "Nigeria",
            "connectivity": false
        },
        {
            "lon": 5.7229,
            "lat": 13.68885,
            "school_name": "Name unknown",
            "country_name": "Nigeria",
            "connectivity": false
        },
        {
            "lon": 8.11453,
            "lat": 7.52484,
            "school_name": "Name unknown",
            "country_name": "Nigeria",
            "connectivity": false
        },
        {
            "lon": 7.805502,
            "lat": 7.343372,
            "school_name": "Name unknown",
            "country_name": "Nigeria",
            "connectivity": false
        },
        {
            "lon": 8.145243,
            "lat": 7.198853,
            "school_name": "Name unknown",
            "country_name": "Nigeria",
            "connectivity": false
        },
        {
            "lon": 9.102418,
            "lat": 7.036636,
            "school_name": "Name unknown",
            "country_name": "Nigeria",
            "connectivity": false
        },
        {
            "lon": 11.77926469,
            "lat": 12.76722227,
            "school_name": "Name unknown",
            "country_name": "Nigeria",
            "connectivity": false
        },
        {
            "lon": 10.85295194,
            "lat": 12.81376155,
            "school_name": "Name unknown",
            "country_name": "Nigeria",
            "connectivity": false
        },
        {
            "lon": 8.3437533,
            "lat": 5.01724,
            "school_name": "Name unknown",
            "country_name": "Nigeria",
            "connectivity": false
        },
        {
            "lon": 9.065553333,
            "lat": 6.574773333,
            "school_name": "Name unknown",
            "country_name": "Nigeria",
            "connectivity": false
        },
        {
            "lon": 37.0224394,
            "lat": -0.8698822,
            "school_name": "Kariti Secondary School",
            "country_name": "Kenya",
            "connectivity": false
        },
        {
            "lon": -15.94579,
            "lat": 18.06079,
            "school_name": "EL BIRRE",
            "country_name": "Mauritania",
            "connectivity": false
        },
        {
            "lon": -58.78630087,
            "lat": -34.64867971,
            "school_name": "INSTITUTO SUPERIOR DE FORMACION DOCENTE N\u00ba21 DR.RICARDO ROJ",
            "country_name": "Argentina",
            "connectivity": false
        },
        {
            "lon": -76.605,
            "lat": -12.5961,
            "school_name": "SANTIAGO JOSE FRANCIA TORRES",
            "country_name": "Peru",
            "connectivity": false
        },
        {
            "lon": 9.35152,
            "lat": 7.54607,
            "school_name": "Name unknown",
            "country_name": "Nigeria",
            "connectivity": false
        },
        {
            "lon": 9.156999,
            "lat": 6.92024,
            "school_name": "Name unknown",
            "country_name": "Nigeria",
            "connectivity": false
        },
        {
            "lon": 67.660536,
            "lat": 37.907572,
            "school_name": "21 -  sonli umumta\u2018lim maktabi",
            "country_name": "Uzbekistan",
            "connectivity": false
        },
        {
            "lon": 66.45434,
            "lat": 40.15029,
            "school_name": "79 -  sonli umumta\u2018lim maktabi",
            "country_name": "Uzbekistan",
            "connectivity": false
        },
        {
            "lon": 66.85423,
            "lat": 39.95125,
            "school_name": "5 -  sonli umumta\u2018lim maktabi",
            "country_name": "Uzbekistan",
            "connectivity": false
        },
        {
            "lon": 66.913766,
            "lat": 40.3359074,
            "school_name": "78 -  sonli umumta\u2018lim maktabi",
            "country_name": "Uzbekistan",
            "connectivity": false
        },
        {
            "lon": 64.77625,
            "lat": 40.21192,
            "school_name": "54 -  sonli umumta\u2018lim maktabi",
            "country_name": "Uzbekistan",
            "connectivity": false
        },
        {
            "lon": -105.443134,
            "lat": 25.047129,
            "school_name": "BRUNO MARTINEZ",
            "country_name": "Mexico",
            "connectivity": false
        },
        {
            "lon": -105.174164,
            "lat": 25.051293,
            "school_name": "TELESECUNDARIA NUM. 427",
            "country_name": "Mexico",
            "connectivity": false
        },
        {
            "lon": -104.165973,
            "lat": 25.004351,
            "school_name": "SECUNDARIA COMUNITARIA",
            "country_name": "Mexico",
            "connectivity": false
        },
        {
            "lon": -106.607648,
            "lat": 25.1739,
            "school_name": "SECUNDARIA COMUNITARIA",
            "country_name": "Mexico",
            "connectivity": false
        },
        {
            "lon": -98.721731,
            "lat": 20.104311,
            "school_name": "MAESTROS DE MEXICO",
            "country_name": "Mexico",
            "connectivity": false
        },
        {
            "lon": -98.451011,
            "lat": 20.905294,
            "school_name": "TELESECUNDARIA 264",
            "country_name": "Mexico",
            "connectivity": false
        },
        {
            "lon": -98.24629,
            "lat": 21.12045,
            "school_name": "TELESECUNDARIA 513",
            "country_name": "Mexico",
            "connectivity": false
        },
        {
            "lon": -98.208056,
            "lat": 19.044384,
            "school_name": "INSTITUTO NORTEAMERICANO",
            "country_name": "Mexico",
            "connectivity": false
        },
        {
            "lon": -95.36094,
            "lat": 18.32706,
            "school_name": "EMILIANO ZAPATA",
            "country_name": "Mexico",
            "connectivity": false
        },
        {
            "lon": -96.15949,
            "lat": 19.19198,
            "school_name": "RICARDO FLORES MAGON",
            "country_name": "Mexico",
            "connectivity": false
        },
        {
            "lon": -96.92775,
            "lat": 19.57724,
            "school_name": "21 DE MARZO",
            "country_name": "Mexico",
            "connectivity": false
        },
        {
            "lon": -96.91092,
            "lat": 19.5211,
            "school_name": "HISPANO ANGLO FRANCES",
            "country_name": "Mexico",
            "connectivity": false
        },
        {
            "lon": 68.8975,
            "lat": 24.9808,
            "school_name": "GBPS - DEEWANI FAQEER",
            "country_name": "Pakistan",
            "connectivity": false
        },
        {
            "lon": 68.8094,
            "lat": 24.8869,
            "school_name": "GBPS - JATOI MUHALLA TALHAR",
            "country_name": "Pakistan",
            "connectivity": false
        },
        {
            "lon": 67.0786,
            "lat": 24.9997,
            "school_name": "GGPS - 5-F/1 NO.4 NEW KARACHI F-F1",
            "country_name": "Pakistan",
            "connectivity": false
        },
        {
            "lon": 67.7809,
            "lat": 27.1834,
            "school_name": "GBPS - ALLAHANDO TEVNO",
            "country_name": "Pakistan",
            "connectivity": false
        },
        {
            "lon": 67.0602,
            "lat": 24.8575,
            "school_name": "KMC - GIRLS LOWER SECONDARY SCHOOL",
            "country_name": "Pakistan",
            "connectivity": false
        },
        {
            "lon": 67.0351,
            "lat": 24.8808,
            "school_name": "GBHS - Jufel Hurst No 2",
            "country_name": "Pakistan",
            "connectivity": false
        },
        {
            "lon": 69.6325,
            "lat": 27.8465,
            "school_name": "GBPS - GHULAM HYDER LASHARI",
            "country_name": "Pakistan",
            "connectivity": false
        },
        {
            "lon": 69.7069,
            "lat": 28.051,
            "school_name": "GBPS - HAFIZ ABDUL ALEEM SOOMRO",
            "country_name": "Pakistan",
            "connectivity": false
        },
        {
            "lon": 68.5303,
            "lat": 25.4623,
            "school_name": "GBHSS - MOOSA KHATIAN",
            "country_name": "Pakistan",
            "connectivity": false
        },
        {
            "lon": 68.5563,
            "lat": 25.4819,
            "school_name": "GGPS - ARIF KHATIAN",
            "country_name": "Pakistan",
            "connectivity": false
        },
        {
            "lon": 68.6434,
            "lat": 28.3246,
            "school_name": "GBPS - ABDUL KARIM KATOHER",
            "country_name": "Pakistan",
            "connectivity": false
        },
        {
            "lon": 68.7868,
            "lat": 28.2022,
            "school_name": "GGPS - ODHANO @ UDDI (CMS)",
            "country_name": "Pakistan",
            "connectivity": false
        },
        {
            "lon": 69.4773,
            "lat": 28.4559,
            "school_name": "GBPS - GHAFFAR ABAD KHOSO",
            "country_name": "Pakistan",
            "connectivity": false
        },
        {
            "lon": 68.4284,
            "lat": 27.1792,
            "school_name": "GGPS - BACHAL BHAMBHARO",
            "country_name": "Pakistan",
            "connectivity": false
        },
        {
            "lon": 68.2113,
            "lat": 27.5593,
            "school_name": "GBPS - O.C NEW LAHORI.",
            "country_name": "Pakistan",
            "connectivity": false
        },
        {
            "lon": 67.1554,
            "lat": 24.8917,
            "school_name": "GGPS - AIRPORT",
            "country_name": "Pakistan",
            "connectivity": false
        },
        {
            "lon": 69.2831,
            "lat": 25.1775,
            "school_name": "GBPS - CHOUDARY MUHAMMAD  KHALID",
            "country_name": "Pakistan",
            "connectivity": false
        },
        {
            "lon": 68.2728,
            "lat": 27.1539,
            "school_name": "GBHS - TUNIA BAQA SHAH SYED MUHAMMADD SHAH",
            "country_name": "Pakistan",
            "connectivity": false
        },
        {
            "lon": 68.2175,
            "lat": 27.0211,
            "school_name": "GBPS - SHER KHAN KHOSO",
            "country_name": "Pakistan",
            "connectivity": false
        },
        {
            "lon": 68.0167,
            "lat": 26.7636,
            "school_name": "GBPS - ALLAH DINO KHOSO",
            "country_name": "Pakistan",
            "connectivity": false
        },
        {
            "lon": 67.9397,
            "lat": 26.6986,
            "school_name": "GBPS - MUHAMMAD KHAN SOHU",
            "country_name": "Pakistan",
            "connectivity": false
        },
        {
            "lon": 68.1681,
            "lat": 26.7161,
            "school_name": "GBPS - ALLAH DINO PERHIYAR",
            "country_name": "Pakistan",
            "connectivity": false
        },
        {
            "lon": 68.2833,
            "lat": 26.6942,
            "school_name": "GBPS - NABI BUX MARI",
            "country_name": "Pakistan",
            "connectivity": false
        },
        {
            "lon": 69.4864,
            "lat": 25.6277,
            "school_name": "GBPS - EADAL KHAN MARI",
            "country_name": "Pakistan",
            "connectivity": false
        },
        {
            "lon": 69.1864,
            "lat": 25.8886,
            "school_name": "GBPS - MOULA BUX KHASKHELI",
            "country_name": "Pakistan",
            "connectivity": false
        },
        {
            "lon": 68.9558,
            "lat": 25.9202,
            "school_name": "GBPS - MUHAMMAD BACHEL MALOOKANI",
            "country_name": "Pakistan",
            "connectivity": false
        },
        {
            "lon": 67.9566,
            "lat": 26.5522,
            "school_name": "GBPS - MUHAMMAD HAROON SOLANGI",
            "country_name": "Pakistan",
            "connectivity": false
        },
        {
            "lon": 68.1726,
            "lat": 26.5636,
            "school_name": "GGPS - SARDAR MUHAMMAD PANJABI",
            "country_name": "Pakistan",
            "connectivity": false
        },
        {
            "lon": 68.3156,
            "lat": 26.1195,
            "school_name": "GBPS - KUMB LEEMA",
            "country_name": "Pakistan",
            "connectivity": false
        },
        {
            "lon": 68.697,
            "lat": 28.048,
            "school_name": "GBPS - BUDHO BURIRO",
            "country_name": "Pakistan",
            "connectivity": false
        },
        {
            "lon": 68.3875,
            "lat": 24.5044,
            "school_name": "GBPS - JUMAN MANGANHAR @ AT GUL MALLAH",
            "country_name": "Pakistan",
            "connectivity": false
        },
        {
            "lon": 68.1861,
            "lat": 24.8722,
            "school_name": "GBPS - BACHAL MANGSI",
            "country_name": "Pakistan",
            "connectivity": false
        },
        {
            "lon": 68.2975,
            "lat": 24.6969,
            "school_name": "GBPS - GUL HASSAN SEYAL @ MUHAMMAD ALI PALARI",
            "country_name": "Pakistan",
            "connectivity": false
        },
        {
            "lon": 68.7126,
            "lat": 25.6426,
            "school_name": "GBPS - GUL MUHAMMAD PALI",
            "country_name": "Pakistan",
            "connectivity": false
        },
        {
            "lon": 68.8854,
            "lat": 25.416,
            "school_name": "GGPS - GHULAM ALI LAGHARI",
            "country_name": "Pakistan",
            "connectivity": false
        },
        {
            "lon": 68.2769,
            "lat": 24.8967,
            "school_name": "GBPS - MUHAMMAD DIN ARIAN",
            "country_name": "Pakistan",
            "connectivity": false
        },
        {
            "lon": 68.7152,
            "lat": 24.8667,
            "school_name": "GBPS - BABRI",
            "country_name": "Pakistan",
            "connectivity": false
        },
        {
            "lon": 68.5486,
            "lat": 25.1246,
            "school_name": "GBPS - BARRAGE COLONY",
            "country_name": "Pakistan",
            "connectivity": false
        },
        {
            "lon": 69.8856,
            "lat": 24.2958,
            "school_name": "GBPS - ODANO",
            "country_name": "Pakistan",
            "connectivity": false
        },
        {
            "lon": 70.1389,
            "lat": 24.7375,
            "school_name": "GGPS - MEHARI BAJEER",
            "country_name": "Pakistan",
            "connectivity": false
        },
        {
            "lon": 69.6531,
            "lat": 24.7836,
            "school_name": "GBPS - AAHO",
            "country_name": "Pakistan",
            "connectivity": false
        },
        {
            "lon": -91.677222,
            "lat": 17.923611,
            "school_name": "CURSO COMUNITARIO DE EDUCACION PREESCOLAR",
            "country_name": "Mexico",
            "connectivity": false
        },
        {
            "lon": -90.062235,
            "lat": 20.377663,
            "school_name": "JOSE EMILIO PACHECO BERNY",
            "country_name": "Mexico",
            "connectivity": false
        },
        {
            "lon": -93.203208,
            "lat": 16.770056,
            "school_name": "SOR JUANA INES DE LA CRUZ",
            "country_name": "Mexico",
            "connectivity": false
        },
        {
            "lon": -91.287439,
            "lat": 16.242442,
            "school_name": "ROSARIO CASTELLANOS FIGUEROA",
            "country_name": "Mexico",
            "connectivity": false
        },
        {
            "lon": -92.5241,
            "lat": 15.097095,
            "school_name": "ROMULO DIAZ DE LA VEGA",
            "country_name": "Mexico",
            "connectivity": false
        },
        {
            "lon": -91.330003,
            "lat": 16.253225,
            "school_name": "JARDIN DE NI\u00d1OS COMUNITARIO MANUEL PAYNO",
            "country_name": "Mexico",
            "connectivity": false
        },
        {
            "lon": -93.137072,
            "lat": 17.031553,
            "school_name": "JARDIN DE NI\u00d1OS COMUNITARIO MIGUEL ANGEL ASTURIAS",
            "country_name": "Mexico",
            "connectivity": false
        },
        {
            "lon": 67.6496,
            "lat": 24.5383,
            "school_name": "GBPS - MUHAMMAD SOOMAR SHIKH",
            "country_name": "Pakistan",
            "connectivity": false
        },
        {
            "lon": 69.5851,
            "lat": 25.1962,
            "school_name": "GBPS - NOOR MUHAMMAD HALEPOTO",
            "country_name": "Pakistan",
            "connectivity": false
        },
        {
            "lon": 69.5008,
            "lat": 25.5362,
            "school_name": "GBPS - ABDUL MUTLIB HELEPOTO",
            "country_name": "Pakistan",
            "connectivity": false
        },
        {
            "lon": 69.5282,
            "lat": 25.5683,
            "school_name": "GBPS - MUHAMMED SALIK HALEPOTO",
            "country_name": "Pakistan",
            "connectivity": false
        },
        {
            "lon": 69.6999,
            "lat": 25.4972,
            "school_name": "GBPS - NEK MUHAMMAD SOOMRO",
            "country_name": "Pakistan",
            "connectivity": false
        },
        {
            "lon": 66.9841,
            "lat": 24.9288,
            "school_name": "GBPS - ANJUM COLONY",
            "country_name": "Pakistan",
            "connectivity": false
        },
        {
            "lon": 67.0041,
            "lat": 24.9427,
            "school_name": "KMC - GIRLS PRIMARY SCHOOL",
            "country_name": "Pakistan",
            "connectivity": false
        },
        {
            "lon": 66.9993,
            "lat": 24.9213,
            "school_name": "GBHS - IBRAHIM ALI BHAI METROVILL",
            "country_name": "Pakistan",
            "connectivity": false
        },
        {
            "lon": -92.329457,
            "lat": 15.130945,
            "school_name": "NI\u00d1OS HEROES",
            "country_name": "Mexico",
            "connectivity": false
        },
        {
            "lon": -92.113786,
            "lat": 15.603148,
            "school_name": "BENITO JUAREZ GARCIA",
            "country_name": "Mexico",
            "connectivity": false
        },
        {
            "lon": -108.28,
            "lat": 27.299,
            "school_name": "ESCUELA PRIMARIA",
            "country_name": "Mexico",
            "connectivity": false
        },
        {
            "lon": -106.929444,
            "lat": 25.625833,
            "school_name": "CURSO COMUNITARIO",
            "country_name": "Mexico",
            "connectivity": false
        },
        {
            "lon": -101.851717,
            "lat": 20.323902,
            "school_name": "LIC. BENITO JUAREZ",
            "country_name": "Mexico",
            "connectivity": false
        },
        {
            "lon": -101.65222,
            "lat": 21.05556,
            "school_name": "CURSO COMUNITARIO",
            "country_name": "Mexico",
            "connectivity": false
        },