{
    "name": "Patchwork Kingdom #733 | Fluncindal",
    "description": "Fluncindal is a rare instance of an entire kingdom where all of the 385 schools are connected to the internet (and 31 schools with unavailable data as clouds and birds in the sky), representing the end goal of UNICEF's Giga Project | Created for Giga (GigaConnect.org) \u2014 connecting every school in the world \u2014 in celebration of UNICEF's 75th birthday, by Nadieh Bremer",
    "external_url": "https://dummyURL.com/patchwork_kingdoms_733",
    "image": "https://dummy-storage-url.com/patchwork_kingdoms_733.png",
    "attributes": [
        {
            "trait_type": "Color palette",
            "value": "santa's workshop"
        },
        {
            "display_type": "number",
            "trait_type": "Schools",
            "value": 416,
            "max_value": 460
        },
        {
            "display_type": "number",
            "trait_type": "Ratio - Connected",
            "value": 0.93,
            "max_value": 1
        },
        {
            "display_type": "number",
            "trait_type": "Ratio - Unconnected",
            "value": 0,
            "max_value": 1
        },
        {
            "display_type": "number",
            "trait_type": "Ratio - Data unavailable",
            "value": 0.07,
            "max_value": 1
        },
        {
            "trait_type": "Countries",
            "value": "BR-CO-CR-HN-KG-KZ-NA-PH-PS-RW-ZW"
        },
        {
            "display_type": "number",
            "trait_type": "Symbols",
            "value": 46,
            "max_value": 51
        }
    ],
    "cluster_id": 733,
    "num_schools": 416,
    "num_schools_connected": 385,
    "num_schools_unconnected": 0,
    "num_schools_unknown": 31,
    "schools": [
        {
            "lon": -51.0611,
            "lat": -30.1522,
            "school_name": "EMEF OLIMPIO COELHO DE OLIVEIRA",
            "country_name": "Brazil",
            "connectivity": true
        },
        {
            "lon": -49.2109,
            "lat": -16.7509,
            "school_name": "CENTRO MUNICIPAL DE EDUCACAO INFANTIL JOSE FERREIRA CAMARA",
            "country_name": "Brazil",
            "connectivity": true
        },
        {
            "lon": -55.80328,
            "lat": -29.7852,
            "school_name": "EMEB PRINCESA ISABEL",
            "country_name": "Brazil",
            "connectivity": true
        },
        {
            "lon": -72.16490163,
            "lat": 5.828862043,
            "school_name": "Name unknown",
            "country_name": "Colombia",
            "connectivity": false
        },
        {
            "lon": -51.039795,
            "lat": -30.007727,
            "school_name": "EMEF ALCIDES MAIA",
            "country_name": "Brazil",
            "connectivity": true
        },
        {
            "lon": -87.34649,
            "lat": 14.1776,
            "school_name": "INSTITUTO TECNICO TAMARA",
            "country_name": "Honduras",
            "connectivity": true
        },
        {
            "lon": 30.98103,
            "lat": -17.79828,
            "school_name": "MABELREIGN Z.R.P.",
            "country_name": "Zimbabwe",
            "connectivity": true
        },
        {
            "lon": 30.95558,
            "lat": -17.74194,
            "school_name": "CORNELIUS HOPE ACADEMY PRIMARY",
            "country_name": "Zimbabwe",
            "connectivity": true
        },
        {
            "lon": -37.8636,
            "lat": -10.6813,
            "school_name": "EE - COLEGIO ESTADUAL GOVERNADOR ROBERTO SANTOS",
            "country_name": "Brazil",
            "connectivity": true
        },
        {
            "lon": -40.2289,
            "lat": -20.1917,
            "school_name": "EMEF DOM JOSE MAURO PEREIRA BASTOS",
            "country_name": "Brazil",
            "connectivity": true
        },
        {
            "lon": -47.4223,
            "lat": -4.915,
            "school_name": "CENTRO DE ENSINO DARCY RIBEIRO - ANEXO II - PLANO DA SERRA",
            "country_name": "Brazil",
            "connectivity": true
        },
        {
            "lon": 29.70183333,
            "lat": -2.206555556,
            "school_name": "EP NYARUBUYE",
            "country_name": "Rwanda",
            "connectivity": true
        },
        {
            "lon": 30.02316667,
            "lat": -2.026166667,
            "school_name": "COLLEGE DE BUTAMWA",
            "country_name": "Rwanda",
            "connectivity": true
        },
        {
            "lon": -83.083559,
            "lat": 9.00355644,
            "school_name": "LOS NARANJOS",
            "country_name": "Costa Rica",
            "connectivity": true
        },
        {
            "lon": -84.31715571,
            "lat": 10.37337637,
            "school_name": "LAS BRISAS",
            "country_name": "Costa Rica",
            "connectivity": true
        },
        {
            "lon": -84.15806478,
            "lat": 10.64046901,
            "school_name": "YUCATAN",
            "country_name": "Costa Rica",
            "connectivity": true
        },
        {
            "lon": -84.57921482,
            "lat": 10.37384473,
            "school_name": "CARMEN LIDIA CASTRO RODRIGUEZ",
            "country_name": "Costa Rica",
            "connectivity": true
        },
        {
            "lon": -83.94338251,
            "lat": 9.87031162,
            "school_name": "ARTURO VOLIO JIMENEZ",
            "country_name": "Costa Rica",
            "connectivity": true
        },
        {
            "lon": -83.72776912,
            "lat": 10.40336893,
            "school_name": "HOJANCHA",
            "country_name": "Costa Rica",
            "connectivity": true
        },
        {
            "lon": -83.78798534,
            "lat": 10.21587601,
            "school_name": "CENTRAL DE GUAPILES",
            "country_name": "Costa Rica",
            "connectivity": true
        },
        {
            "lon": -83.7198805,
            "lat": 10.4761097,
            "school_name": "SAN ISIDRO",
            "country_name": "Costa Rica",
            "connectivity": true
        },
        {
            "lon": 35.396035,
            "lat": 32.489529,
            "school_name": "faqua basic girls",
            "country_name": "Palestine",
            "connectivity": true
        },
        {
            "lon": 35.132214,
            "lat": 31.712845,
            "school_name": "al-arqub.b.s.f.b",
            "country_name": "Palestine",
            "connectivity": true
        },
        {
            "lon": 35.462711,
            "lat": 31.888846,
            "school_name": "maskat",
            "country_name": "Palestine",
            "connectivity": true
        },
        {
            "lon": -50.306435,
            "lat": -16.583511,
            "school_name": "ESCOLA MUNICIPAL TEMPO INTEGRAL PROFESSORA CELIA RICARDO DOMINGUES DE ARAUJO",
            "country_name": "Brazil",
            "connectivity": true
        },
        {
            "lon": 31.25812,
            "lat": -19.69671,
            "school_name": "MAGADZIRE",
            "country_name": "Zimbabwe",
            "connectivity": true
        },
        {
            "lon": -37.3087,
            "lat": -7.6025,
            "school_name": "ESCOLA ERNESTO DE SOUZA LEITE",
            "country_name": "Brazil",
            "connectivity": true
        },
        {
            "lon": -42.4181,
            "lat": -13.8345,
            "school_name": "EM ZELINDA CARVALHO TEIXEIRA",
            "country_name": "Brazil",
            "connectivity": true
        },
        {
            "lon": -76.38083235,
            "lat": 2.508989052,
            "school_name": "COLEGIO BASICO PUEBLO DE TOTORO (ANTC.D. BETANIA)",
            "country_name": "Colombia",
            "connectivity": true
        },
        {
            "lon": -74.33151793,
            "lat": 5.356683547,
            "school_name": "ESCUELA RURAL PISCO CHIQUITO",
            "country_name": "Colombia",
            "connectivity": true
        },
        {
            "lon": -76.491258,
            "lat": 3.576999027,
            "school_name": "Name unknown",
            "country_name": "Colombia",
            "connectivity": false
        },
        {
            "lon": 19.0621,
            "lat": -18.65554,
            "school_name": "Mahahe JPS",
            "country_name": "Namibia",
            "connectivity": false
        },
        {
            "lon": 120.627602,
            "lat": 18.160075,
            "school_name": "Pasion Barangan Mem. ES",
            "country_name": "Philippines",
            "connectivity": true
        },
        {
            "lon": 120.456375,
            "lat": 17.81862778,
            "school_name": "Pug-os ES",
            "country_name": "Philippines",
            "connectivity": true
        },
        {
            "lon": 119.785652,
            "lat": 10.523932,
            "school_name": "Dumaran NHS",
            "country_name": "Philippines",
            "connectivity": true
        },
        {
            "lon": 121.261223,
            "lat": 14.061827,
            "school_name": "San Benito ES",
            "country_name": "Philippines",
            "connectivity": true
        },
        {
            "lon": 121.40384,
            "lat": 13.058454,
            "school_name": "Socorro CS",
            "country_name": "Philippines",
            "connectivity": true
        },
        {
            "lon": 123.3827548,
            "lat": 13.45739712,
            "school_name": "San Vicente ES",
            "country_name": "Philippines",
            "connectivity": true
        },
        {
            "lon": 124.5347222,
            "lat": 11.6623,
            "school_name": "Binongtoan ES",
            "country_name": "Philippines",
            "connectivity": true
        },
        {
            "lon": 125.173413,
            "lat": 10.263869,
            "school_name": "San Juan Central Elementary School",
            "country_name": "Philippines",
            "connectivity": true
        },
        {
            "lon": 124.9294568,
            "lat": 10.92539389,
            "school_name": "Sta. Ana ES",
            "country_name": "Philippines",
            "connectivity": true
        },
        {
            "lon": 121.37138,
            "lat": 17.5094,
            "school_name": "Dupagan ES",
            "country_name": "Philippines",
            "connectivity": true
        },
        {
            "lon": -43.891293,
            "lat": -19.669718,
            "school_name": "EM HERCULANO LIBERATO DE ALMEIDA",
            "country_name": "Brazil",
            "connectivity": true
        },
        {
            "lon": -45.6,
            "lat": -16.1,
            "school_name": "CENTRO EDUCACINAL DE EDUCACAO INFANTIL SAO LEONARDO",
            "country_name": "Brazil",
            "connectivity": false
        },
        {
            "lon": -40.22776,
            "lat": -18.402727,
            "school_name": "EMEIEF FLORINDO MANZOLI",
            "country_name": "Brazil",
            "connectivity": false
        },
        {
            "lon": -41.922005,
            "lat": -22.495369,
            "school_name": "E E FAZENDAS REUNIDAS ATLANTICA MUNICIPALIZADA",
            "country_name": "Brazil",
            "connectivity": true
        },
        {
            "lon": -41.99198,
            "lat": -22.833872,
            "school_name": "E M PROF OSWALDO SANTA ROSA",
            "country_name": "Brazil",
            "connectivity": true
        },
        {
            "lon": -46.55893,
            "lat": -23.695951,
            "school_name": "MARIA ADELAIDE ROSSI ESCOLA MUNICIPAL",
            "country_name": "Brazil",
            "connectivity": true
        },
        {
            "lon": -72.73131156,
            "lat": 7.981940027,
            "school_name": "SEDE ENCERRADEROS",
            "country_name": "Colombia",
            "connectivity": true
        },
        {
            "lon": -73.08,
            "lat": 7.09,
            "school_name": "INSTITUTO VERICUTE",
            "country_name": "Colombia",
            "connectivity": true
        },
        {
            "lon": -73.287723,
            "lat": 9.558107,
            "school_name": "CEN. EDU. BOQUERON",
            "country_name": "Colombia",
            "connectivity": true
        },
        {
            "lon": -73.2846,
            "lat": 10.703619,
            "school_name": "INST AGRIC LA MINA",
            "country_name": "Colombia",
            "connectivity": true
        },
        {
            "lon": -74.04181,
            "lat": 4.880723,
            "school_name": "I.E. BOJACA - SEDE PRINCIPAL",
            "country_name": "Colombia",
            "connectivity": true
        },
        {
            "lon": -74.205849,
            "lat": 2.9438,
            "school_name": "SEDE EL PLACER",
            "country_name": "Colombia",
            "connectivity": true
        },
        {
            "lon": -74.30722222,
            "lat": 7.71505555,
            "school_name": "SAN JUAN RIO GRANDE",
            "country_name": "Colombia",
            "connectivity": true
        },
        {
            "lon": -75.12686984,
            "lat": 10.49121369,
            "school_name": "I.E. JOSE DAVID MONTEZUMA RECUERO - SEDE PRINCIPAL",
            "country_name": "Colombia",
            "connectivity": true
        },
        {
            "lon": -75.5166172,
            "lat": 5.162627781,
            "school_name": "ESCUELA ABRAHAM MONTOYA",
            "country_name": "Colombia",
            "connectivity": true
        },
        {
            "lon": -75.59430923,
            "lat": 6.163265696,
            "school_name": "ESCUELA  LETICIA ARANGO DE AVENDA\u00d1O",
            "country_name": "Colombia",
            "connectivity": true
        },
        {
            "lon": -75.66951396,
            "lat": 5.41255772,
            "school_name": "INSTITUCION EDUCATIVA LA IBERIA - SEDE PRINCIPAL",
            "country_name": "Colombia",
            "connectivity": true
        },
        {
            "lon": -75.508186,
            "lat": 9.1446974,
            "school_name": "JARD INF AMOR A SAN ANDRES",
            "country_name": "Colombia",
            "connectivity": true
        },
        {
            "lon": -75.88244747,
            "lat": 4.896708548,
            "school_name": "SE LICEO GABRIELA MISTRAL - SEDE PRINCIPAL",
            "country_name": "Colombia",
            "connectivity": true
        },
        {
            "lon": -75.95742222,
            "lat": 2.14459444,
            "school_name": "ALTO SAN FRANCISCO",
            "country_name": "Colombia",
            "connectivity": true
        },
        {
            "lon": -76.44,
            "lat": 5.62,
            "school_name": "SEDE IND\u00cdGENA DE TEGAVERA",
            "country_name": "Colombia",
            "connectivity": true
        },
        {
            "lon": -76.43116668,
            "lat": 3.991239357,
            "school_name": "JOHN F. KENNEDY",
            "country_name": "Colombia",
            "connectivity": true
        },
        {
            "lon": -76.52827882,
            "lat": 2.644146429,
            "school_name": "SIMON BOLIVAR (sede principal)",
            "country_name": "Colombia",
            "connectivity": true
        },
        {
            "lon": -76.55,
            "lat": 2.72,
            "school_name": "EL ARRAYAN",
            "country_name": "Colombia",
            "connectivity": true
        },
        {
            "lon": -76.69571113,
            "lat": 8.124206149,
            "school_name": "E.R. EL PORVENIR",
            "country_name": "Colombia",
            "connectivity": true
        },
        {
            "lon": -77.1734,
            "lat": 1.11905555,
            "school_name": "ESC RUR MIX EL MOTILON",
            "country_name": "Colombia",
            "connectivity": true
        },
        {
            "lon": -37.280178,
            "lat": -9.80956,
            "school_name": "ESCOLA DE 1\u00ba GRAU RAIMUNDA SOUTO FEITOSA",
            "country_name": "Brazil",
            "connectivity": true
        },
        {
            "lon": -78.08961566,
            "lat": 1.242162018,
            "school_name": "INSTITUCION EDUCTIVA SANTA TERESITA DE ALTAQUER",
            "country_name": "Colombia",
            "connectivity": true
        },
        {
            "lon": -63.8268,
            "lat": -8.7603,
            "school_name": "EMEIEF FRANCISCO ELENILSON NEGREIROS",
            "country_name": "Brazil",
            "connectivity": true
        },
        {
            "lon": -41.1,
            "lat": -20.8802,
            "school_name": "EMEB MONTEIRO LOBATO",
            "country_name": "Brazil",
            "connectivity": true
        },
        {
            "lon": -58.1957,
            "lat": -2.8316,
            "school_name": "ESCOLA ESTADUAL 5 DE SETEMBRO",
            "country_name": "Brazil",
            "connectivity": true
        },
        {
            "lon": -59.1314,
            "lat": -3.5757,
            "school_name": "ESC MUNICIPAL PROF",
            "country_name": "Brazil",
            "connectivity": true
        },
        {
            "lon": -61.1274,
            "lat": 1.8164,
            "school_name": "ESCOLA MUNICIPAL COUTO DE MAGALHAES",
            "country_name": "Brazil",
            "connectivity": true
        },
        {
            "lon": -45.129,
            "lat": -4.568,
            "school_name": "UI SIRINO RODRIGUES",
            "country_name": "Brazil",
            "connectivity": true
        },
        {
            "lon": -52.4192,
            "lat": -29.5077,
            "school_name": "EMEF D PEDRO II",
            "country_name": "Brazil",
            "connectivity": true
        },
        {
            "lon": -51.1729,
            "lat": -0.0668,
            "school_name": "ESC EST OSVALDINA FERREIRA DA SILVA",
            "country_name": "Brazil",
            "connectivity": true
        },
        {
            "lon": -48.9388,
            "lat": -11.3037,
            "school_name": "ESCOLA MUN DUQUE DE CAXIAS",
            "country_name": "Brazil",
            "connectivity": true
        },
        {
            "lon": -45.0134,
            "lat": -3.0444,
            "school_name": "ESCOLA MUNICIPAL SAO RAIMUNDO NONATO",
            "country_name": "Brazil",
            "connectivity": false
        },
        {
            "lon": -45.3258,
            "lat": -2.9084,
            "school_name": "UI NELSON MARQUES",
            "country_name": "Brazil",
            "connectivity": true
        },
        {
            "lon": -44.027,
            "lat": -3.4103,
            "school_name": "CENTRO DE ENSINO SANTA LUZIA",
            "country_name": "Brazil",
            "connectivity": true
        },
        {
            "lon": -43.6688,
            "lat": -3.6958,
            "school_name": "EMEB TERTULIANO ALVES PEREIRA",
            "country_name": "Brazil",
            "connectivity": true
        },
        {
            "lon": -45.5676,
            "lat": -3.7089,
            "school_name": "EM COELHO NETO",
            "country_name": "Brazil",
            "connectivity": true
        },
        {
            "lon": -47.7915,
            "lat": -5.1738,
            "school_name": "UNIDADE INTEGRADA PRESIDENTE JOSE SARNEY",
            "country_name": "Brazil",
            "connectivity": true
        },
        {
            "lon": -46.9429,
            "lat": -5.422,
            "school_name": "UE JOSE FERNANDES",
            "country_name": "Brazil",
            "connectivity": true
        },
        {
            "lon": -44.0228,
            "lat": -4.4167,
            "school_name": "EM MOISES ALVES DOS REIS",
            "country_name": "Brazil",
            "connectivity": true
        },
        {
            "lon": -43.8863,
            "lat": -4.4583,
            "school_name": "UI MUN EVANGELICA ESTEVAM ANGELO DE SOUZA",
            "country_name": "Brazil",
            "connectivity": true
        },
        {
            "lon": -41.8393,
            "lat": -4.9407,
            "school_name": "UNIDADE ESCOLAR MARIA DA PAZ SOUSA",
            "country_name": "Brazil",
            "connectivity": true
        },
        {
            "lon": -43.8268,
            "lat": -8.1373,
            "school_name": "UNIDADE ESCOLAR GETULIO VARGAS",
            "country_name": "Brazil",
            "connectivity": true
        },
        {
            "lon": -41.5589,
            "lat": -3.1826,
            "school_name": "ESC MUL ANTONIO BATISTA SOBRINHO",
            "country_name": "Brazil",
            "connectivity": false
        },
        {
            "lon": -48.2603,
            "lat": -15.7639,
            "school_name": "ESCOLA MUNICIPAL ACELINA ALVES DE ARAUJO",
            "country_name": "Brazil",
            "connectivity": true
        },
        {
            "lon": -39.7163,
            "lat": -5.4552,
            "school_name": "RAIO DE SOL EEI EM TEMPO INTEGRAL",
            "country_name": "Brazil",
            "connectivity": true
        },
        {
            "lon": -41.7389,
            "lat": -6.4039,
            "school_name": "CEJA VITORIA DA COSTA LIMA",
            "country_name": "Brazil",
            "connectivity": true
        },
        {
            "lon": -39.3122,
            "lat": -5.8695,
            "school_name": "ESCOLA DE ENSINO BASICO SAO CAETANO",
            "country_name": "Brazil",
            "connectivity": true
        },
        {
            "lon": -38.3039,
            "lat": -5.8095,
            "school_name": "ABDON XAVIER DE CARVALHO EEF",
            "country_name": "Brazil",
            "connectivity": true
        },
        {
            "lon": -39.0308,
            "lat": -6.6096,
            "school_name": "VICENTE BERNARDINO DE SOUSA ESC DE 1 GRA",
            "country_name": "Brazil",
            "connectivity": false
        },
        {
            "lon": -38.4748,
            "lat": -4.1619,
            "school_name": "ALTO DA BOA VISTA C E I",
            "country_name": "Brazil",
            "connectivity": true
        },
        {
            "lon": -41.0058,
            "lat": -3.7311,
            "school_name": "PAMMA POLO DE ATENDIMENTO MARIO FROTA E MARIA ANICE",
            "country_name": "Brazil",
            "connectivity": true
        },
        {
            "lon": -40.9508,
            "lat": -2.9651,
            "school_name": "ANTONIO ALVARES FILHO EEF",
            "country_name": "Brazil",
            "connectivity": true
        },
        {
            "lon": -38.8143,
            "lat": -4.371,
            "school_name": "PEDRO GUEDES ALCOFORADO CORONEL EEIEF",
            "country_name": "Brazil",
            "connectivity": true
        },
        {
            "lon": -37.1852,
            "lat": -5.8668,
            "school_name": "EM PROFESSOR MANOEL SILVESTRE FREIRE",
            "country_name": "Brazil",
            "connectivity": true
        },
        {
            "lon": -39.7419,
            "lat": -5.119,
            "school_name": "SABRINA RODRIGUES RAMOS CEI",
            "country_name": "Brazil",
            "connectivity": true
        },
        {
            "lon": -36.8895,
            "lat": -5.4284,
            "school_name": "EM MANOEL CORTEZ",
            "country_name": "Brazil",
            "connectivity": true
        },
        {
            "lon": -44.935,
            "lat": -4.0455,
            "school_name": "CENTRO DE ENSINO JOHN KENNEDY",
            "country_name": "Brazil",
            "connectivity": true
        },
        {
            "lon": -36.5195,
            "lat": -6.2574,
            "school_name": "CEJA PROF CREUZA BEZERRA",
            "country_name": "Brazil",
            "connectivity": true
        },
        {
            "lon": -49.6787,
            "lat": -4.6981,
            "school_name": "E M E F BENJAMIM FRANKLIN",
            "country_name": "Brazil",
            "connectivity": true
        },
        {
            "lon": -38.1245,
            "lat": -6.8627,
            "school_name": "EMEF JORGE DELFINO DE LIMA",
            "country_name": "Brazil",
            "connectivity": true
        },
        {
            "lon": -49.6831,
            "lat": -3.7799,
            "school_name": "E M E F PROF\u00aa FLORIPES MARIA CALDAS",
            "country_name": "Brazil",
            "connectivity": true
        },
        {
            "lon": -36.4505,
            "lat": -6.9134,
            "school_name": "EMEF PRESIDENTE KENNEDY",
            "country_name": "Brazil",
            "connectivity": false
        },
        {
            "lon": -36.0832,
            "lat": -7.2863,
            "school_name": "EMEF ANA NERY",
            "country_name": "Brazil",
            "connectivity": false
        },
        {
            "lon": -36.3723,
            "lat": -7.0597,
            "school_name": "EMEF PROF",
            "country_name": "Brazil",
            "connectivity": true
        },
        {
            "lon": -35.999,
            "lat": -7.1713,
            "school_name": "EMEF ANTONIO ALVES DE ARAUJO",
            "country_name": "Brazil",
            "connectivity": true
        },
        {
            "lon": -35.9033,
            "lat": -7.3679,
            "school_name": "EMEI JOSE CORDEIRO DA SILVA",
            "country_name": "Brazil",
            "connectivity": true
        },
        {
            "lon": -35.6006,
            "lat": -7.2879,
            "school_name": "EMEIEF DR MANOEL CORREIA DE FARIAS",
            "country_name": "Brazil",
            "connectivity": true
        },
        {
            "lon": -35.2586,
            "lat": -7.2672,
            "school_name": "EEEF DR JOSE MARIA",
            "country_name": "Brazil",
            "connectivity": true
        },
        {
            "lon": -35.1895,
            "lat": -6.895,
            "school_name": "ESC MUL PROFA EUNICE ALVES DOS SANTOS",
            "country_name": "Brazil",
            "connectivity": true
        },
        {
            "lon": -37.483,
            "lat": -7.678,
            "school_name": "ESCOLA MUNICIPAL PADRE LUIS MUNIZ DO AMARAL",
            "country_name": "Brazil",
            "connectivity": false
        },
        {
            "lon": -37.0283,
            "lat": -8.6489,
            "school_name": "ESCOLA MUNICIPAL PROFESSORA ANALIA SIMOES DE OLIVEIRA VAZ",
            "country_name": "Brazil",
            "connectivity": true
        },
        {
            "lon": -35.6072,
            "lat": -7.8641,
            "school_name": "ESCOLA MUNICIPAL SEVERINO ALEXANDRE DA CRUZ",
            "country_name": "Brazil",
            "connectivity": true
        },
        {
            "lon": -35.731,
            "lat": -8.4721,
            "school_name": "ESCOLA CICERO FRANKLIN CORDEIRO",
            "country_name": "Brazil",
            "connectivity": true
        },
        {
            "lon": -51.0824,
            "lat": -6.7434,
            "school_name": "C M E I PROFESSORA DJALVA VIANA DA COSTA",
            "country_name": "Brazil",
            "connectivity": true
        },
        {
            "lon": -34.9754,
            "lat": -8.0267,
            "school_name": "ESC MUN CARMELA ORRICO LAPENDA",
            "country_name": "Brazil",
            "connectivity": true
        },
        {
            "lon": -34.8303,
            "lat": -7.9468,
            "school_name": "ESCOLA MUNICIPAL MINISTRO ETELVINO LINS",
            "country_name": "Brazil",
            "connectivity": true
        },
        {
            "lon": -37.2732,
            "lat": -8.3626,
            "school_name": "ESCOLA MUNICIPAL NAIR FREIRE DE SOUZA",
            "country_name": "Brazil",
            "connectivity": true
        },
        {
            "lon": -37.2481,
            "lat": -9.3739,
            "school_name": "ESCOLA ESTADUAL ROTARY",
            "country_name": "Brazil",
            "connectivity": true
        },
        {
            "lon": -56.0129,
            "lat": -4.2778,
            "school_name": "E M E I F GONCALO NAZARE DOS SANTOS",
            "country_name": "Brazil",
            "connectivity": true
        },
        {
            "lon": -37.1987,
            "lat": -10.2318,
            "school_name": "ESCOLA MUNICIPAL DR LOURIVAL BAPTISTA",
            "country_name": "Brazil",
            "connectivity": true
        },
        {
            "lon": -44.1922,
            "lat": -13.0482,
            "school_name": "ESCOLA MUNICIPAL JOAO NOGUEIRA DOS SANTOS",
            "country_name": "Brazil",
            "connectivity": false
        },
        {
            "lon": -40.3025,
            "lat": -10.6069,
            "school_name": "ESCOLA MUNICIPAL TELESPHORO MENEZES",
            "country_name": "Brazil",
            "connectivity": true
        },
        {
            "lon": -41.4694,
            "lat": -11.3079,
            "school_name": "ESCOLA MUNICIPAL DURVAL SOUZA BAGANO",
            "country_name": "Brazil",
            "connectivity": true
        },
        {
            "lon": -37.8862,
            "lat": -12.1878,
            "school_name": "ESCOLA MUNICIPAL TEREZA DOS SANTOS MENDES",
            "country_name": "Brazil",
            "connectivity": false
        },
        {
            "lon": -38.501,
            "lat": -12.927,
            "school_name": "ESCOLA MUNICIPAL TIRADENTES",
            "country_name": "Brazil",
            "connectivity": true
        },
        {
            "lon": -38.4831,
            "lat": -12.9418,
            "school_name": "ESCOLA MUNICIPAL FONTE DO CAPIM",
            "country_name": "Brazil",
            "connectivity": true
        },
        {
            "lon": -42.7015,
            "lat": -13.0169,
            "school_name": "ESCOLA MUNICIPAL PROF FLAMIANO ALVES PIMENTA",
            "country_name": "Brazil",
            "connectivity": true
        },
        {
            "lon": -39.0881,
            "lat": -13.3664,
            "school_name": "ESCOLA MUNICIPAL LINALDO FERREIRA ALVES",
            "country_name": "Brazil",
            "connectivity": true
        },
        {
            "lon": -46.5621,
            "lat": -23.4786,
            "school_name": "GABRIELA MISTRAL",
            "country_name": "Brazil",
            "connectivity": true
        },
        {
            "lon": -40.5088,
            "lat": -8.0962,
            "school_name": "ESCOLA ESTADUAL DJALMA MACEDO GOMES",
            "country_name": "Brazil",
            "connectivity": true
        },
        {
            "lon": -41.865,
            "lat": -11.3273,
            "school_name": "IFBA - CAMPUS IRECE",
            "country_name": "Brazil",
            "connectivity": true
        },
        {
            "lon": -40.9685,
            "lat": -12.0422,
            "school_name": "CRECHE MUNICIPAL MARIA RITA",
            "country_name": "Brazil",
            "connectivity": true
        },
        {
            "lon": -39.8641,
            "lat": -12.8643,
            "school_name": "CRECHE MUNICIPAL DONA MENININHA",
            "country_name": "Brazil",
            "connectivity": true
        },
        {
            "lon": -39.102,
            "lat": -14.0051,
            "school_name": "ESCOLA BAIA DE CAMAMU",
            "country_name": "Brazil",
            "connectivity": true
        },
        {
            "lon": -38.7718,
            "lat": -12.9293,
            "school_name": "ESCOLA MODELO DE ENCARNACAO",
            "country_name": "Brazil",
            "connectivity": true
        },
        {
            "lon": -42.7839,
            "lat": -14.1946,
            "school_name": "ESCOLA MUNICIPAL PROFESSOR CELITO BRITO",
            "country_name": "Brazil",
            "connectivity": true
        },
        {
            "lon": -38.3618,
            "lat": -12.9438,
            "school_name": "CRECHE E PRE ESCOLA PRIMEIRO PASSO ITAPUA MALE DEBALE",
            "country_name": "Brazil",
            "connectivity": true
        },
        {
            "lon": -43.9114,
            "lat": -19.9381,
            "school_name": "EE LAURA DAS CHAGAS FERREIRA",
            "country_name": "Brazil",
            "connectivity": true
        },
        {
            "lon": -45.9772,
            "lat": -20.0095,
            "school_name": "EM DR ANTONIO TORRES",
            "country_name": "Brazil",
            "connectivity": true
        },
        {
            "lon": -43.2931,
            "lat": -21.6047,
            "school_name": "EM ANTONIO MACEDO DE MOURA",
            "country_name": "Brazil",
            "connectivity": true
        },
        {
            "lon": -41.2512,
            "lat": -18.7825,
            "school_name": "EM CENTRAL DE MINAS",
            "country_name": "Brazil",
            "connectivity": false
        },
        {
            "lon": -46.0728,
            "lat": -22.3723,
            "school_name": "EM BENEDITO CAETANO DE FARIA",
            "country_name": "Brazil",
            "connectivity": true
        },
        {
            "lon": -44.1496,
            "lat": -14.3195,
            "school_name": "EM MARIA FERREIRA MARINHO",
            "country_name": "Brazil",
            "connectivity": true
        },
        {
            "lon": -41.6201,
            "lat": -20.1513,
            "school_name": "EE CAPITAO NESTOR VIEIRA DE GOUVEIA",
            "country_name": "Brazil",
            "connectivity": true
        },
        {
            "lon": -42.2506,
            "lat": -20.3836,
            "school_name": "EE PADRE BENTO DE SOUZA LIMA",
            "country_name": "Brazil",
            "connectivity": true
        },
        {
            "lon": -46.1306,
            "lat": -22.028,
            "school_name": "EM JOAQUIM GABRIEL DO NASCIMENTO",
            "country_name": "Brazil",
            "connectivity": true
        },
        {
            "lon": -46.6076,
            "lat": -23.7449,
            "school_name": "DOMINGOS PEIXOTO DA SILVA PROFESSOR",
            "country_name": "Brazil",
            "connectivity": true
        },
        {
            "lon": -47.4638,
            "lat": -19.2283,
            "school_name": "EE PROFESSOR LEAO COELHO DE ALMEIDA",
            "country_name": "Brazil",
            "connectivity": true
        },
        {
            "lon": -51.9681,
            "lat": -23.4259,
            "school_name": "ELVIRA B DOS SANTOS E E EF",
            "country_name": "Brazil",
            "connectivity": true
        },
        {
            "lon": -42.3972,
            "lat": -21.1399,
            "school_name": "EM CANDIDO PORTINARI",
            "country_name": "Brazil",
            "connectivity": true
        },
        {
            "lon": -52.9538,
            "lat": -29.3439,
            "school_name": "ESC EST ENS FUN ZOILA PORTELA",
            "country_name": "Brazil",
            "connectivity": true
        },
        {
            "lon": -50.2067,
            "lat": -25.0914,
            "school_name": "ELZIRA C DE SA C E PROFA EF M PROFIS",
            "country_name": "Brazil",
            "connectivity": true
        },
        {
            "lon": -42.8851,
            "lat": -20.7676,
            "school_name": "EE PROFESSOR CID BATISTA EJA",
            "country_name": "Brazil",
            "connectivity": true
        },
        {
            "lon": -46.824,
            "lat": -23.6289,
            "school_name": "PARQUE JANE II",
            "country_name": "Brazil",
            "connectivity": true
        },
        {
            "lon": -41.4817,
            "lat": -17.07,
            "school_name": "CENTRO MUNICIPAL PADRE JULIO GAMBOA",
            "country_name": "Brazil",
            "connectivity": true
        },
        {
            "lon": -37.6865,
            "lat": -9.8059,
            "school_name": "COLEGIO ESTADUAL PROFESSOR JUSTINIANO DE MELO E SILVA",
            "country_name": "Brazil",
            "connectivity": true
        },
        {
            "lon": -40.9354,
            "lat": -17.0804,
            "school_name": "CEMEI AQUARELA",
            "country_name": "Brazil",
            "connectivity": true
        },
        {
            "lon": -40.6637,
            "lat": -18.5211,
            "school_name": "EMPEF MARIA PAGEL STORARI",
            "country_name": "Brazil",
            "connectivity": true
        },
        {
            "lon": -40.4695,
            "lat": -19.4421,
            "school_name": "EMUEF ALTO PATRAO-MOR",
            "country_name": "Brazil",
            "connectivity": true
        },
        {
            "lon": -40.3547,
            "lat": -18.1284,
            "school_name": "EMEF MARIA CLEMENTINA VELLOSO SANTOS",
            "country_name": "Brazil",
            "connectivity": true
        },
        {
            "lon": -72.6429,
            "lat": -7.631,
            "school_name": "ESC VISCONDE DO RIO BRANCO",
            "country_name": "Brazil",
            "connectivity": true
        },
        {
            "lon": -37.1188,
            "lat": -11.0685,
            "school_name": "ESCOLA ESTADUAL MANOEL DIONIZIO DE SANTANA",
            "country_name": "Brazil",
            "connectivity": true
        },
        {
            "lon": -40.8439,
            "lat": -21.0894,
            "school_name": "EMEF LAGOA DANTA",
            "country_name": "Brazil",
            "connectivity": true
        },
        {
            "lon": -41.0195,
            "lat": -19.69,
            "school_name": "CMEI FRANCISCO JOAO DA SILVA - NEGUINHO",
            "country_name": "Brazil",
            "connectivity": true
        },
        {
            "lon": -51.1906,
            "lat": -29.9581,
            "school_name": "EMEF CEL FRANCISCO PINTO BANDEIRA",
            "country_name": "Brazil",
            "connectivity": true
        },
        {
            "lon": -43.8316,
            "lat": -22.4941,
            "school_name": "CE SENADOR PAULO FERNANDES",
            "country_name": "Brazil",
            "connectivity": true
        },
        {
            "lon": -44.7599,
            "lat": -23.2493,
            "school_name": "E M CORISQUINHO",
            "country_name": "Brazil",
            "connectivity": false
        },
        {
            "lon": -43.4018,
            "lat": -22.3206,
            "school_name": "CE RIBEIRO DE AVELAR",
            "country_name": "Brazil",
            "connectivity": true
        },
        {
            "lon": -46.3473,
            "lat": -23.4824,
            "school_name": "AUGUSTO DOS SANTOS VEREADOR EM",
            "country_name": "Brazil",
            "connectivity": true
        },
        {
            "lon": -46.9417,
            "lat": -23.5619,
            "school_name": "HEITOR VILLA LOBOS MAESTRO CEMEB",
            "country_name": "Brazil",
            "connectivity": true
        },
        {
            "lon": -43.2186,
            "lat": -22.8801,
            "school_name": "0101008 ESCOLA MUNICIPAL MARECHAL ESPERIDIAO ROSAS",
            "country_name": "Brazil",
            "connectivity": true
        },
        {
            "lon": -44.4671,
            "lat": -13.6229,
            "school_name": "EE - COLEGIO ESTADUAL FRANCISCO MOREIRA ALVES",
            "country_name": "Brazil",
            "connectivity": true
        },
        {
            "lon": -52.1009,
            "lat": -21.7655,
            "school_name": "SEMENTE DO AMANHA EMEFEI",
            "country_name": "Brazil",
            "connectivity": true
        },
        {
            "lon": -43.3746,
            "lat": -22.9481,
            "school_name": "0716606 CRECHE MUNICIPAL AMIGUINHOS DA VILA SAPE",
            "country_name": "Brazil",
            "connectivity": true
        },
        {
            "lon": -48.5259,
            "lat": -20.7118,
            "school_name": "SUZEL POLIZELLI MILANI PROFA EMEF",
            "country_name": "Brazil",
            "connectivity": true
        },
        {
            "lon": -42.675,
            "lat": -22.3341,
            "school_name": "COLEGIO MUNICIPAL CEFFA REI ALBERTO I",
            "country_name": "Brazil",
            "connectivity": true
        },
        {
            "lon": -34.8827,
            "lat": -8.0849,
            "school_name": "ESCOLA LUIS DE CAMOES",
            "country_name": "Brazil",
            "connectivity": true
        },
        {
            "lon": -42.9793,
            "lat": -22.8831,
            "school_name": "ESCOLA MUNICIPAL PASTOR MAURO ISRAEL MOREIRA",
            "country_name": "Brazil",
            "connectivity": true
        },
        {
            "lon": -39.4808,
            "lat": -9.8439,
            "school_name": "EE - COLEGIO ESTADUAL NOSSA SENHORA AUXILIADORA - TEMPO INTEGRAL",
            "country_name": "Brazil",
            "connectivity": true
        },
        {
            "lon": -47.4888,
            "lat": -23.5032,
            "school_name": "JOSE REGINATO PROFESSOR",
            "country_name": "Brazil",
            "connectivity": true
        },
        {
            "lon": -46.8028,
            "lat": -23.5934,
            "school_name": "LOURIVAL GOMES MACHADO PROFESSOR",
            "country_name": "Brazil",
            "connectivity": true
        },
        {
            "lon": -46.5183,
            "lat": -23.4506,
            "school_name": "EPG - EPG CRISPINIANO SOARES",
            "country_name": "Brazil",
            "connectivity": true
        },
        {
            "lon": -46.68,
            "lat": -23.5308,
            "school_name": "EMEI SANTOS DUMONT",
            "country_name": "Brazil",
            "connectivity": true
        },
        {
            "lon": -46.7502,
            "lat": -23.6391,
            "school_name": "EMEI CARLOS DE LAET",
            "country_name": "Brazil",
            "connectivity": true
        },
        {
            "lon": -48.8131,
            "lat": -21.5967,
            "school_name": "AVERALDO PAPUCCI EMEI",
            "country_name": "Brazil",
            "connectivity": true
        },
        {
            "lon": -50.6926,
            "lat": -21.8594,
            "school_name": "LUCIA VIOLIN DE GIULLI EMEIEF",
            "country_name": "Brazil",
            "connectivity": true
        },
        {
            "lon": -51.7428,
            "lat": -29.573,
            "school_name": "ESC MUN ENS FUN PRUDENCIO FRANKLIN DOS REIS",
            "country_name": "Brazil",
            "connectivity": true
        },
        {
            "lon": -46.7952,
            "lat": -22.8779,
            "school_name": "IRINEU TOBIAS PROF EMEF",
            "country_name": "Brazil",
            "connectivity": true
        },
        {
            "lon": -46.4134,
            "lat": -23.9559,
            "school_name": "ANUAR FRAYHA PROF EMEI",
            "country_name": "Brazil",
            "connectivity": true
        },
        {
            "lon": -48.5989,
            "lat": -23.7931,
            "school_name": "SANTINA LOPES DE BARROS EM",
            "country_name": "Brazil",
            "connectivity": true
        },
        {
            "lon": -47.3317,
            "lat": -23.4958,
            "school_name": "TADEUSZ JOZEFCZYK EM",
            "country_name": "Brazil",
            "connectivity": true
        },
        {
            "lon": -47.2518,
            "lat": -22.9408,
            "school_name": "MIGUEL JALBUT EM",
            "country_name": "Brazil",
            "connectivity": true
        },
        {
            "lon": -47.0355,
            "lat": -23.1373,
            "school_name": "BAIRRO DA MINA EMEFEI",
            "country_name": "Brazil",
            "connectivity": true
        },
        {
            "lon": -50.3529,
            "lat": -21.3001,
            "school_name": "ENRIQUETA TERENCE DONA CENTRO DE EDUCACAO INFANTIL",
            "country_name": "Brazil",
            "connectivity": true
        },
        {
            "lon": -46.7605,
            "lat": -23.6899,
            "school_name": "CEI DIRET JARDIM KAGOHARA",
            "country_name": "Brazil",
            "connectivity": true
        },
        {
            "lon": -51.2411,
            "lat": -26.95,
            "school_name": "EEB ANISIO RACHADEL DE OLIVEIRA",
            "country_name": "Brazil",
            "connectivity": true
        },
        {
            "lon": -46.393,
            "lat": -23.5279,
            "school_name": "EMEI WILSON REIS SANTOS",
            "country_name": "Brazil",
            "connectivity": true
        },
        {
            "lon": -46.7362,
            "lat": -23.437,
            "school_name": "EMEI ZELIA GATTAI",
            "country_name": "Brazil",
            "connectivity": true
        },
        {
            "lon": -47.4677,
            "lat": -23.5002,
            "school_name": "CEL JTO A EE JULIO PRESTES DE ALBUQUERQUE DOUTOR",
            "country_name": "Brazil",
            "connectivity": true
        },
        {
            "lon": -47.6218,
            "lat": -22.7641,
            "school_name": "EUNICE APARECIDA RODRIGUES PROFESSORA ESCOLA MUNICIPAL",
            "country_name": "Brazil",
            "connectivity": true
        },
        {
            "lon": -51.4297,
            "lat": -21.5186,
            "school_name": "SONHO DE CRIANCA CENTRO EDUCACIONAL INFANTIL",
            "country_name": "Brazil",
            "connectivity": true
        },
        {
            "lon": -50.7842,
            "lat": -29.5566,
            "school_name": "EMEF BAIRRO MOINHO",
            "country_name": "Brazil",
            "connectivity": true
        },
        {
            "lon": -46.9392,
            "lat": -22.2746,
            "school_name": "CENTRO DE EDUCACAO INFANTIL MARIA PIGOZZI MENDES",
            "country_name": "Brazil",
            "connectivity": true
        },
        {
            "lon": -46.4181,
            "lat": -23.4222,
            "school_name": "ANTONIO PRATICI PREFEITO",
            "country_name": "Brazil",
            "connectivity": true
        },
        {
            "lon": -51.1449,
            "lat": -29.6811,
            "school_name": "EMEF DR JACOB KROEFF NETO",
            "country_name": "Brazil",
            "connectivity": true
        },
        {
            "lon": -47.3635,
            "lat": -21.9435,
            "school_name": "CRECHE MUNICIPAL PROF OSCAR AUGUSTO GUELLI",
            "country_name": "Brazil",
            "connectivity": true
        },
        {
            "lon": -38.3333,
            "lat": -12.6938,
            "school_name": "EE - COLEGIO ESTADUAL CIDADE DE CAMACARI",
            "country_name": "Brazil",
            "connectivity": true
        },
        {
            "lon": -46.7707,
            "lat": -1.0483,
            "school_name": "EEEFM MARIO QUEIROZ DO ROSARIO",
            "country_name": "Brazil",
            "connectivity": true
        },
        {
            "lon": -40.0707,
            "lat": -19.3987,
            "school_name": "EMEF PRESIDENTE CASTELO BRANCO",
            "country_name": "Brazil",
            "connectivity": true
        },
        {
            "lon": -40.2914,
            "lat": -20.3533,
            "school_name": "UMEI MARIA RITA NEVES MORAES",
            "country_name": "Brazil",
            "connectivity": true
        },
        {
            "lon": -40.4612,
            "lat": -20.4221,
            "school_name": "EMEF ORESTES SOUTO NOVAES",
            "country_name": "Brazil",
            "connectivity": true
        },
        {
            "lon": -53.3025,
            "lat": -24.806,
            "school_name": "GABRIEL DE LARA E M EI EF",
            "country_name": "Brazil",
            "connectivity": true
        },
        {
            "lon": -41.9937,
            "lat": -22.5903,
            "school_name": "CE BARRA DE SAO JOAO",
            "country_name": "Brazil",
            "connectivity": true
        },
        {
            "lon": -52.7131,
            "lat": -26.2339,
            "school_name": "SAO JOAO C M E I",
            "country_name": "Brazil",
            "connectivity": true
        },
        {
            "lon": -40.4982,
            "lat": -9.4627,
            "school_name": "ESCOLA MUNICIPAL DE EDUCACAO INFANTIL ANTONIO GUILHERMINO",
            "country_name": "Brazil",
            "connectivity": true
        },
        {
            "lon": -48.4493,
            "lat": -25.6508,
            "school_name": "TARTARUGA VERDE C M E I",
            "country_name": "Brazil",
            "connectivity": true
        },
        {
            "lon": -51.4412,
            "lat": -23.9936,
            "school_name": "CRIANCA FELIZ C M E I",
            "country_name": "Brazil",
            "connectivity": true
        },
        {
            "lon": -49.0246,
            "lat": -26.4755,
            "school_name": "EMEF E PE IARO EUGENIO HANSCH",
            "country_name": "Brazil",
            "connectivity": true
        },
        {
            "lon": -49.5069,
            "lat": -27.4484,
            "school_name": "EEB PRESIDENTE TANCREDO NEVES",
            "country_name": "Brazil",
            "connectivity": true
        },
        {
            "lon": -49.8381,
            "lat": -26.8853,
            "school_name": "CENTRO DE EDUCACAO INFANTIL CHAPEUZINHO VERMELHO",
            "country_name": "Brazil",
            "connectivity": true
        },
        {
            "lon": -51.9038,
            "lat": -27.3721,
            "school_name": "UD DE PERITIBA",
            "country_name": "Brazil",
            "connectivity": true
        },
        {
            "lon": -55.8183,
            "lat": -29.8006,
            "school_name": "ESC EST ENS FUN ECILDA ALVES PAIM",
            "country_name": "Brazil",
            "connectivity": true
        },
        {
            "lon": -55.202,
            "lat": -28.5415,
            "school_name": "ESCOLA MUNICIPAL DE ENSINO FUNDAMENTAL SAO JOAQUIM",
            "country_name": "Brazil",
            "connectivity": false
        },
        {
            "lon": -53.6147,
            "lat": -29.9937,
            "school_name": "EMEF LA SALLE",
            "country_name": "Brazil",
            "connectivity": true
        },
        {
            "lon": -51.5138,
            "lat": -29.2554,
            "school_name": "EMEF VISCONDE DE CAIRU",
            "country_name": "Brazil",
            "connectivity": true
        },
        {
            "lon": -51.7477,
            "lat": -29.3752,
            "school_name": "ESC MUN DE ENS FUND OLAVO BILAC",
            "country_name": "Brazil",
            "connectivity": true
        },
        {
            "lon": -52.0704,
            "lat": -29.2329,
            "school_name": "EMEF HENRIQUE PEDO",
            "country_name": "Brazil",
            "connectivity": false
        },
        {
            "lon": -52.3505,
            "lat": -31.7234,
            "school_name": "EMEF OSVALDO CRUZ",
            "country_name": "Brazil",
            "connectivity": true
        },
        {
            "lon": -43.6587,
            "lat": -18.4456,
            "school_name": "EE JOAO HERMENEGILDO CALDEIRA",
            "country_name": "Brazil",
            "connectivity": true
        },
        {
            "lon": -54.6868,
            "lat": -28.1218,
            "school_name": "EMEF NOSSA SENHORA AUXILIADORA",
            "country_name": "Brazil",
            "connectivity": true
        },
        {
            "lon": -50.2118,
            "lat": -30.1896,
            "school_name": "CAE - CENTRO DE ATENCAO AO EDUCANDO",
            "country_name": "Brazil",
            "connectivity": true
        },
        {
            "lon": -54.3752,
            "lat": -18.6449,
            "school_name": "EM ANTONIO TORQUATO DA SILVA - POLO",
            "country_name": "Brazil",
            "connectivity": true
        },
        {
            "lon": -56.0252,
            "lat": -15.5579,
            "school_name": "EMEB PROF FIRMO JOSE RODRIGUES",
            "country_name": "Brazil",
            "connectivity": true
        },
        {
            "lon": -56.1552,
            "lat": -15.6256,
            "school_name": "CMEI PROF",
            "country_name": "Brazil",
            "connectivity": true
        },
        {
            "lon": -49.4259,
            "lat": -26.1021,
            "school_name": "MARCIANO DE CARVALHO E M EI EF",
            "country_name": "Brazil",
            "connectivity": true
        },
        {
            "lon": -42.7956,
            "lat": -20.7866,
            "school_name": "EE CAPITAO ARNALDO DIAS ANDRADE",
            "country_name": "Brazil",
            "connectivity": true
        },
        {
            "lon": -51.7315,
            "lat": -17.882,
            "school_name": "ESCOLA MUNICIPAL ANTONIO TOSTA DE CARVALHO",
            "country_name": "Brazil",
            "connectivity": true
        },
        {
            "lon": -44.1645,
            "lat": -22.5233,
            "school_name": "ESCOLA MUNICIPAL VEREADOR ALDERANDO CASALLI MARQUES",
            "country_name": "Brazil",
            "connectivity": true
        },
        {
            "lon": -41.6644,
            "lat": -2.881,
            "school_name": "U E RICARDO AUGUSTO VELOSO",
            "country_name": "Brazil",
            "connectivity": true
        },
        {
            "lon": -41.7629,
            "lat": -2.9264,
            "school_name": "E MUNICIPAL DE EDUCACAO INFANTIL TIA ERINELDA",
            "country_name": "Brazil",
            "connectivity": true
        },
        {
            "lon": -42.6375,
            "lat": -21.5334,
            "school_name": "ESCOLA MUNICIPAL RIBEIRO JUNQUEIRA",
            "country_name": "Brazil",
            "connectivity": true
        },
        {
            "lon": -49.2589,
            "lat": -16.5957,
            "school_name": "CENTRO DE EDUCACAO INFANTIL ASSUNCAO",
            "country_name": "Brazil",
            "connectivity": true
        },
        {
            "lon": -47.6574,
            "lat": -15.6642,
            "school_name": "EC APRODARMAS",
            "country_name": "Brazil",
            "connectivity": true
        },
        {
            "lon": -40.8343,
            "lat": -7.083,
            "school_name": "U E ALICE ROCHA",
            "country_name": "Brazil",
            "connectivity": true
        },
        {
            "lon": -38.5632,
            "lat": -3.708,
            "school_name": "ESCOLA MUNICIPAL SEBASTIANA ALDIGUERI",
            "country_name": "Brazil",
            "connectivity": true
        },
        {
            "lon": -40.1439,
            "lat": -14.7945,
            "school_name": "ESCOLA INTEGRADA PROFESSORA ANA BRITO",
            "country_name": "Brazil",
            "connectivity": true
        },
        {
            "lon": -48.0645,
            "lat": -4.7786,
            "school_name": "E M E F PROF\u00aa MARIA LEI MIRANDA COLARES",
            "country_name": "Brazil",
            "connectivity": true
        },
        {
            "lon": -50.4623,
            "lat": -25.3763,
            "school_name": "JOAO NEGRAO JR C E EF M PROF",
            "country_name": "Brazil",
            "connectivity": true
        },
        {
            "lon": -41.9779,
            "lat": -11.5403,
            "school_name": "EE - COLEGIO ESTADUAL DO CAMPO DE IBITITA",
            "country_name": "Brazil",
            "connectivity": true
        },
        {
            "lon": -38.5127,
            "lat": -12.9848,
            "school_name": "EE - COLEGIO ESTADUAL SENHOR DO BONFIM",
            "country_name": "Brazil",
            "connectivity": true
        },
        {
            "lon": -52.4221,
            "lat": -23.0648,
            "school_name": "EDITH EBINER ECKERT E M C PROFA EI EF",
            "country_name": "Brazil",
            "connectivity": true
        },
        {
            "lon": -35.0819,
            "lat": -6.8054,
            "school_name": "ECI LUIZ GONZAGA BURITY",
            "country_name": "Brazil",
            "connectivity": true
        },
        {
            "lon": -47.084,
            "lat": -21.7756,
            "school_name": "FRANCISCO THOMAZ DE CARVALHO DOUTOR",
            "country_name": "Brazil",
            "connectivity": true
        },
        {
            "lon": -60.1095,
            "lat": -12.7377,
            "school_name": "EEEF PROFESSOR LUIZ CARLOS PAULA ASSIS",
            "country_name": "Brazil",
            "connectivity": true
        },
        {
            "lon": -46.4787,
            "lat": -23.121,
            "school_name": "MANOEL FERRAZ PROFESSOR",
            "country_name": "Brazil",
            "connectivity": true
        },
        {
            "lon": -44.0843,
            "lat": -2.5329,
            "school_name": "CENTRO DE ENSINO PIRES COLLINS",
            "country_name": "Brazil",
            "connectivity": true
        },
        {
            "lon": -56.7302,
            "lat": -2.6366,
            "school_name": "ESCOLA MUNICIPAL DA PAZ DE PARINTINS",
            "country_name": "Brazil",
            "connectivity": true
        },
        {
            "lon": -45.414,
            "lat": -13.4802,
            "school_name": "ESCOLA MUNICIPAL MARIA CONCEICAO NEVES RAMOS",
            "country_name": "Brazil",
            "connectivity": true
        },
        {
            "lon": -46.8526,
            "lat": -23.0269,
            "school_name": "ROSA MASETTI PALADINO CEMEI",
            "country_name": "Brazil",
            "connectivity": true
        },
        {
            "lon": -43.3043,
            "lat": -22.8491,
            "school_name": "0514804 EDI VICENTE DE CARVALHO",
            "country_name": "Brazil",
            "connectivity": true
        },
        {
            "lon": -63.8306,
            "lat": -10.2002,
            "school_name": "EEEMTI MARECHAL RONDON",
            "country_name": "Brazil",
            "connectivity": true
        },
        {
            "lon": -52.7986,
            "lat": -24.5934,
            "school_name": "ROBERTO BRZEZINSKI E M EF",
            "country_name": "Brazil",
            "connectivity": true
        },
        {
            "lon": -43.3819,
            "lat": -22.81,
            "school_name": "E MUNICIPALIZADA DR CHRISTOVAM BERBEREIA",
            "country_name": "Brazil",
            "connectivity": true
        },
        {
            "lon": -51.0383,
            "lat": -23.2641,
            "school_name": "UNIDADE POLO C E EF M P",
            "country_name": "Brazil",
            "connectivity": true
        },
        {
            "lon": -39.7389,
            "lat": -14.1258,
            "school_name": "CENTRO INTEGRADO DE ENSINO PROFESSOR ALTINO COSME DE CERQUEIRA",
            "country_name": "Brazil",
            "connectivity": true
        },
        {
            "lon": -46.4565,
            "lat": -23.6688,
            "school_name": "MAUA VISCONDE DE",
            "country_name": "Brazil",
            "connectivity": true
        },
        {
            "lon": -54.7451,
            "lat": -1.9429,
            "school_name": "E M E I F PROFESSORA CONSTANCIA TOMAZIA DOS SANTOS",
            "country_name": "Brazil",
            "connectivity": true
        },
        {
            "lon": -55.1541,
            "lat": -1.5499,
            "school_name": "E M E I F SAO DAMIAO",
            "country_name": "Brazil",
            "connectivity": true
        },
        {
            "lon": -54.7056,
            "lat": -2.4284,
            "school_name": "EEEFM FREI OTHMAR",
            "country_name": "Brazil",
            "connectivity": true
        },
        {
            "lon": -54.2134,
            "lat": -1.9458,
            "school_name": "C M E I VOVO CHIQUINHA",
            "country_name": "Brazil",
            "connectivity": true
        },
        {
            "lon": -53.3504,
            "lat": -22.2444,
            "school_name": "CEINF - PEQUENO PRINCIPE",
            "country_name": "Brazil",
            "connectivity": true
        },
        {
            "lon": -44.4951,
            "lat": -5.2973,
            "school_name": "CENTRO DE ENSINO GOVERNADOR LUIS ROCHA",
            "country_name": "Brazil",
            "connectivity": true
        },
        {
            "lon": -54.2481,
            "lat": -25.0904,
            "school_name": "DIVINA PROVIDENCIA C M E I",
            "country_name": "Brazil",
            "connectivity": true
        },
        {
            "lon": -44.556,
            "lat": -7.2312,
            "school_name": "CENT EDUC ALDINEIDE DE SOUSA LIMA",
            "country_name": "Brazil",
            "connectivity": true
        },
        {
            "lon": -40.0647,
            "lat": -6.7706,
            "school_name": "ANTONIO CORREIA LIMA ESCOLA DE ENSINO FUNDAMENTAL",
            "country_name": "Brazil",
            "connectivity": true
        },
        {
            "lon": -38.5638,
            "lat": -3.7952,
            "school_name": "ESCOLA MUNICIPAL SAGRADO CORACAO",
            "country_name": "Brazil",
            "connectivity": true
        },
        {
            "lon": -43.6728,
            "lat": -19.888,
            "school_name": "EE JOSE BRANDAO",
            "country_name": "Brazil",
            "connectivity": true
        },
        {
            "lon": -44.9,
            "lat": -20.1505,
            "school_name": "EE HALIM SOUKI",
            "country_name": "Brazil",
            "connectivity": true
        },
        {
            "lon": -37.919,
            "lat": -6.0932,
            "school_name": "CENTRO EDUC PROFA RITA BALIZA ALVES",
            "country_name": "Brazil",
            "connectivity": true
        },
        {
            "lon": -41.8385,
            "lat": -19.6816,
            "school_name": "EE ANTONIO PENNA SOBRINHO",
            "country_name": "Brazil",
            "connectivity": true
        },
        {
            "lon": -35.8777,
            "lat": -7.2337,
            "school_name": "CRECHE MUNICIPAL ZEFERINA GAUDENCIO",
            "country_name": "Brazil",
            "connectivity": true
        },
        {
            "lon": -34.9258,
            "lat": -7.1489,
            "school_name": "EMEF MARIA DO CARMO DA SILVEIRA LIMA",
            "country_name": "Brazil",
            "connectivity": true
        },
        {
            "lon": -48.2663,
            "lat": -18.911,
            "school_name": "EE SEIS DE JUNHO",
            "country_name": "Brazil",
            "connectivity": true
        },
        {
            "lon": -37.8088,
            "lat": -6.7815,
            "school_name": "ESC MUN ENS FUND POETA BELARMINO DE FRANCA",
            "country_name": "Brazil",
            "connectivity": true
        },
        {
            "lon": -38.2304,
            "lat": -6.7559,
            "school_name": "EMEF CLOTARIO DE PAIVA GADELHA",
            "country_name": "Brazil",
            "connectivity": true
        },
        {
            "lon": -38.5467,
            "lat": -6.4551,
            "school_name": "CENTRO DE EDUCACAO INFANTIL GESSICA ALVES MARTINS",
            "country_name": "Brazil",
            "connectivity": true
        },
        {
            "lon": -34.9936,
            "lat": -8.1077,
            "school_name": "ESCOLA BENJAMIN CONSTANT",
            "country_name": "Brazil",
            "connectivity": true
        }
    ],
    "num_countries": 11,
    "countries": [
        "Brazil",
        "Colombia",
        "Costa Rica",
        "Honduras",
        "Kazakhstan",
        "Kyrgyzstan",
        "Namibia",
        "Palestine",
        "Philippines",
        "Rwanda",
        "Zimbabwe"
    ],
    "schools_no_data": [
        {
            "lon": 5.2567139,
            "lat": 14.8876221,
            "school_name": "Ecole Dimitaou",
            "country_name": "Niger",
            "connectivity": false
        },
        {
            "lon": -58.35182862,
            "lat": -34.64889971,
            "school_name": "CENTRO DE ADULTOS N\u00ba716/04",
            "country_name": "Argentina",
            "connectivity": false
        },
        {
            "lon": -7.715566,
            "lat": 4.373523,
            "school_name": "Cape Palmas High School",
            "country_name": "Liberia",
            "connectivity": false
        },
        {
            "lon": -8.561938,
            "lat": 7.650224,
            "school_name": "Gbeleyee Public",
            "country_name": "Liberia",
            "connectivity": false
        },
        {
            "lon": 21.48314582,
            "lat": -6.615788456,
            "school_name": "INST KALUKALA",
            "country_name": "Democratic Republic of the Congo",
            "connectivity": false
        },
        {
            "lon": -0.8530774,
            "lat": 9.4009539,
            "school_name": "Name unknown",
            "country_name": "Ghana",
            "connectivity": false
        },
        {
            "lon": -0.1992453,
            "lat": 5.5654304,
            "school_name": "Name unknown",
            "country_name": "Ghana",
            "connectivity": false
        },
        {
            "lon": 36.2122937,
            "lat": 16.15479815,
            "school_name": "Name unknown",
            "country_name": "Sudan",
            "connectivity": false
        },
        {
            "lon": 33.3989811333333,
            "lat": 15.0912591166667,
            "school_name": "Name unknown",
            "country_name": "Sudan",
            "connectivity": false
        },
        {
            "lon": 34.110766,
            "lat": 12.508035,
            "school_name": "Name unknown",
            "country_name": "Sudan",
            "connectivity": false
        },
        {
            "lon": 34.64087448,
            "lat": 11.22275672,
            "school_name": "Name unknown",
            "country_name": "Sudan",
            "connectivity": false
        },
        {
            "lon": -1.7610123,
            "lat": 4.8802865,
            "school_name": "Name unknown",
            "country_name": "Ghana",
            "connectivity": false
        },
        {
            "lon": -1.8504292,
            "lat": 9.2522103,
            "school_name": "Name unknown",
            "country_name": "Ghana",
            "connectivity": false
        },
        {
            "lon": 0.5366954,
            "lat": 7.9320181,
            "school_name": "Name unknown",
            "country_name": "Ghana",
            "connectivity": false
        },
        {
            "lon": 34.5154701,
            "lat": 0.7813857,
            "school_name": "Friends Primary School Kimabole",
            "country_name": "Kenya",
            "connectivity": false
        },
        {
            "lon": 0.0603627,
            "lat": 8.7937261,
            "school_name": "Name unknown",
            "country_name": "Ghana",
            "connectivity": false
        },
        {
            "lon": 40.14405,
            "lat": -10.60306,
            "school_name": "BANDARI",
            "country_name": "United Republic of Tanzania",
            "connectivity": false
        },
        {
            "lon": 37.56666,
            "lat": -3.02136,
            "school_name": "NANJARA",
            "country_name": "United Republic of Tanzania",
            "connectivity": false
        },
        {
            "lon": 34.66643,
            "lat": -8.9755,
            "school_name": "ITENI",
            "country_name": "United Republic of Tanzania",
            "connectivity": false
        },
        {
            "lon": 33.79977,
            "lat": -9.14972,
            "school_name": "ITETE-LUTEBA",
            "country_name": "United Republic of Tanzania",
            "connectivity": false
        },
        {
            "lon": 39.35011,
            "lat": -10.48178,
            "school_name": "MANGOMBYA",
            "country_name": "United Republic of Tanzania",
            "connectivity": false
        },
        {
            "lon": 21.47424817,
            "lat": 44.92758952,
            "school_name": "\u0421\u0430\u0432\u0430 \u041c\u0443\u043d\u045b\u0430\u043d",
            "country_name": "Serbia",
            "connectivity": false
        },
        {
            "lon": 1.402827,
            "lat": 6.186938,
            "school_name": "CEPE AGBAVI",
            "country_name": "Togo",
            "connectivity": false
        },
        {
            "lon": 0.585139,
            "lat": 9.328648,
            "school_name": "JEP BITCHABE",
            "country_name": "Togo",
            "connectivity": false
        },
        {
            "lon": 1.187861667,
            "lat": 6.244173333,
            "school_name": "EPL J. J. ROUSSEAU (LA RELEVE) G/A",
            "country_name": "Togo",
            "connectivity": false
        },
        {
            "lon": 1.285286,
            "lat": 6.635389,
            "school_name": "EPP HAHO-TOVE",
            "country_name": "Togo",
            "connectivity": false
        },
        {
            "lon": 1.24111,
            "lat": 6.286726667,
            "school_name": "EPE TONOUKOUTI",
            "country_name": "Togo",
            "connectivity": false
        },
        {
            "lon": 1.162247,
            "lat": 7.428662,
            "school_name": "EPP SODOGAHOE",
            "country_name": "Togo",
            "connectivity": false
        },
        {
            "lon": 0.640244,
            "lat": 6.893261,
            "school_name": "EPP KPALIME 30 AOUT G/B",
            "country_name": "Togo",
            "connectivity": false
        },
        {
            "lon": 1.19339,
            "lat": 9.179885,
            "school_name": "EPP AMAIDE TCHAVALIM",
            "country_name": "Togo",
            "connectivity": false
        },
        {
            "lon": 0.702624,
            "lat": 9.732265,
            "school_name": "EPP ARAGO TE",
            "country_name": "Togo",
            "connectivity": false
        },
        {
            "lon": 1.18712,
            "lat": 6.17788,
            "school_name": "CPL ELITE INTELLECTUELLE",
            "country_name": "Togo",
            "connectivity": false
        },
        {
            "lon": 1.299458,
            "lat": 6.293221,
            "school_name": "CEG DZOGBLAKOPE",
            "country_name": "Togo",
            "connectivity": false
        },
        {
            "lon": 19.36958313,
            "lat": 44.35879157,
            "school_name": "\u0411\u043e\u0440\u0438\u0432\u043e\u0458\u0435 \u0416. \u041c\u0438\u043b\u043e\u0458\u0435\u0432\u0438\u045b",
            "country_name": "Serbia",
            "connectivity": false
        },
        {
            "lon": 20.071764,
            "lat": 44.292497,
            "school_name": "\u041c\u0438\u043b\u0430\u043d \u0420\u0430\u043a\u0438\u045b",
            "country_name": "Serbia",
            "connectivity": false
        },
        {
            "lon": 21.42233133,
            "lat": 44.73255088,
            "school_name": "\u0418\u0432\u043e \u041b\u043e\u043b\u0430 \u0420\u0438\u0431\u0430\u0440",
            "country_name": "Serbia",
            "connectivity": false
        },
        {
            "lon": 34.06255,
            "lat": -3.41244,
            "school_name": "MWANINDO",
            "country_name": "United Republic of Tanzania",
            "connectivity": false
        },
        {
            "lon": 39.34478,
            "lat": -6.86215,
            "school_name": "UNGINDONI",
            "country_name": "United Republic of Tanzania",
            "connectivity": false
        },
        {
            "lon": 33.42731,
            "lat": -3.64458,
            "school_name": "MWADUI",
            "country_name": "United Republic of Tanzania",
            "connectivity": false
        },
        {
            "lon": 0.168084,
            "lat": 10.65715,
            "school_name": "CEG BOGOU",
            "country_name": "Togo",
            "connectivity": false
        },
        {
            "lon": 34.16785294,
            "lat": -10.44329612,
            "school_name": "Katambabanthu",
            "country_name": "Malawi",
            "connectivity": false
        },
        {
            "lon": 33.57429306,
            "lat": -13.53507167,
            "school_name": "Mkuyu Primary School",
            "country_name": "Malawi",
            "connectivity": false
        },
        {
            "lon": 35.58916974,
            "lat": -15.72577365,
            "school_name": "Chinjika",
            "country_name": "Malawi",
            "connectivity": false
        },
        {
            "lon": 34.9354856,
            "lat": -16.12570478,
            "school_name": "Mzongwe",
            "country_name": "Malawi",
            "connectivity": false
        },
        {
            "lon": 34.18468158,
            "lat": -11.49736224,
            "school_name": "Mwambazi",
            "country_name": "Malawi",
            "connectivity": false
        },
        {
            "lon": 25.40721015,
            "lat": 0.464577029,
            "school_name": "EP LOMATA",
            "country_name": "Democratic Republic of the Congo",
            "connectivity": false
        },
        {
            "lon": 29.74213195,
            "lat": -7.26019549,
            "school_name": "INST  KASEBA",
            "country_name": "Democratic Republic of the Congo",
            "connectivity": false
        },
        {
            "lon": 7.341416941,
            "lat": 5.89389505,
            "school_name": "Name unknown",
            "country_name": "Nigeria",
            "connectivity": false
        },
        {
            "lon": 24.1781017,
            "lat": -3.484280644,
            "school_name": "INST DJOKO DAMAS",
            "country_name": "Democratic Republic of the Congo",
            "connectivity": false
        },
        {
            "lon": 15.36353128,
            "lat": -4.374338784,
            "school_name": "INST DES ELITES",
            "country_name": "Democratic Republic of the Congo",
            "connectivity": false
        },
        {
            "lon": 29.10566944,
            "lat": -3.991616667,
            "school_name": "EP KIBUNDU",
            "country_name": "Democratic Republic of the Congo",
            "connectivity": false
        },
        {
            "lon": 28.97015822,
            "lat": -2.287466847,
            "school_name": "EP ISHUNGU",
            "country_name": "Democratic Republic of the Congo",
            "connectivity": false
        },
        {
            "lon": 23.62151322,
            "lat": -6.12162639,
            "school_name": "COLLEGE  ISRAEL",
            "country_name": "Democratic Republic of the Congo",
            "connectivity": false
        },
        {
            "lon": -64.334823,
            "lat": -19.505408,
            "school_name": "OSCAR ALFARO",
            "country_name": "Bolivia (Plurinational State of)",
            "connectivity": false
        },
        {
            "lon": -68.756539,
            "lat": -15.506109,
            "school_name": "CONCHUPATA",
            "country_name": "Bolivia (Plurinational State of)",
            "connectivity": false
        },
        {
            "lon": -100.94982,
            "lat": 20.48771,
            "school_name": "PLANTEL CONALEP 233. CORTAZAR",
            "country_name": "Mexico",
            "connectivity": false
        },
        {
            "lon": -98.956697,
            "lat": 18.81729,
            "school_name": "INSTITUTO AZTECA DE FORMACION EMPRESARIAL",
            "country_name": "Mexico",
            "connectivity": false
        },
        {
            "lon": -15.95047,
            "lat": 18.11079,
            "school_name": "INARA",
            "country_name": "Mauritania",
            "connectivity": false
        },
        {
            "lon": 33.16974,
            "lat": 0.93006,
            "school_name": "UMEA JUNIOR P/S",
            "country_name": "Uganda",
            "connectivity": false
        },
        {
            "lon": 33.22518,
            "lat": 0.75034,
            "school_name": "LULYAMBUZI PR.SCHOOL",
            "country_name": "Uganda",
            "connectivity": false
        },
        {
            "lon": 31.18511,
            "lat": -0.39282,
            "school_name": "ST JOSEPH KALEGERO PRIM SCHOOL",
            "country_name": "Uganda",
            "connectivity": false
        },
        {
            "lon": 33.08181,
            "lat": 0.28766,
            "school_name": "ASTRAID FAITH P/S",
            "country_name": "Uganda",
            "connectivity": false
        },
        {
            "lon": 32.75177,
            "lat": 0.5157,
            "school_name": "NAKANYONYI S SCH",
            "country_name": "Uganda",
            "connectivity": false
        },
        {
            "lon": 32.58395,
            "lat": 0.35897,
            "school_name": "St. Paul's Kyebando COU P.S",
            "country_name": "Uganda",
            "connectivity": false
        },
        {
            "lon": 30.31712,
            "lat": 0.65323,
            "school_name": "Ngombe P.S.",
            "country_name": "Uganda",
            "connectivity": false
        },
        {
            "lon": 32.3018,
            "lat": 0.21835,
            "school_name": "LUJUMBA",
            "country_name": "Uganda",
            "connectivity": false
        },
        {
            "lon": 30.96989,
            "lat": 3.09867,
            "school_name": "Oriajini P.7 School",
            "country_name": "Uganda",
            "connectivity": false
        },
        {
            "lon": 31.14761,
            "lat": 2.65735,
            "school_name": "Okollo P.S.",
            "country_name": "Uganda",
            "connectivity": false
        },
        {
            "lon": 31.91573,
            "lat": 3.36706,
            "school_name": "Olia",
            "country_name": "Uganda",
            "connectivity": false
        },
        {
            "lon": 34.25531,
            "lat": 2.22065,
            "school_name": "Lorengecora P.S.",
            "country_name": "Uganda",
            "connectivity": false
        },
        {
            "lon": 30.77553,
            "lat": -25.09737,
            "school_name": "Angels Park Academy",
            "country_name": "South Africa",
            "connectivity": false
        },
        {
            "lon": 30.9692,
            "lat": -25.48071,
            "school_name": "Ureative Minds",
            "country_name": "South Africa",
            "connectivity": false
        },
        {
            "lon": 18.50999,
            "lat": -33.95895,
            "school_name": "College of Cape Town",
            "country_name": "South Africa",
            "connectivity": false
        },
        {
            "lon": 19.88579,
            "lat": -33.99985,
            "school_name": "Buffelskloof Sskv Primary School",
            "country_name": "South Africa",
            "connectivity": false
        },
        {
            "lon": 18.68106,
            "lat": -34.00664,
            "school_name": "Mfuleni Primary School",
            "country_name": "South Africa",
            "connectivity": false
        },
        {
            "lon": 19.00437,
            "lat": -33.70154,
            "school_name": "Rainbow Educare Centre",
            "country_name": "South Africa",
            "connectivity": false
        },
        {
            "lon": 30.36001,
            "lat": -30.2369,
            "school_name": "Saint Michael's Primary School",
            "country_name": "South Africa",
            "connectivity": false
        },
        {
            "lon": 25.60259,
            "lat": -33.95057,
            "school_name": "Excelsior Primary School",
            "country_name": "South Africa",
            "connectivity": false
        },
        {
            "lon": 30.69579,
            "lat": -27.58734,
            "school_name": "Kaleni Combined Primary School",
            "country_name": "South Africa",
            "connectivity": false
        },
        {
            "lon": 30.50316,
            "lat": -24.2076,
            "school_name": "Malebalong Primary",
            "country_name": "South Africa",
            "connectivity": false
        },
        {
            "lon": 31.85864,
            "lat": -28.7545,
            "school_name": "Amangwe High School",
            "country_name": "South Africa",
            "connectivity": false
        },
        {
            "lon": 31.8591,
            "lat": -28.79814,
            "school_name": "Masakhane High School",
            "country_name": "South Africa",
            "connectivity": false
        },
        {
            "lon": 30.90912,
            "lat": -29.81264,
            "school_name": "Star College",
            "country_name": "South Africa",
            "connectivity": false
        },
        {
            "lon": 30.93257,
            "lat": -29.7501,
            "school_name": "Mandlakazulu Senior Primary School",
            "country_name": "South Africa",
            "connectivity": false
        },
        {
            "lon": 28.01558,
            "lat": -26.08008,
            "school_name": "Mabopane Secondary School",
            "country_name": "South Africa",
            "connectivity": false
        },
        {
            "lon": 28.02376,
            "lat": -26.05519,
            "school_name": "Greenwich College",
            "country_name": "South Africa",
            "connectivity": false
        },
        {
            "lon": 28.21267,
            "lat": -26.0211,
            "school_name": "Nyiko Primary School",
            "country_name": "South Africa",
            "connectivity": false
        },
        {
            "lon": 25.3828,
            "lat": -33.80879,
            "school_name": "JN Tulwana Primary School",
            "country_name": "South Africa",
            "connectivity": false
        },
        {
            "lon": 28.72017,
            "lat": -32.37306,
            "school_name": "Mgxabakazi Junior Secondary School",
            "country_name": "South Africa",
            "connectivity": false
        },
        {
            "lon": 28.93598,
            "lat": -31.08083,
            "school_name": "Gqunu Junior Secondary School",
            "country_name": "South Africa",
            "connectivity": false
        },
        {
            "lon": 29.81901,
            "lat": -31.26438,
            "school_name": "Gebuza Junior Secondary School",
            "country_name": "South Africa",
            "connectivity": false
        },
        {
            "lon": 29.57482,
            "lat": -31.28537,
            "school_name": "Botha Sigcau Secondary School",
            "country_name": "South Africa",
            "connectivity": false
        },
        {
            "lon": 29.05575,
            "lat": -30.05083,
            "school_name": "Saint Columbus Combined School",
            "country_name": "South Africa",
            "connectivity": false
        },
        {
            "lon": -89.617181,
            "lat": 20.987492,
            "school_name": "MODELO",
            "country_name": "Mexico",
            "connectivity": false
        },
        {
            "lon": 35.31930084,
            "lat": -15.39810816,
            "school_name": "Bwaila",
            "country_name": "Malawi",
            "connectivity": false
        },
        {
            "lon": -58.71921527,
            "lat": -34.54767708,
            "school_name": "JARDIN DE INFANTES INDEPENDENCIA",
            "country_name": "Argentina",
            "connectivity": false
        },
        {
            "lon": -58.63662562,
            "lat": -34.65439373,
            "school_name": "ESCUELA PRIMARIA N\u00ba17 GENERAL SAN MARTIN",
            "country_name": "Argentina",
            "connectivity": false
        },
        {
            "lon": -67.26548,
            "lat": -28.28203,
            "school_name": "ESCUELA N\u00b0 258",
            "country_name": "Argentina",
            "connectivity": false
        },
        {
            "lon": -58.25558029,
            "lat": -34.74504212,
            "school_name": "ESCUELA TECNICA N\u00ba1 PABELLON NACIONAL ARGENTIO",
            "country_name": "Argentina",
            "connectivity": false
        },
        {
            "lon": -58.37929498,
            "lat": -34.80278371,
            "school_name": "CENTRO DE ADULTOS N\u00ba727/10",
            "country_name": "Argentina",
            "connectivity": false
        },
        {
            "lon": -58.41008482,
            "lat": -34.70044053,
            "school_name": "INSTITUTO CAPITAN PEDRO GIACHINO",
            "country_name": "Argentina",
            "connectivity": false
        },
        {
            "lon": -67.02689664,
            "lat": -27.65466622,
            "school_name": "ESCUELA SECUNDARIA N\u00b018 EJERCITO DE LOS ANDES",
            "country_name": "Argentina",
            "connectivity": false
        },
        {
            "lon": -61.68383311,
            "lat": -24.42433102,
            "school_name": "PRIM.ADULTOS N\u00ba 69",
            "country_name": "Argentina",
            "connectivity": false
        },
        {
            "lon": -64.36661882,
            "lat": -33.0959309,
            "school_name": "I.P.E.M. N\u00ba 29 FELIPE GALIZIA",
            "country_name": "Argentina",
            "connectivity": false
        },
        {
            "lon": -58.7294314,
            "lat": -24.9250397,
            "school_name": "EPEP N\u00ba358 JUAN BAUTISTA CABRAL",
            "country_name": "Argentina",
            "connectivity": false
        },
        {
            "lon": -61.54133564,
            "lat": -23.55716016,
            "school_name": "EPEP N\u00ba533 (EX 189A)",
            "country_name": "Argentina",
            "connectivity": false
        },
        {
            "lon": -79.9722,
            "lat": -5.90072,
            "school_name": "10189 PASAJE NORTE",
            "country_name": "Peru",
            "connectivity": false
        },
        {
            "lon": -65.79435195,
            "lat": -23.16919875,
            "school_name": "CENTRO DE CAPACITACION LABORAL",
            "country_name": "Argentina",
            "connectivity": false
        },
        {
            "lon": -66.60081747,
            "lat": -30.8080285,
            "school_name": "ESC.N\u00b0090",
            "country_name": "Argentina",
            "connectivity": false
        },
        {
            "lon": -77.0404,
            "lat": -12.0464,
            "school_name": "1147 ANDRES ROSALES VALENCIA",
            "country_name": "Peru",
            "connectivity": false
        },
        {
            "lon": -55.03920066,
            "lat": -27.62254698,
            "school_name": "ESC. N\u00b0 461 DOCTOR HECTOR BARREYRO",
            "country_name": "Argentina",
            "connectivity": false
        },
        {
            "lon": -54.59017072,
            "lat": -25.62112979,
            "school_name": "ESC. N\u00b0 778 PABLO AREGUATI",
            "country_name": "Argentina",
            "connectivity": false
        },
        {
            "lon": -67.9928332,
            "lat": -38.9379721,
            "school_name": "INSTITUTO NUESTRA SE\u00d1ORA DE FATIMA",
            "country_name": "Argentina",
            "connectivity": false
        },
        {
            "lon": -75.0711,
            "lat": -12.259,
            "school_name": "35022",
            "country_name": "Peru",
            "connectivity": false
        },
        {
            "lon": -64.71427428,
            "lat": -22.99723058,
            "school_name": "INFANTIL DE CORTADERAS EX N\u00b0 207",
            "country_name": "Argentina",
            "connectivity": false
        },
        {
            "lon": -78.7885,
            "lat": -6.53599,
            "school_name": "355",
            "country_name": "Peru",
            "connectivity": false
        },
        {
            "lon": -61.48809576,
            "lat": -33.46011045,
            "school_name": "INST. SUPERIOR PART. INC. NRO 9088 VIRGEN DE LA MERCED",
            "country_name": "Argentina",
            "connectivity": false
        },
        {
            "lon": -61.96603356,
            "lat": -33.74301033,
            "school_name": "ESCUELA PART. INC. NRO 1023 SANTA ROSA",
            "country_name": "Argentina",
            "connectivity": false
        },
        {
            "lon": -76.9387,
            "lat": -9.8989,
            "school_name": "459",
            "country_name": "Peru",
            "connectivity": false
        },
        {
            "lon": 5.669774,
            "lat": 5.896518,
            "school_name": "Name unknown",
            "country_name": "Nigeria",
            "connectivity": false
        },
        {
            "lon": 5.682592,
            "lat": 5.882146,
            "school_name": "Name unknown",
            "country_name": "Nigeria",
            "connectivity": false
        },
        {
            "lon": 5.734576,
            "lat": 5.567423,
            "school_name": "Name unknown",
            "country_name": "Nigeria",
            "connectivity": false
        },
        {
            "lon": 5.751223,
            "lat": 5.543058,
            "school_name": "Name unknown",
            "country_name": "Nigeria",
            "connectivity": false
        },
        {
            "lon": 7.411721,
            "lat": 5.244035,
            "school_name": "Name unknown",
            "country_name": "Nigeria",
            "connectivity": false
        },
        {
            "lon": 7.426795318,
            "lat": 5.118687738,
            "school_name": "Name unknown",
            "country_name": "Nigeria",
            "connectivity": false
        },
        {
            "lon": 7.454651667,
            "lat": 5.982755,
            "school_name": "Name unknown",
            "country_name": "Nigeria",
            "connectivity": false
        },
        {
            "lon": 7.438965,
            "lat": 5.979343333,
            "school_name": "Name unknown",
            "country_name": "Nigeria",
            "connectivity": false
        },
        {
            "lon": 7.497154,
            "lat": 5.517107,
            "school_name": "Name unknown",
            "country_name": "Nigeria",
            "connectivity": false
        },
        {
            "lon": 12.81130133,
            "lat": 11.22437397,
            "school_name": "Name unknown",
            "country_name": "Nigeria",
            "connectivity": false
        },
        {
            "lon": 8.096457,
            "lat": 6.284318,
            "school_name": "Name unknown",
            "country_name": "Nigeria",
            "connectivity": false
        },
        {
            "lon": 8.124261667,
            "lat": 6.60983,
            "school_name": "Name unknown",
            "country_name": "Nigeria",
            "connectivity": false
        },
        {
            "lon": 7.9743067,
            "lat": 6.153415,
            "school_name": "Name unknown",
            "country_name": "Nigeria",
            "connectivity": false
        },
        {
            "lon": 8.2182533,
            "lat": 6.0343983,
            "school_name": "Name unknown",
            "country_name": "Nigeria",
            "connectivity": false
        },
        {
            "lon": 12.42027694,
            "lat": 10.46372739,
            "school_name": "Name unknown",
            "country_name": "Nigeria",
            "connectivity": false
        },
        {
            "lon": 6.331949,
            "lat": 6.710949,
            "school_name": "Name unknown",
            "country_name": "Nigeria",
            "connectivity": false
        },
        {
            "lon": 6.407529,
            "lat": 6.501305,
            "school_name": "Name unknown",
            "country_name": "Nigeria",
            "connectivity": false
        },
        {
            "lon": 5.226903,
            "lat": 7.614817,
            "school_name": "Name unknown",
            "country_name": "Nigeria",
            "connectivity": false
        },
        {
            "lon": 5.322008333,
            "lat": 7.457995,
            "school_name": "Name unknown",
            "country_name": "Nigeria",
            "connectivity": false
        },
        {
            "lon": 7.567678333,
            "lat": 6.243321667,
            "school_name": "Name unknown",
            "country_name": "Nigeria",
            "connectivity": false
        },
        {
            "lon": 7.567456,
            "lat": 6.242411,
            "school_name": "Name unknown",
            "country_name": "Nigeria",
            "connectivity": false
        },
        {
            "lon": 7.50469,
            "lat": 8.973755,
            "school_name": "Name unknown",
            "country_name": "Nigeria",
            "connectivity": false
        },
        {
            "lon": 11.6474,
            "lat": 9.735925,
            "school_name": "Name unknown",
            "country_name": "Nigeria",
            "connectivity": false
        },
        {
            "lon": 11.21656,
            "lat": 10.27108,
            "school_name": "Name unknown",
            "country_name": "Nigeria",
            "connectivity": false
        },
        {
            "lon": -76.8853,
            "lat": -5.99023,
            "school_name": "910",
            "country_name": "Peru",
            "connectivity": false
        },
        {
            "lon": -77.1037,
            "lat": -5.84156,
            "school_name": "971",
            "country_name": "Peru",
            "connectivity": false
        },
        {
            "lon": -76.7493,
            "lat": -6.40069,
            "school_name": "394",
            "country_name": "Peru",
            "connectivity": false
        },
        {
            "lon": -76.7888,
            "lat": -7.66637,
            "school_name": "0434 DESIDERIO RUIZ SOTO",
            "country_name": "Peru",
            "connectivity": false
        },
        {
            "lon": -79.6436,
            "lat": -5.94248,
            "school_name": "10196 NUESTRA SE\u00d1ORA DEL CARMEN",
            "country_name": "Peru",
            "connectivity": false
        },
        {
            "lon": -78.8475,
            "lat": -6.6504,
            "school_name": "10665",
            "country_name": "Peru",
            "connectivity": false
        },
        {
            "lon": -79.6654,
            "lat": -4.60336,
            "school_name": "132",
            "country_name": "Peru",
            "connectivity": false
        },
        {
            "lon": -80.2897,
            "lat": -4.43871,
            "school_name": "14838",
            "country_name": "Peru",
            "connectivity": false
        },
        {
            "lon": -77.3915,
            "lat": -8.12758,
            "school_name": "1627 SAGRADO CORAZON DE JESUS",
            "country_name": "Peru",
            "connectivity": false
        },
        {
            "lon": -78.4018,
            "lat": -5.619,
            "school_name": "16283",
            "country_name": "Peru",
            "connectivity": false
        },
        {
            "lon": -78.9031,
            "lat": -5.1233,
            "school_name": "16978",
            "country_name": "Peru",
            "connectivity": false
        },
        {
            "lon": -76.9452,
            "lat": -12.0326,
            "school_name": "218 LAS SEMILLITAS",
            "country_name": "Peru",
            "connectivity": false
        },
        {
            "lon": -76.1571,
            "lat": -13.6719,
            "school_name": "22468 MARIA PARADO DE BELLIDO",
            "country_name": "Peru",
            "connectivity": false
        },
        {
            "lon": -75.3848,
            "lat": -14.0243,
            "school_name": "22601",
            "country_name": "Peru",
            "connectivity": false
        },
        {
            "lon": -76.9331,
            "lat": -12.1908,
            "school_name": "648",
            "country_name": "Peru",
            "connectivity": false
        },
        {
            "lon": 1.452016667,
            "lat": 8.435901667,
            "school_name": "EPP PARIS-COPE",
            "country_name": "Togo",
            "connectivity": false
        },
        {
            "lon": -76.2134,
            "lat": -9.73982,
            "school_name": "33420",
            "country_name": "Peru",
            "connectivity": false
        },
        {
            "lon": -70.3953,
            "lat": -13.0658,
            "school_name": "358 PUERTO PUNKIRI",
            "country_name": "Peru",
            "connectivity": false
        },
        {
            "lon": -74.6479,
            "lat": -12.1537,
            "school_name": "36815",
            "country_name": "Peru",
            "connectivity": false
        },
        {
            "lon": -74.2184,
            "lat": -13.1668,
            "school_name": "432-20 EL RETABLITO",
            "country_name": "Peru",
            "connectivity": false
        },
        {
            "lon": -78.917,
            "lat": -6.72041,
            "school_name": "465",
            "country_name": "Peru",
            "connectivity": false
        },
        {
            "lon": -73.5957,
            "lat": -13.4403,
            "school_name": "485",
            "country_name": "Peru",
            "connectivity": false
        },
        {
            "lon": -72.3992,
            "lat": -13.8623,
            "school_name": "50700 YADQUIRI",
            "country_name": "Peru",
            "connectivity": false
        },
        {
            "lon": -79.1679,
            "lat": -6.73059,
            "school_name": "543",
            "country_name": "Peru",
            "connectivity": false
        },
        {
            "lon": -71.2701,
            "lat": -14.2335,
            "school_name": "566",
            "country_name": "Peru",
            "connectivity": false
        },
        {
            "lon": -72.1599,
            "lat": -3.56144,
            "school_name": "60370",
            "country_name": "Peru",
            "connectivity": false
        },
        {
            "lon": -75.2764,
            "lat": -4.23919,
            "school_name": "60605",
            "country_name": "Peru",
            "connectivity": false
        },
        {
            "lon": -74.5094,
            "lat": -5.53593,
            "school_name": "60708",
            "country_name": "Peru",
            "connectivity": false
        },
        {
            "lon": -77.3187,
            "lat": -3.65381,
            "school_name": "62311",
            "country_name": "Peru",
            "connectivity": false
        },
        {
            "lon": -77.1438,
            "lat": -11.8816,
            "school_name": "CONEJITOS",
            "country_name": "Peru",
            "connectivity": false
        },