{
    "name": "Patchwork Kingdom #804 | Giyamas",
    "description": "The twin kingdoms of Giyamas, separated by a digital divide. A bustling kingdom of 88 schools on top that are all connected to the internet, and 69 schools, not connected, hidden in the upside down kingdom | Created for Giga (GigaConnect.org) \u2014 connecting every school in the world \u2014 in celebration of UNICEF's 75th birthday, by Nadieh Bremer",
    "external_url": "https://dummyURL.com/patchwork_kingdoms_804",
    "image": "https://dummy-storage-url.com/patchwork_kingdoms_804.png",
    "attributes": [
        {
            "trait_type": "Color palette",
            "value": "slime"
        },
        {
            "display_type": "number",
            "trait_type": "Schools",
            "value": 174,
            "max_value": 460
        },
        {
            "display_type": "number",
            "trait_type": "Ratio - Connected",
            "value": 0.51,
            "max_value": 1
        },
        {
            "display_type": "number",
            "trait_type": "Ratio - Unconnected",
            "value": 0.4,
            "max_value": 1
        },
        {
            "display_type": "number",
            "trait_type": "Ratio - Data unavailable",
            "value": 0.1,
            "max_value": 1
        },
        {
            "trait_type": "Countries",
            "value": "BJ-BR-CO-CR-HN-KG-KZ-PH-PS-RW-SL-ZW"
        },
        {
            "display_type": "number",
            "trait_type": "Symbols",
            "value": 39,
            "max_value": 51
        }
    ],
    "cluster_id": 804,
    "num_schools": 174,
    "num_schools_connected": 88,
    "num_schools_unconnected": 69,
    "num_schools_unknown": 17,
    "schools": [
        {
            "lon": -87.861,
            "lat": 14.25625,
            "school_name": "RAYITO DE LUZ",
            "country_name": "Honduras",
            "connectivity": true
        },
        {
            "lon": -35.8952,
            "lat": -7.2214,
            "school_name": "EEEF NOSSA SENHORA DO ROSARIO",
            "country_name": "Brazil",
            "connectivity": true
        },
        {
            "lon": -54.2124,
            "lat": -23.0715,
            "school_name": "EMEF PROF\u00aa MARIA DE LOURDES AQUINO SOTANA",
            "country_name": "Brazil",
            "connectivity": true
        },
        {
            "lon": -73.203853,
            "lat": 10.127552,
            "school_name": "ESC. NUEVA ARROYO DE AGUA",
            "country_name": "Colombia",
            "connectivity": true
        },
        {
            "lon": -87.99808,
            "lat": 14.69306,
            "school_name": "EMELDO BUSTILLO MALDONADO",
            "country_name": "Honduras",
            "connectivity": true
        },
        {
            "lon": -85.7457,
            "lat": 13.99569,
            "school_name": "JOSE CECILIO DEL VALLE",
            "country_name": "Honduras",
            "connectivity": true
        },
        {
            "lon": -85.91123,
            "lat": 14.1595,
            "school_name": "FRANCISCO ROMERO RODRIGUEZ",
            "country_name": "Honduras",
            "connectivity": true
        },
        {
            "lon": 31.12026,
            "lat": -18.02432,
            "school_name": "TASIMUKIRA",
            "country_name": "Zimbabwe",
            "connectivity": true
        },
        {
            "lon": 32.39787,
            "lat": -19.22281,
            "school_name": "CHIBVUWENYU PRIMARY",
            "country_name": "Zimbabwe",
            "connectivity": true
        },
        {
            "lon": -52.8891,
            "lat": -3.4589,
            "school_name": "EMEF EVANI WAGNER",
            "country_name": "Brazil",
            "connectivity": true
        },
        {
            "lon": -77.76444444,
            "lat": 7.433333333,
            "school_name": "IE SAN ROQUE DE LA FRONTERA - SEDE PRINCIPAL",
            "country_name": "Colombia",
            "connectivity": true
        },
        {
            "lon": 29.3888055,
            "lat": -1.9868333,
            "school_name": "GS BUMBA",
            "country_name": "Rwanda",
            "connectivity": true
        },
        {
            "lon": -84.5364734,
            "lat": 10.97655833,
            "school_name": "PUEBLO NUEVO",
            "country_name": "Costa Rica",
            "connectivity": true
        },
        {
            "lon": -84.04193579,
            "lat": 9.78818912,
            "school_name": "SAN JOAQUIN",
            "country_name": "Costa Rica",
            "connectivity": true
        },
        {
            "lon": -85.77146293,
            "lat": 10.46029791,
            "school_name": "PUERTO POTRERO",
            "country_name": "Costa Rica",
            "connectivity": true
        },
        {
            "lon": -82.93700964,
            "lat": 8.90444781,
            "school_name": "BELLA VISTA",
            "country_name": "Costa Rica",
            "connectivity": true
        },
        {
            "lon": 35.212646,
            "lat": 31.892586,
            "school_name": "albera aljadeeda secondry boys",
            "country_name": "Palestine",
            "connectivity": true
        },
        {
            "lon": 35.106024,
            "lat": 31.448797,
            "school_name": "Shohada' Yatta Sec girls",
            "country_name": "Palestine",
            "connectivity": true
        },
        {
            "lon": 35.074105,
            "lat": 31.527431,
            "school_name": "Alreyad alnamothajeyeh",
            "country_name": "Palestine",
            "connectivity": true
        },
        {
            "lon": -74.1201292,
            "lat": 4.67041126,
            "school_name": "Name unknown",
            "country_name": "Colombia",
            "connectivity": false
        },
        {
            "lon": 30.0569,
            "lat": -16.95961,
            "school_name": "GUDUBU",
            "country_name": "Zimbabwe",
            "connectivity": true
        },
        {
            "lon": 31.06672,
            "lat": -20.48235,
            "school_name": "MANDINI PRIMARY",
            "country_name": "Zimbabwe",
            "connectivity": true
        },
        {
            "lon": 27.08521,
            "lat": -18.30357,
            "school_name": "KAMATIVI",
            "country_name": "Zimbabwe",
            "connectivity": true
        },
        {
            "lon": 28.46247,
            "lat": -20.93637,
            "school_name": "SHASHANE",
            "country_name": "Zimbabwe",
            "connectivity": true
        },
        {
            "lon": -47.3647,
            "lat": -22.7575,
            "school_name": "NEUZA MARIA NAZATTO DE CARVALHO PROFA",
            "country_name": "Brazil",
            "connectivity": true
        },
        {
            "lon": -46.6091,
            "lat": -23.5788,
            "school_name": "CEI DIRET MONUMENTO",
            "country_name": "Brazil",
            "connectivity": true
        },
        {
            "lon": -75.58622338,
            "lat": 6.208892915,
            "school_name": "Name unknown",
            "country_name": "Colombia",
            "connectivity": false
        },
        {
            "lon": 118.742577,
            "lat": 9.783909,
            "school_name": "FRANCISCO UBAY MEMORIAL ELEM SCHOOL",
            "country_name": "Philippines",
            "connectivity": true
        },
        {
            "lon": 124.994601,
            "lat": 10.99842149,
            "school_name": "Camitoc Elementary",
            "country_name": "Philippines",
            "connectivity": true
        },
        {
            "lon": 125.06938,
            "lat": 11.771494,
            "school_name": "Tabucan PS",
            "country_name": "Philippines",
            "connectivity": true
        },
        {
            "lon": 124.8044546,
            "lat": 10.3973755,
            "school_name": "Tambis PS",
            "country_name": "Philippines",
            "connectivity": true
        },
        {
            "lon": 125.046471,
            "lat": 7.418219,
            "school_name": "Mikasili PS",
            "country_name": "Philippines",
            "connectivity": true
        },
        {
            "lon": 125.371094,
            "lat": 6.548935,
            "school_name": "Tagansule ES",
            "country_name": "Philippines",
            "connectivity": true
        },
        {
            "lon": 125.315376,
            "lat": 6.076019,
            "school_name": "Nop ES",
            "country_name": "Philippines",
            "connectivity": true
        },
        {
            "lon": 125.52449,
            "lat": 9.679887,
            "school_name": "Mabuhay ES",
            "country_name": "Philippines",
            "connectivity": true
        },
        {
            "lon": 120.573154,
            "lat": 16.31108345,
            "school_name": "Paran Laruan ES",
            "country_name": "Philippines",
            "connectivity": true
        },
        {
            "lon": 124.150143,
            "lat": 9.761929,
            "school_name": "Batuan NHS",
            "country_name": "Philippines",
            "connectivity": true
        },
        {
            "lon": -45.903656,
            "lat": -19.82789,
            "school_name": "C INF MUN TIA LOLO",
            "country_name": "Brazil",
            "connectivity": false
        },
        {
            "lon": -40.392418,
            "lat": -20.346375,
            "school_name": "EMEF NILTON GOMES",
            "country_name": "Brazil",
            "connectivity": true
        },
        {
            "lon": -87.92573,
            "lat": 14.80205,
            "school_name": "EDUARDO MENDEZ",
            "country_name": "Honduras",
            "connectivity": true
        },
        {
            "lon": 123.3321962,
            "lat": 13.55823918,
            "school_name": "San Antonio ES",
            "country_name": "Philippines",
            "connectivity": true
        },
        {
            "lon": -71.287493,
            "lat": 6.982234,
            "school_name": "BOCAS DEL CARANAL",
            "country_name": "Colombia",
            "connectivity": true
        },
        {
            "lon": -72.6460983,
            "lat": 8.209521196,
            "school_name": "SAN CARLOS",
            "country_name": "Colombia",
            "connectivity": true
        },
        {
            "lon": -72.86722222,
            "lat": 6.425555556,
            "school_name": "ESCUELA RURAL CORRALEJAS",
            "country_name": "Colombia",
            "connectivity": true
        },
        {
            "lon": -73.13495729,
            "lat": 6.556952395,
            "school_name": "COLEGIO NI\u00d1A MARIA",
            "country_name": "Colombia",
            "connectivity": true
        },
        {
            "lon": -73.13372004,
            "lat": 7.404014853,
            "school_name": "ESCUELA RURAL LA ESPUMA",
            "country_name": "Colombia",
            "connectivity": true
        },
        {
            "lon": -73.74836621,
            "lat": 4.993249849,
            "school_name": "ESCUELA RURAL  EL GRANADILLO",
            "country_name": "Colombia",
            "connectivity": true
        },
        {
            "lon": -74.55285859,
            "lat": 4.903719727,
            "school_name": "ESCUELA RURAL GUAT\u00c9",
            "country_name": "Colombia",
            "connectivity": true
        },
        {
            "lon": -76.998889,
            "lat": 1.559444,
            "school_name": "CENTRO EDUCATIVO EL APOSENTO",
            "country_name": "Colombia",
            "connectivity": true
        },
        {
            "lon": -77.79504439,
            "lat": 0.931885129,
            "school_name": "CENTRO EDUCATIVO SAN JUDAS",
            "country_name": "Colombia",
            "connectivity": true
        },
        {
            "lon": -77.63156325,
            "lat": 1.281644063,
            "school_name": "CENTRO EDUCATIVO CIRO AGUSTIN",
            "country_name": "Colombia",
            "connectivity": true
        },
        {
            "lon": -61.9124,
            "lat": -10.9063,
            "school_name": "CMEIEF PARQUE DOS PIONEIROS",
            "country_name": "Brazil",
            "connectivity": true
        },
        {
            "lon": -67.9467,
            "lat": -3.1002,
            "school_name": "ESCOLA ESTADUAL DEUZALINA PINTO RIBEIRO",
            "country_name": "Brazil",
            "connectivity": true
        },
        {
            "lon": -46.4229,
            "lat": -1.2027,
            "school_name": "E M E F VITALINA DA COSTA MONTEIRO",
            "country_name": "Brazil",
            "connectivity": false
        },
        {
            "lon": -46.7193,
            "lat": -1.2082,
            "school_name": "E M E F BENEDITO ALVES DE MIRANDA",
            "country_name": "Brazil",
            "connectivity": false
        },
        {
            "lon": -51.1594,
            "lat": -30.063,
            "school_name": "ESC EST ENS FUN PROF EDGAR LUIZ SCHNEIDER",
            "country_name": "Brazil",
            "connectivity": true
        },
        {
            "lon": -53.5995,
            "lat": -3.9342,
            "school_name": "E M E F MONTE SINAY",
            "country_name": "Brazil",
            "connectivity": false
        },
        {
            "lon": -53.3862,
            "lat": -29.8255,
            "school_name": "EMEF LEONOR PIRES DE MACEDO",
            "country_name": "Brazil",
            "connectivity": true
        },
        {
            "lon": -47.0346,
            "lat": -1.5768,
            "school_name": "CRECHE MUNICIPAL PINGO DE GENTE",
            "country_name": "Brazil",
            "connectivity": false
        },
        {
            "lon": -47.499,
            "lat": -2.5584,
            "school_name": "E M E I IRINEU RODRIGUES DE FARIAS",
            "country_name": "Brazil",
            "connectivity": true
        },
        {
            "lon": -44.5261,
            "lat": -3.2803,
            "school_name": "EM GONCALVES DIAS",
            "country_name": "Brazil",
            "connectivity": false
        },
        {
            "lon": -43.8649,
            "lat": -3.9056,
            "school_name": "EMEB JOAO ROQUE",
            "country_name": "Brazil",
            "connectivity": false
        },
        {
            "lon": -42.9431,
            "lat": -4.1553,
            "school_name": "EM MAE SALVADOR",
            "country_name": "Brazil",
            "connectivity": false
        },
        {
            "lon": -48.8173,
            "lat": -20.8841,
            "school_name": "SATURNINA ROSA SECHES EMEF",
            "country_name": "Brazil",
            "connectivity": true
        },
        {
            "lon": -41.0034,
            "lat": -7.9612,
            "school_name": "ESC MUL ANTONIO JOSE DA CRUZ",
            "country_name": "Brazil",
            "connectivity": true
        },
        {
            "lon": -38.4693,
            "lat": -4.1671,
            "school_name": "RAIMUNDO NOGUEIRA DE QUEIROZ EEF",
            "country_name": "Brazil",
            "connectivity": true
        },
        {
            "lon": -39.5814,
            "lat": -6.3967,
            "school_name": "MARIA GOMES DA SILVA EEIEF",
            "country_name": "Brazil",
            "connectivity": false
        },
        {
            "lon": -39.0767,
            "lat": -6.8181,
            "school_name": "ANTAO CARNEIRO EEIF",
            "country_name": "Brazil",
            "connectivity": false
        },
        {
            "lon": -38.7813,
            "lat": -7.1822,
            "school_name": "ESCOLA MUNICIPAL DE ENSINO FUNDAMENTAL CESAR CALS",
            "country_name": "Brazil",
            "connectivity": true
        },
        {
            "lon": -40.6586,
            "lat": -5.1646,
            "school_name": "ARLINDO VIEIRA CRECHE",
            "country_name": "Brazil",
            "connectivity": true
        },
        {
            "lon": -35.7871,
            "lat": -5.7658,
            "school_name": "EM ANTONIO LINS DE MEDEIROS",
            "country_name": "Brazil",
            "connectivity": false
        },
        {
            "lon": -40.5715,
            "lat": -8.2236,
            "school_name": "ESCOLA MUL ELESBAO DELMONDES TEIXEIRA",
            "country_name": "Brazil",
            "connectivity": false
        },
        {
            "lon": -34.9862,
            "lat": -8.2373,
            "school_name": "CENTRO COMUNITARIO ALTO DOS INDIOS",
            "country_name": "Brazil",
            "connectivity": false
        },
        {
            "lon": -36.3554,
            "lat": -10.0354,
            "school_name": "ESCOLA MUNICIPAL DE EDUCACAO BASICA VEREADOR SEBASTIAO LOURENCO",
            "country_name": "Brazil",
            "connectivity": false
        },
        {
            "lon": -36.667,
            "lat": -9.5354,
            "school_name": "ESCOLA MUNICIPAL JOAO ALVES PIANCO",
            "country_name": "Brazil",
            "connectivity": true
        },
        {
            "lon": -43.2756,
            "lat": -10.8114,
            "school_name": "ESCOLA MUNICIPAL PEDRO PORTELA ARRODEIO",
            "country_name": "Brazil",
            "connectivity": false
        },
        {
            "lon": -39.7066,
            "lat": -14.802,
            "school_name": "GRUPO ESCOLAR PEDRO ALVES DE MATOS",
            "country_name": "Brazil",
            "connectivity": false
        },
        {
            "lon": -39.8627,
            "lat": -18.0108,
            "school_name": "ESCOLA MUNICIPAL SITIO DO PICA PAU AMARELO",
            "country_name": "Brazil",
            "connectivity": true
        },
        {
            "lon": -40.9437,
            "lat": -9.2256,
            "school_name": "ESCOLA SAO JOSE",
            "country_name": "Brazil",
            "connectivity": false
        },
        {
            "lon": -38.3146,
            "lat": -12.7033,
            "school_name": "CENTRO EDUCACIONAL PAULO FREIRE",
            "country_name": "Brazil",
            "connectivity": true
        },
        {
            "lon": -43.2698,
            "lat": -18.6054,
            "school_name": "EM VER JOAO FERREIRA",
            "country_name": "Brazil",
            "connectivity": false
        },
        {
            "lon": -43.3354,
            "lat": -17.358,
            "school_name": "ESCOLA MUNICIPAL ANTONIO AUGUSTO VERSIANI",
            "country_name": "Brazil",
            "connectivity": false
        },
        {
            "lon": -47.8975,
            "lat": -21.8979,
            "school_name": "ADAIL MALMEGRIM GONCALVES PROFESSOR",
            "country_name": "Brazil",
            "connectivity": true
        },
        {
            "lon": -42.2689,
            "lat": -20.7851,
            "school_name": "EE SANTO AGOSTINHO",
            "country_name": "Brazil",
            "connectivity": true
        },
        {
            "lon": -41.9252,
            "lat": -17.3449,
            "school_name": "EM PE EUSTAQUIO",
            "country_name": "Brazil",
            "connectivity": false
        },
        {
            "lon": -40.4302,
            "lat": -15.7982,
            "school_name": "EM VINTE E CINCO DE MAIO",
            "country_name": "Brazil",
            "connectivity": false
        },
        {
            "lon": -44.392,
            "lat": -16.0973,
            "school_name": "CENTRO MUNICIPAL DE EDUCACAO INFANTIL CINDERELA",
            "country_name": "Brazil",
            "connectivity": true
        },
        {
            "lon": -47.5838,
            "lat": -18.8883,
            "school_name": "CEMEI PROFESSORA MARIA DE LOURDES RESENDE RATH",
            "country_name": "Brazil",
            "connectivity": true
        },
        {
            "lon": -41.5025,
            "lat": -20.4297,
            "school_name": "EMEF TERRA CORRIDA",
            "country_name": "Brazil",
            "connectivity": false
        },
        {
            "lon": -40.8941,
            "lat": -18.7573,
            "school_name": "CMEI IRENE RIBEIRO DA SILVA",
            "country_name": "Brazil",
            "connectivity": true
        },
        {
            "lon": -48.6432,
            "lat": -20.913,
            "school_name": "BAIRRO CRUZEIRO",
            "country_name": "Brazil",
            "connectivity": true
        },
        {
            "lon": -45.5293,
            "lat": -22.9392,
            "school_name": "MARIA AMELIA DO PATROCINIO PROFA EMEF",
            "country_name": "Brazil",
            "connectivity": true
        },
        {
            "lon": -50.896,
            "lat": -22.2294,
            "school_name": "UNIDADE DE EDUCACAO INFANTIL MAURI DA CUNHA E SILVA KIA",
            "country_name": "Brazil",
            "connectivity": true
        },
        {
            "lon": -46.5646,
            "lat": -23.7078,
            "school_name": "JULIO DE GRAMMONT EMEB",
            "country_name": "Brazil",
            "connectivity": true
        },
        {
            "lon": -47.7256,
            "lat": -21.1864,
            "school_name": "EPONINA DE BRITTO ROSSETTO PROFA EMEF",
            "country_name": "Brazil",
            "connectivity": true
        },
        {
            "lon": -51.8777,
            "lat": -28.3448,
            "school_name": "COL ESTADUAL DOM ANTONIO MACEDO COSTA",
            "country_name": "Brazil",
            "connectivity": true
        },
        {
            "lon": -47.6094,
            "lat": -22.699,
            "school_name": "CENTRO ATEND SOCIOEDUC ADOLESCENTE PIRACICABA CI",
            "country_name": "Brazil",
            "connectivity": false
        },
        {
            "lon": -50.4822,
            "lat": -21.4003,
            "school_name": "ETORE BATTAGELLO PROFESSOR EMEI",
            "country_name": "Brazil",
            "connectivity": false
        },
        {
            "lon": -50.5168,
            "lat": -21.9441,
            "school_name": "CINTIA DOS REIS OLIVEIRA CMEI",
            "country_name": "Brazil",
            "connectivity": true
        },
        {
            "lon": -45.2709,
            "lat": -22.793,
            "school_name": "DEOSDETE MENDES FRANCA SILVA PROFA EMEIEF",
            "country_name": "Brazil",
            "connectivity": true
        },
        {
            "lon": -52.9901,
            "lat": -22.7614,
            "school_name": "ARCO IRIS C M E I",
            "country_name": "Brazil",
            "connectivity": true
        },
        {
            "lon": -49.0001,
            "lat": -27.4888,
            "school_name": "NUCLEO ESCOLAR MUNICIPAL JOSE JOAO HECK",
            "country_name": "Brazil",
            "connectivity": true
        },
        {
            "lon": -49.4154,
            "lat": -28.6907,
            "school_name": "EMEIEF OSWALDO HULSE",
            "country_name": "Brazil",
            "connectivity": true
        },
        {
            "lon": -43.991,
            "lat": -19.8906,
            "school_name": "EE JORNALISTA JORGE PAES SARDINHA",
            "country_name": "Brazil",
            "connectivity": true
        },
        {
            "lon": -53.7252,
            "lat": -27.1801,
            "school_name": "ESCOLA MUNICIPAL INTEGRAL ESPERANCA",
            "country_name": "Brazil",
            "connectivity": true
        },
        {
            "lon": -48.6253,
            "lat": -26.0694,
            "school_name": "CRECHE MUNICIPAL PRIMEIROS PASSOS",
            "country_name": "Brazil",
            "connectivity": true
        },
        {
            "lon": -52.0003,
            "lat": -28.7798,
            "school_name": "ESC MUN ENS FUN CARLOS BATTISTEL",
            "country_name": "Brazil",
            "connectivity": true
        },
        {
            "lon": -49.4556,
            "lat": -25.4392,
            "school_name": "JOSE ANDREASSA E M VER EI EF",
            "country_name": "Brazil",
            "connectivity": true
        },
        {
            "lon": -52.0479,
            "lat": -25.5669,
            "school_name": "SANTA CLARA C E EF M P N",
            "country_name": "Brazil",
            "connectivity": true
        },
        {
            "lon": -47.7858,
            "lat": -17.9301,
            "school_name": "CENTRO MUNICIPAL DE EDUCACAO INFANTIL EVA FRANCISCA DE MESQUITA",
            "country_name": "Brazil",
            "connectivity": true
        },
        {
            "lon": -48.084,
            "lat": -15.8852,
            "school_name": "EC 502 DE SAMAMBAIA",
            "country_name": "Brazil",
            "connectivity": true
        },
        {
            "lon": -63.023,
            "lat": -9.9321,
            "school_name": "CENTRO MUNICIPAL DE EDUCAO INFANTIL SONHO DE CRIANCA",
            "country_name": "Brazil",
            "connectivity": true
        },
        {
            "lon": -48.507,
            "lat": -21.2556,
            "school_name": "NORIVAL MENDES PROF EMEB",
            "country_name": "Brazil",
            "connectivity": true
        },
        {
            "lon": -54.2475,
            "lat": -25.0899,
            "school_name": "EDUARDO MICHELIS C E PE EF M N",
            "country_name": "Brazil",
            "connectivity": true
        },
        {
            "lon": -46.849,
            "lat": -20.3469,
            "school_name": "EE PROFESSORA NEIVA MARIA LEITE",
            "country_name": "Brazil",
            "connectivity": true
        }
    ],
    "num_countries": 12,
    "countries": [
        "Benin",
        "Brazil",
        "Colombia",
        "Costa Rica",
        "Honduras",
        "Kazakhstan",
        "Kyrgyzstan",
        "Palestine",
        "Philippines",
        "Rwanda",
        "Sierra Leone",
        "Zimbabwe"
    ],
    "schools_no_data": [
        {
            "lon": 20.55619619,
            "lat": -4.319981123,
            "school_name": "INSTITUT ODIA BAKUBAYI",
            "country_name": "Democratic Republic of the Congo",
            "connectivity": false
        },
        {
            "lon": -10.702084,
            "lat": 7.180525,
            "school_name": "Sirleaf Town Public School",
            "country_name": "Liberia",
            "connectivity": false
        },
        {
            "lon": -10.983822,
            "lat": 7.035258,
            "school_name": "Weasay",
            "country_name": "Liberia",
            "connectivity": false
        },
        {
            "lon": -10.605305,
            "lat": 6.22647,
            "school_name": "Mot. Rev. Catherine K. Bowen Edu. Foundation",
            "country_name": "Liberia",
            "connectivity": false
        },
        {
            "lon": -7.94149,
            "lat": 4.914564,
            "school_name": "J. Bardio Godfery Public School",
            "country_name": "Liberia",
            "connectivity": false
        },
        {
            "lon": -8.697627,
            "lat": 6.980469,
            "school_name": "Mlentontuo Public",
            "country_name": "Liberia",
            "connectivity": false
        },
        {
            "lon": 30.28263175,
            "lat": 20.60567948,
            "school_name": "Name unknown",
            "country_name": "Sudan",
            "connectivity": false
        },
        {
            "lon": 33.0915285666667,
            "lat": 15.1975456833333,
            "school_name": "Name unknown",
            "country_name": "Sudan",
            "connectivity": false
        },
        {
            "lon": 33.5811037833333,
            "lat": 13.8612024166667,
            "school_name": "Name unknown",
            "country_name": "Sudan",
            "connectivity": false
        },
        {
            "lon": 32.93562155,
            "lat": 13.12471038,
            "school_name": "Name unknown",
            "country_name": "Sudan",
            "connectivity": false
        },
        {
            "lon": 34.36156658,
            "lat": 11.85246595,
            "school_name": "Name unknown",
            "country_name": "Sudan",
            "connectivity": false
        },
        {
            "lon": 23.0851097,
            "lat": 12.38945303,
            "school_name": "Name unknown",
            "country_name": "Sudan",
            "connectivity": false
        },
        {
            "lon": -0.2684811,
            "lat": 6.1025512,
            "school_name": "Name unknown",
            "country_name": "Ghana",
            "connectivity": false
        },
        {
            "lon": -1.8500238,
            "lat": 9.2524421,
            "school_name": "Name unknown",
            "country_name": "Ghana",
            "connectivity": false
        },
        {
            "lon": -0.1287474,
            "lat": 5.5947862,
            "school_name": "Name unknown",
            "country_name": "Ghana",
            "connectivity": false
        },
        {
            "lon": -0.1324051,
            "lat": 5.6533622,
            "school_name": "Name unknown",
            "country_name": "Ghana",
            "connectivity": false
        },
        {
            "lon": -0.2118114,
            "lat": 5.55525,
            "school_name": "Name unknown",
            "country_name": "Ghana",
            "connectivity": false
        },
        {
            "lon": -0.2873953,
            "lat": 5.789734,
            "school_name": "Name unknown",
            "country_name": "Ghana",
            "connectivity": false
        },
        {
            "lon": -0.1327349,
            "lat": 8.202341,
            "school_name": "Name unknown",
            "country_name": "Ghana",
            "connectivity": false
        },
        {
            "lon": -1.5467033,
            "lat": 5.6035147,
            "school_name": "Name unknown",
            "country_name": "Ghana",
            "connectivity": false
        },
        {
            "lon": -1.675128,
            "lat": 6.9528754,
            "school_name": "Name unknown",
            "country_name": "Ghana",
            "connectivity": false
        },
        {
            "lon": -1.5169984,
            "lat": 6.5642346,
            "school_name": "Name unknown",
            "country_name": "Ghana",
            "connectivity": false
        },
        {
            "lon": 34.02224,
            "lat": -9.39378,
            "school_name": "UTENGULE",
            "country_name": "United Republic of Tanzania",
            "connectivity": false
        },
        {
            "lon": 37.66981,
            "lat": -6.86308,
            "school_name": "TOWERO",
            "country_name": "United Republic of Tanzania",
            "connectivity": false
        },
        {
            "lon": 37.15282,
            "lat": -11.24817,
            "school_name": "MKANDU",
            "country_name": "United Republic of Tanzania",
            "connectivity": false
        },
        {
            "lon": 38.00935,
            "lat": -5.4559,
            "school_name": "JITEGEMEE",
            "country_name": "United Republic of Tanzania",
            "connectivity": false
        },
        {
            "lon": 35.30683,
            "lat": -8.72455,
            "school_name": "MGOLOLO",
            "country_name": "United Republic of Tanzania",
            "connectivity": false
        },
        {
            "lon": 39.12578,
            "lat": -10.87158,
            "school_name": "LUAGALA",
            "country_name": "United Republic of Tanzania",
            "connectivity": false
        },
        {
            "lon": 36.60668,
            "lat": -6.66087,
            "school_name": "NG'HONJE",
            "country_name": "United Republic of Tanzania",
            "connectivity": false
        },
        {
            "lon": 35.8233,
            "lat": -6.0543,
            "school_name": "KITELELA",
            "country_name": "United Republic of Tanzania",
            "connectivity": false
        },
        {
            "lon": 35.14163,
            "lat": -1.82087,
            "school_name": "NJOROI",
            "country_name": "United Republic of Tanzania",
            "connectivity": false
        },
        {
            "lon": -0.2100062,
            "lat": 7.7839515,
            "school_name": "Name unknown",
            "country_name": "Ghana",
            "connectivity": false
        },
        {
            "lon": 36.8839375,
            "lat": -1.3147174,
            "school_name": "St John Academy",
            "country_name": "Kenya",
            "connectivity": false
        },
        {
            "lon": 0.61616,
            "lat": 9.528155,
            "school_name": "JEP BAPURE",
            "country_name": "Togo",
            "connectivity": false
        },
        {
            "lon": 0.085625,
            "lat": 10.84033,
            "school_name": "JEP KONKONGOU",
            "country_name": "Togo",
            "connectivity": false
        },
        {
            "lon": 0.084183333,
            "lat": 10.78461667,
            "school_name": "JEP BAMATIK",
            "country_name": "Togo",
            "connectivity": false
        },
        {
            "lon": 1.61938,
            "lat": 6.44064,
            "school_name": "EPP ZOOTI HOGANOU",
            "country_name": "Togo",
            "connectivity": false
        },
        {
            "lon": 1.394927,
            "lat": 6.602292,
            "school_name": "EPP AHEPE ASSIKO G/A",
            "country_name": "Togo",
            "connectivity": false
        },
        {
            "lon": 0.721831,
            "lat": 7.260728,
            "school_name": "EPP DAFO",
            "country_name": "Togo",
            "connectivity": false
        },
        {
            "lon": 0.860643333,
            "lat": 8.700103333,
            "school_name": "EPP KATCHALIKADI",
            "country_name": "Togo",
            "connectivity": false
        },
        {
            "lon": 1.071855,
            "lat": 9.614063333,
            "school_name": "EPP AGADE",
            "country_name": "Togo",
            "connectivity": false
        },
        {
            "lon": 0.199483333,
            "lat": 10.84730167,
            "school_name": "EPP WORGOU G/C",
            "country_name": "Togo",
            "connectivity": false
        },
        {
            "lon": 1.194315,
            "lat": 6.225103333,
            "school_name": "CPL LA COLOMBE DE DIEU",
            "country_name": "Togo",
            "connectivity": false
        },
        {
            "lon": 1.53704,
            "lat": 6.322931667,
            "school_name": "CEG VOGAN VILLE 2",
            "country_name": "Togo",
            "connectivity": false
        },
        {
            "lon": 19.21754479,
            "lat": 45.00837701,
            "school_name": "\u0424\u0438\u043b\u0438\u043f \u0412\u0438\u0448\u045a\u0438\u045b",
            "country_name": "Serbia",
            "connectivity": false
        },
        {
            "lon": 33.05118,
            "lat": -2.56044,
            "school_name": "KISESA 'A'",
            "country_name": "United Republic of Tanzania",
            "connectivity": false
        },
        {
            "lon": 34.32340509,
            "lat": -13.19296318,
            "school_name": "Matamangwe F.P School",
            "country_name": "Malawi",
            "connectivity": false
        },
        {
            "lon": 35.66507457,
            "lat": -16.00168641,
            "school_name": "Ngangala",
            "country_name": "Malawi",
            "connectivity": false
        },
        {
            "lon": 26.99845833,
            "lat": -7.832127778,
            "school_name": "EP MULONGO KALA",
            "country_name": "Democratic Republic of the Congo",
            "connectivity": false
        },
        {
            "lon": 24.83171439,
            "lat": -7.244332115,
            "school_name": "EP YANKINDA",
            "country_name": "Democratic Republic of the Congo",
            "connectivity": false
        },
        {
            "lon": 24.91985483,
            "lat": -5.510918602,
            "school_name": "INST NGOBUE",
            "country_name": "Democratic Republic of the Congo",
            "connectivity": false
        },
        {
            "lon": 26.73023235,
            "lat": -10.98306492,
            "school_name": "EP BILIMA",
            "country_name": "Democratic Republic of the Congo",
            "connectivity": false
        },
        {
            "lon": 28.08757778,
            "lat": -3.351641667,
            "school_name": "EP LUTULILO",
            "country_name": "Democratic Republic of the Congo",
            "connectivity": false
        },
        {
            "lon": 15.18139513,
            "lat": -4.886592379,
            "school_name": "LYCEE  MBEMBA",
            "country_name": "Democratic Republic of the Congo",
            "connectivity": false
        },
        {
            "lon": -68.133087,
            "lat": -15.682543,
            "school_name": "GUALBERTO VILLARROEL",
            "country_name": "Bolivia (Plurinational State of)",
            "connectivity": false
        },
        {
            "lon": -97.55177,
            "lat": 17.346658,
            "school_name": "CENTRO DE BACHILLERATO TECNOL\u00d3GICO AGROPECUARIO NO. 302",
            "country_name": "Mexico",
            "connectivity": false
        },
        {
            "lon": -60.1019699,
            "lat": -38.03617868,
            "school_name": "C.E.A.T. N\u00ba1 ALAS",
            "country_name": "Argentina",
            "connectivity": false
        },
        {
            "lon": 32.30933,
            "lat": 0.34388,
            "school_name": "St.Charles Lwanga Muduuma",
            "country_name": "Uganda",
            "connectivity": false
        },
        {
            "lon": 31.84202,
            "lat": 0.30116,
            "school_name": "Lusalira High Sch.",
            "country_name": "Uganda",
            "connectivity": false
        },
        {
            "lon": 31.10085,
            "lat": -0.3946,
            "school_name": "Nyakashashara P.S",
            "country_name": "Uganda",
            "connectivity": false
        },
        {
            "lon": 31.55334,
            "lat": -0.63174,
            "school_name": "Kyotera Townview",
            "country_name": "Uganda",
            "connectivity": false
        },
        {
            "lon": 29.83217,
            "lat": -0.83718,
            "school_name": "Rwere P.S.",
            "country_name": "Uganda",
            "connectivity": false
        },
        {
            "lon": 31.9485,
            "lat": 3.4426,
            "school_name": "Nyumazi  P.S.",
            "country_name": "Uganda",
            "connectivity": false
        },
        {
            "lon": 29.68767,
            "lat": -1.24479,
            "school_name": "Ngezi P.S.",
            "country_name": "Uganda",
            "connectivity": false
        },
        {
            "lon": 34.17861,
            "lat": 1.09476,
            "school_name": "Wanambwa P.S",
            "country_name": "Uganda",
            "connectivity": false
        },
        {
            "lon": 31.40784,
            "lat": -0.52222,
            "school_name": "Kayirira P.S.",
            "country_name": "Uganda",
            "connectivity": false
        },
        {
            "lon": 34.4172,
            "lat": 1.15285,
            "school_name": "Lusagali P.S.",
            "country_name": "Uganda",
            "connectivity": false
        },
        {
            "lon": 28.89874,
            "lat": -25.19901,
            "school_name": "Vukile Primary School",
            "country_name": "South Africa",
            "connectivity": false
        },
        {
            "lon": 31.13444,
            "lat": -25.12203,
            "school_name": "Lundanda Primary School",
            "country_name": "South Africa",
            "connectivity": false
        },
        {
            "lon": 25.78988,
            "lat": -26.52529,
            "school_name": "Refethuto Primary School",
            "country_name": "South Africa",
            "connectivity": false
        },
        {
            "lon": 27.6787,
            "lat": -25.75111,
            "school_name": "Serophata Primary School",
            "country_name": "South Africa",
            "connectivity": false
        },
        {
            "lon": 24.74921,
            "lat": -28.71054,
            "school_name": "Perseverance College",
            "country_name": "South Africa",
            "connectivity": false
        },
        {
            "lon": 29.85209,
            "lat": -24.75346,
            "school_name": "Jane Furse Comprehensive School",
            "country_name": "South Africa",
            "connectivity": false
        },
        {
            "lon": 18.66035,
            "lat": -34.02089,
            "school_name": "Nosiseko Preschool",
            "country_name": "South Africa",
            "connectivity": false
        },
        {
            "lon": 29.27873,
            "lat": -24.96581,
            "school_name": "Esther Maleka Comprehensive School",
            "country_name": "South Africa",
            "connectivity": false
        },
        {
            "lon": 28.79826,
            "lat": -22.75586,
            "school_name": "Ngwakwana Secondary School",
            "country_name": "South Africa",
            "connectivity": false
        },
        {
            "lon": 30.08051,
            "lat": -30.45642,
            "school_name": "Nhlalwane Primary School",
            "country_name": "South Africa",
            "connectivity": false
        },
        {
            "lon": 30.86962,
            "lat": -27.36552,
            "school_name": "Broodspruit Primary School",
            "country_name": "South Africa",
            "connectivity": false
        },
        {
            "lon": 28.10199,
            "lat": -23.56701,
            "school_name": "Bakgalaka Lower Primary School",
            "country_name": "South Africa",
            "connectivity": false
        },
        {
            "lon": 28.99629,
            "lat": -24.17548,
            "school_name": "Akasia Primary School",
            "country_name": "South Africa",
            "connectivity": false
        },
        {
            "lon": 30.98946,
            "lat": -29.72483,
            "school_name": "Daleview Secondary School",
            "country_name": "South Africa",
            "connectivity": false
        },
        {
            "lon": 32.17701,
            "lat": -27.09781,
            "school_name": "Enkulisweni Primary School",
            "country_name": "South Africa",
            "connectivity": false
        },
        {
            "lon": 31.7048,
            "lat": -28.47903,
            "school_name": "Zibone Primary School",
            "country_name": "South Africa",
            "connectivity": false
        },
        {
            "lon": 31.00379,
            "lat": -29.69434,
            "school_name": "Brailsford Primary School",
            "country_name": "South Africa",
            "connectivity": false
        },
        {
            "lon": 30.89278,
            "lat": -28.59523,
            "school_name": "Madlozi Primary School",
            "country_name": "South Africa",
            "connectivity": false
        },
        {
            "lon": 31.10481,
            "lat": -27.44826,
            "school_name": "Lethukuhlakanipha Secondary School",
            "country_name": "South Africa",
            "connectivity": false
        },
        {
            "lon": 30.91518,
            "lat": -29.35911,
            "school_name": "Simunye Secondary School",
            "country_name": "South Africa",
            "connectivity": false
        },
        {
            "lon": 28.18022,
            "lat": -25.87386,
            "school_name": "Campus Crusade For Christ South Africa",
            "country_name": "South Africa",
            "connectivity": false
        },
        {
            "lon": 28.41727,
            "lat": -26.37598,
            "school_name": "Nimrod Ndebele Secondary School",
            "country_name": "South Africa",
            "connectivity": false
        },
        {
            "lon": 28.231,
            "lat": -26.1028,
            "school_name": "Awesome Institute Of Business",
            "country_name": "South Africa",
            "connectivity": false
        },
        {
            "lon": 28.27681,
            "lat": -25.70773,
            "school_name": "Anchor Christian Academy",
            "country_name": "South Africa",
            "connectivity": false
        },
        {
            "lon": 30.92282,
            "lat": 2.39374,
            "school_name": "Kasala P.S.",
            "country_name": "Uganda",
            "connectivity": false
        },
        {
            "lon": 27.19996,
            "lat": -32.86282,
            "school_name": "Lukhozi High School",
            "country_name": "South Africa",
            "connectivity": false
        },
        {
            "lon": 27.40943,
            "lat": -27.85896,
            "school_name": "Wonderkop Primary School",
            "country_name": "South Africa",
            "connectivity": false
        },
        {
            "lon": 26.67548,
            "lat": -29.25573,
            "school_name": "Ntebaleng Intermediate School",
            "country_name": "South Africa",
            "connectivity": false
        },
        {
            "lon": 27.46914,
            "lat": -29.17796,
            "school_name": "Le Roux Primary School",
            "country_name": "South Africa",
            "connectivity": false
        },
        {
            "lon": 28.72904,
            "lat": -30.68534,
            "school_name": "Mvumelwano Senior Primary School",
            "country_name": "South Africa",
            "connectivity": false
        },
        {
            "lon": 28.95044,
            "lat": -31.12764,
            "school_name": "Skobeni Senior Primary School",
            "country_name": "South Africa",
            "connectivity": false
        },
        {
            "lon": 29.64807,
            "lat": -30.74843,
            "school_name": "Ntlamvukazi Junior Secondary School",
            "country_name": "South Africa",
            "connectivity": false
        },
        {
            "lon": -57.2103863,
            "lat": -37.2629224,
            "school_name": "ESCUELA PRIMARIA N\u00ba7 JUAN BAUTISTA ALBERDI",
            "country_name": "Argentina",
            "connectivity": false
        },
        {
            "lon": -60.96913182,
            "lat": -34.58603413,
            "school_name": "CENTRO DE ADULTOS N\u00ba710/01",
            "country_name": "Argentina",
            "connectivity": false
        },
        {
            "lon": -58.59563,
            "lat": -34.62947999,
            "school_name": "JARDIN DE INFANTES N\u00ba908 CREAR JUGANDO",
            "country_name": "Argentina",
            "connectivity": false
        },
        {
            "lon": -59.10198469,
            "lat": -37.3119416,
            "school_name": "CENTRO DE ADULTOS N\u00ba706",
            "country_name": "Argentina",
            "connectivity": false
        },
        {
            "lon": -58.35883727,
            "lat": -34.72581909,
            "school_name": "CENTRO DE ADULTOS N\u00ba719/06",
            "country_name": "Argentina",
            "connectivity": false
        },
        {
            "lon": -60.06411447,
            "lat": -33.50564106,
            "school_name": "ESCUELA PRIMARIA N\u00ba23 \\ANGEL TRAVERSO\\",
            "country_name": "Argentina",
            "connectivity": false
        },
        {
            "lon": -58.33418622,
            "lat": -35.51245544,
            "school_name": "ESCUELA AGRARIA N\u00ba1",
            "country_name": "Argentina",
            "connectivity": false
        },
        {
            "lon": -61.52524005,
            "lat": -34.87209892,
            "school_name": "ESCUELA AGRARIA N\u00ba1",
            "country_name": "Argentina",
            "connectivity": false
        },
        {
            "lon": -58.78797529,
            "lat": -34.62991027,
            "school_name": "ESCUELA PRIMARIA N\u00ba13 RIGOBERTO SEGADO",
            "country_name": "Argentina",
            "connectivity": false
        },
        {
            "lon": -59.09978615,
            "lat": -36.02031378,
            "school_name": "INST.SUP.DE FORM.DOCENTE N\u00ba152",
            "country_name": "Argentina",
            "connectivity": false
        },
        {
            "lon": -58.45073334,
            "lat": -34.74221731,
            "school_name": "JARDIN DE INFANTES N\u00ba935 DEJANDO HUELLAS",
            "country_name": "Argentina",
            "connectivity": false
        },
        {
            "lon": -58.36347769,
            "lat": -34.73090227,
            "school_name": "JARDIN DE INFANTES N\u00ba942",
            "country_name": "Argentina",
            "connectivity": false
        },
        {
            "lon": -58.42222221,
            "lat": -34.67014989,
            "school_name": "ESC. SECUNDARIA BASICA N\u00ba23",
            "country_name": "Argentina",
            "connectivity": false
        },
        {
            "lon": -58.3116936,
            "lat": -34.78410026,
            "school_name": "ESC. SECUNDARIA BASICA N\u00ba65",
            "country_name": "Argentina",
            "connectivity": false
        },
        {
            "lon": -65.63854041,
            "lat": -28.4693202,
            "school_name": "ESCUELA N\u00ba 245 EL PORTEZUELO",
            "country_name": "Argentina",
            "connectivity": false
        },
        {
            "lon": -59.60916716,
            "lat": -26.51100235,
            "school_name": "E.E.P. N\u00ba 672",
            "country_name": "Argentina",
            "connectivity": false
        },
        {
            "lon": -62.06653414,
            "lat": -32.91211525,
            "school_name": "MIGUEL JUAREZ CELMAN",
            "country_name": "Argentina",
            "connectivity": false
        },
        {
            "lon": -64.54872673,
            "lat": -31.12094213,
            "school_name": "J.DE INF. CAPITAN JUAN DE ZEVALLOS - ANEXO PUESTO RAMALLO",
            "country_name": "Argentina",
            "connectivity": false
        },
        {
            "lon": -73.982,
            "lat": -13.0127,
            "school_name": "MIRTHA JERI DE A\u00d1A\u00d1OS",
            "country_name": "Peru",
            "connectivity": false
        },
        {
            "lon": -64.56868249,
            "lat": -31.82544356,
            "school_name": "PADRE JOSE FELIPE BUTELER",
            "country_name": "Argentina",
            "connectivity": false
        },
        {
            "lon": -56.24807067,
            "lat": -28.19490101,
            "school_name": "ESCUELA N\u00ba 374 DR.PABLO ADOLFO LUZURIAGA",
            "country_name": "Argentina",
            "connectivity": false
        },
        {
            "lon": -60.16185063,
            "lat": -32.6196425,
            "school_name": "PROVINCIA DE BUENOS AIRES 43",
            "country_name": "Argentina",
            "connectivity": false
        },
        {
            "lon": -59.67631742,
            "lat": -25.34308135,
            "school_name": "NEP Y FP N\u00ba 14 - C.C.STA.CATALINA",
            "country_name": "Argentina",
            "connectivity": false
        },
        {
            "lon": -59.70715,
            "lat": -25.25616,
            "school_name": "EPEP N\u00ba165",
            "country_name": "Argentina",
            "connectivity": false
        },
        {
            "lon": -61.94150345,
            "lat": -24.24193776,
            "school_name": "EPES EIB N\u00ba 3 ANEXO 4 - EPEP N\u00ba 499",
            "country_name": "Argentina",
            "connectivity": false
        },
        {
            "lon": -65.98562202,
            "lat": -30.54594443,
            "school_name": "ESC.N\u00b0092 MANUEL DE LA CRUZ PIZARRO",
            "country_name": "Argentina",
            "connectivity": false
        },
        {
            "lon": -68.48625762,
            "lat": -33.08768647,
            "school_name": "DR. ERNESTO MATONS",
            "country_name": "Argentina",
            "connectivity": false
        },
        {
            "lon": -68.45200381,
            "lat": -33.07226973,
            "school_name": "SANTIAGO FELIPE LLAVER",
            "country_name": "Argentina",
            "connectivity": false
        },
        {
            "lon": -54.68717679,
            "lat": -26.63386497,
            "school_name": "ESC. N\u00b0 240 ITACURUZU",
            "country_name": "Argentina",
            "connectivity": false
        },
        {
            "lon": -65.18214477,
            "lat": -33.86197452,
            "school_name": "CENTRO EDUCATIVO N\u00b011 INSPECTOR S\u00d3CRATES CORTINEZ",
            "country_name": "Argentina",
            "connectivity": false
        },
        {
            "lon": -60.71711688,
            "lat": -32.8284567,
            "school_name": "E.E.M.P.A. NRO 1109",
            "country_name": "Argentina",
            "connectivity": false
        },
        {
            "lon": -64.23892761,
            "lat": -27.7512696,
            "school_name": "ESCUELA N\u00ba 150 ANDRES FERREYRA",
            "country_name": "Argentina",
            "connectivity": false
        },
        {
            "lon": -63.94608,
            "lat": -26.74445,
            "school_name": "ESCUELA N\u00ba323",
            "country_name": "Argentina",
            "connectivity": false
        },
        {
            "lon": -61.90896,
            "lat": -27.95013,
            "school_name": "ESCUELA N\u00ba1206",
            "country_name": "Argentina",
            "connectivity": false
        },
        {
            "lon": -63.73184,
            "lat": -29.52313,
            "school_name": "ESCUELA N\u00ba945",
            "country_name": "Argentina",
            "connectivity": false
        },
        {
            "lon": 7.540357,
            "lat": 5.722746,
            "school_name": "Name unknown",
            "country_name": "Nigeria",
            "connectivity": false
        },
        {
            "lon": 7.5237733,
            "lat": 5.85904,
            "school_name": "Name unknown",
            "country_name": "Nigeria",
            "connectivity": false
        },
        {
            "lon": 7.73821,
            "lat": 5.698933333,
            "school_name": "Name unknown",
            "country_name": "Nigeria",
            "connectivity": false
        },
        {
            "lon": 14.04810862,
            "lat": 11.41393927,
            "school_name": "Name unknown",
            "country_name": "Nigeria",
            "connectivity": false
        },
        {
            "lon": 8.066663,
            "lat": 6.385878,
            "school_name": "Name unknown",
            "country_name": "Nigeria",
            "connectivity": false
        },
        {
            "lon": 7.963408,
            "lat": 6.550592,
            "school_name": "Name unknown",
            "country_name": "Nigeria",
            "connectivity": false
        },
        {
            "lon": 7.985860808,
            "lat": 6.588440808,
            "school_name": "Name unknown",
            "country_name": "Nigeria",
            "connectivity": false
        },
        {
            "lon": 13.57011259,
            "lat": 12.92678198,
            "school_name": "Name unknown",
            "country_name": "Nigeria",
            "connectivity": false
        },
        {
            "lon": 6.048612,
            "lat": 6.979998,
            "school_name": "Name unknown",
            "country_name": "Nigeria",
            "connectivity": false
        },
        {
            "lon": 5.451162,
            "lat": 7.431583,
            "school_name": "Name unknown",
            "country_name": "Nigeria",
            "connectivity": false
        },
        {
            "lon": 5.548146667,
            "lat": 7.64995,
            "school_name": "Name unknown",
            "country_name": "Nigeria",
            "connectivity": false
        },
        {
            "lon": 5.34023,
            "lat": 7.876708333,
            "school_name": "Name unknown",
            "country_name": "Nigeria",
            "connectivity": false
        },
        {
            "lon": 7.415405,
            "lat": 6.88993,
            "school_name": "Name unknown",
            "country_name": "Nigeria",
            "connectivity": false
        },
        {
            "lon": 7.644257,
            "lat": 6.869089,
            "school_name": "Name unknown",
            "country_name": "Nigeria",
            "connectivity": false
        },
        {
            "lon": 7.56961,
            "lat": 8.99375,
            "school_name": "Name unknown",
            "country_name": "Nigeria",
            "connectivity": false
        },
        {
            "lon": 7.21494,
            "lat": 9.0856,
            "school_name": "Name unknown",
            "country_name": "Nigeria",
            "connectivity": false
        },
        {
            "lon": 11.15003,
            "lat": 9.980564,
            "school_name": "Name unknown",
            "country_name": "Nigeria",
            "connectivity": false
        },
        {
            "lon": 10.76884,
            "lat": 10.77999,
            "school_name": "Name unknown",
            "country_name": "Nigeria",
            "connectivity": false
        },
        {
            "lon": 11.308295,
            "lat": 9.824851,
            "school_name": "Name unknown",
            "country_name": "Nigeria",
            "connectivity": false
        },
        {
            "lon": 11.36532,
            "lat": 11.0679,
            "school_name": "Name unknown",
            "country_name": "Nigeria",
            "connectivity": false
        },
        {
            "lon": 7.229265,
            "lat": 5.528275,
            "school_name": "Name unknown",
            "country_name": "Nigeria",
            "connectivity": false
        },
        {
            "lon": 7.194645723,
            "lat": 5.872387733,
            "school_name": "Name unknown",
            "country_name": "Nigeria",
            "connectivity": false
        },
        {
            "lon": -80.651,
            "lat": -5.19463,
            "school_name": "31",
            "country_name": "Peru",
            "connectivity": false
        },
        {
            "lon": -80.4208,
            "lat": -3.56433,
            "school_name": "051 VIRGEN DE FATIMA",
            "country_name": "Peru",
            "connectivity": false
        },
        {
            "lon": -76.2123,
            "lat": -6.6458,
            "school_name": "728",
            "country_name": "Peru",
            "connectivity": false
        },
        {
            "lon": -79.3534,
            "lat": -6.267,
            "school_name": "10086",
            "country_name": "Peru",
            "connectivity": false
        },
        {
            "lon": -78.7882,
            "lat": -6.38392,
            "school_name": "10247",
            "country_name": "Peru",
            "connectivity": false
        },
        {
            "lon": -78.6034,
            "lat": -6.32185,
            "school_name": "10471",
            "country_name": "Peru",
            "connectivity": false
        },
        {
            "lon": -79.4002,
            "lat": -6.13043,
            "school_name": "10802",
            "country_name": "Peru",
            "connectivity": false
        },
        {
            "lon": -71.9996,
            "lat": -13.5057,
            "school_name": "1199",
            "country_name": "Peru",
            "connectivity": false
        },
        {
            "lon": -76.5894,
            "lat": -6.57357,
            "school_name": "1199 SAN FERNANDO DE RUMICILLO",
            "country_name": "Peru",
            "connectivity": false
        },
        {
            "lon": -71.4664,
            "lat": -13.5892,
            "school_name": "1242",
            "country_name": "Peru",
            "connectivity": false
        },
        {
            "lon": -70.1719,
            "lat": -15.4689,
            "school_name": "1353",
            "country_name": "Peru",
            "connectivity": false
        },
        {
            "lon": -80.6193,
            "lat": -4.4613,
            "school_name": "15413",
            "country_name": "Peru",
            "connectivity": false
        },
        {
            "lon": -78.5996,
            "lat": -9.07117,
            "school_name": "1545 MARIA MONTESSORI DE ANTICONA",
            "country_name": "Peru",
            "connectivity": false
        },
        {
            "lon": -71.3186,
            "lat": -13.9691,
            "school_name": "160",
            "country_name": "Peru",
            "connectivity": false
        },
        {
            "lon": -71.5014,
            "lat": -14.0867,
            "school_name": "163",
            "country_name": "Peru",
            "connectivity": false
        },
        {
            "lon": -78.813,
            "lat": -5.40767,
            "school_name": "16633",
            "country_name": "Peru",
            "connectivity": false
        },
        {
            "lon": -75.7751,
            "lat": -2.47383,
            "school_name": "60574",
            "country_name": "Peru",
            "connectivity": false
        },
        {
            "lon": -79.4709,
            "lat": -7.3056,
            "school_name": "1912",
            "country_name": "Peru",
            "connectivity": false
        },
        {
            "lon": -77.0873,
            "lat": -12.0175,
            "school_name": "2010 ALBERT EINSTEIN",
            "country_name": "Peru",
            "connectivity": false
        },
        {
            "lon": -76.6965,
            "lat": -11.6303,
            "school_name": "20263",
            "country_name": "Peru",
            "connectivity": false
        },
        {
            "lon": -76.1581,
            "lat": -12.2968,
            "school_name": "20761 SANTO DOMINGO DE GUZMAN",
            "country_name": "Peru",
            "connectivity": false
        },
        {
            "lon": -70.5193,
            "lat": -14.7238,
            "school_name": "232",
            "country_name": "Peru",
            "connectivity": false
        },
        {
            "lon": -74.7658,
            "lat": -14.7055,
            "school_name": "24031",
            "country_name": "Peru",
            "connectivity": false
        },
        {
            "lon": -73.7195,
            "lat": -13.9008,
            "school_name": "24125",
            "country_name": "Peru",
            "connectivity": false
        },
        {
            "lon": -74.0173,
            "lat": -14.2744,
            "school_name": "24367",
            "country_name": "Peru",
            "connectivity": false
        },
        {
            "lon": -75.1001,
            "lat": -7.27364,
            "school_name": "64743",
            "country_name": "Peru",
            "connectivity": false
        },
        {
            "lon": -75.0591,
            "lat": -14.6445,
            "school_name": "261 VIRGEN DEL CARMEN",
            "country_name": "Peru",
            "connectivity": false
        },
        {
            "lon": -69.4884,
            "lat": -11.4017,
            "school_name": "270 IBERIA",
            "country_name": "Peru",
            "connectivity": false
        },
        {
            "lon": -74.284,
            "lat": -5.79435,
            "school_name": "279",
            "country_name": "Peru",
            "connectivity": false
        },
        {
            "lon": -69.2935,
            "lat": -16.3201,
            "school_name": "299",
            "country_name": "Peru",
            "connectivity": false
        },
        {
            "lon": -75.4102,
            "lat": -11.4723,
            "school_name": "30473",
            "country_name": "Peru",
            "connectivity": false
        },
        {
            "lon": -74.5391,
            "lat": -11.1403,
            "school_name": "30647",
            "country_name": "Peru",
            "connectivity": false
        },
        {
            "lon": -77.0765,
            "lat": -11.9416,
            "school_name": "3091 HUACA DE ORO",
            "country_name": "Peru",
            "connectivity": false
        },
        {
            "lon": -76.4969,
            "lat": -9.8843,
            "school_name": "32309",
            "country_name": "Peru",
            "connectivity": false
        },
        {
            "lon": -76.3945,
            "lat": -9.3349,
            "school_name": "32310 CHIPAQUILLO",
            "country_name": "Peru",
            "connectivity": false
        },
        {
            "lon": -76.2787,
            "lat": -9.67893,
            "school_name": "33176",
            "country_name": "Peru",
            "connectivity": false
        },
        {
            "lon": -69.4907,
            "lat": -14.3743,
            "school_name": "337",
            "country_name": "Peru",
            "connectivity": false
        },
        {
            "lon": -74.9816,
            "lat": -10.0358,
            "school_name": "34639",
            "country_name": "Peru",
            "connectivity": false
        },
        {
            "lon": -79.0011,
            "lat": -5.14559,
            "school_name": "ARZOBISPO OSCAR ROMERO",
            "country_name": "Peru",
            "connectivity": false
        },
        {
            "lon": -75.9276,
            "lat": -11.5403,
            "school_name": "BELEN",
            "country_name": "Peru",
            "connectivity": false
        },
        {
            "lon": -78.5316,
            "lat": -9.10749,
            "school_name": "CARITAS FELICES",
            "country_name": "Peru",
            "connectivity": false
        },
        {
            "lon": -75.3389,
            "lat": -13.3675,
            "school_name": "368",
            "country_name": "Peru",
            "connectivity": false
        },
        {
            "lon": -75.4384,
            "lat": -12.1215,
            "school_name": "374",
            "country_name": "Peru",
            "connectivity": false
        },
        {
            "lon": -73.9397,
            "lat": -12.4079,
            "school_name": "38825",
            "country_name": "Peru",
            "connectivity": false
        },
        {
            "lon": -71.9937,
            "lat": -14.0024,
            "school_name": "CCOCHAPATA",
            "country_name": "Peru",
            "connectivity": false
        },
        {
            "lon": -71.5786,
            "lat": -16.4121,
            "school_name": "40079 VICTOR NU\u00d1EZ VALENCIA",
            "country_name": "Peru",
            "connectivity": false
        },
        {
            "lon": -71.4835,
            "lat": -16.4442,
            "school_name": "40195",
            "country_name": "Peru",
            "connectivity": false
        },
        {
            "lon": -72.0028,
            "lat": -14.7594,
            "school_name": "40592",
            "country_name": "Peru",
            "connectivity": false
        },
        {
            "lon": -76.9024,
            "lat": -6.376,
            "school_name": "414",
            "country_name": "Peru",
            "connectivity": false
        },
        {
            "lon": -77.8155,
            "lat": -8.9172,
            "school_name": "483",
            "country_name": "Peru",
            "connectivity": false
        },
        {
            "lon": -72.9128,
            "lat": -12.7587,
            "school_name": "501414 NUEVO PARAISO",
            "country_name": "Peru",
            "connectivity": false
        },
        {
            "lon": -71.8032,
            "lat": -13.852,
            "school_name": "50347",
            "country_name": "Peru",
            "connectivity": false
        },
        {
            "lon": -73.1597,
            "lat": -13.6788,
            "school_name": "54622",
            "country_name": "Peru",
            "connectivity": false
        },
        {
            "lon": -71.2204,
            "lat": -14.283,
            "school_name": "56017",
            "country_name": "Peru",
            "connectivity": false
        },
        {
            "lon": -73.7366,
            "lat": -3.89706,
            "school_name": "601507",
            "country_name": "Peru",
            "connectivity": false
        },
        {
            "lon": -75.9986,
            "lat": -5.79032,
            "school_name": "62475",
            "country_name": "Peru",
            "connectivity": false
        },
        {
            "lon": -74.0269,
            "lat": -8.8573,
            "school_name": "64590",
            "country_name": "Peru",
            "connectivity": false
        },
        {
            "lon": -74.0487,
            "lat": -9.7973,
            "school_name": "65182",
            "country_name": "Peru",
            "connectivity": false
        },
        {
            "lon": -76.8414,
            "lat": -9.50995,
            "school_name": "673",
            "country_name": "Peru",
            "connectivity": false
        },
        {
            "lon": -69.5967,
            "lat": -15.3625,
            "school_name": "72397",
            "country_name": "Peru",
            "connectivity": false
        },
        {
            "lon": -73.1747,
            "lat": -4.12041,
            "school_name": "758",
            "country_name": "Peru",
            "connectivity": false
        },
        {
            "lon": -79.504,
            "lat": -7.42776,
            "school_name": "80375 JOSE ANDRES RAZURI",
            "country_name": "Peru",
            "connectivity": false
        },
        {
            "lon": -79.0639,
            "lat": -8.06773,
            "school_name": "81748",
            "country_name": "Peru",
            "connectivity": false
        },
        {
            "lon": -78.3119,
            "lat": -7.5521,
            "school_name": "82318",
            "country_name": "Peru",
            "connectivity": false
        },
        {
            "lon": -77.8651,
            "lat": -7.45244,
            "school_name": "82389",
            "country_name": "Peru",
            "connectivity": false
        },
        {
            "lon": -77.2898,
            "lat": -9.1467,
            "school_name": "86983",
            "country_name": "Peru",
            "connectivity": false
        },
        {
            "lon": -74.8654,
            "lat": -13.0868,
            "school_name": "974",
            "country_name": "Peru",
            "connectivity": false
        },
        {
            "lon": -77.0531,
            "lat": -12.0764,
            "school_name": "MY LITTLE HOME",
            "country_name": "Peru",
            "connectivity": false
        },
        {
            "lon": -76.9797,
            "lat": -6.03432,
            "school_name": "CARITA DE ANGEL",
            "country_name": "Peru",
            "connectivity": false
        },
        {
            "lon": -77.0566,
            "lat": -11.9801,
            "school_name": "CATOLICA HIGH SCHOOL",
            "country_name": "Peru",
            "connectivity": false
        },
        {
            "lon": -76.9397,
            "lat": -12.2201,
            "school_name": "CEBA - PAEBA VILLA EL SALVADOR",
            "country_name": "Peru",
            "connectivity": false
        },
        {
            "lon": -79.8439,
            "lat": -6.75919,
            "school_name": "CORAZON DE MARIA",
            "country_name": "Peru",
            "connectivity": false
        },
        {
            "lon": -77.0048,
            "lat": -12.0084,
            "school_name": "ENRIQUE CAMINO BRENT",
            "country_name": "Peru",
            "connectivity": false
        },
        {
            "lon": -76.1229,
            "lat": -5.88378,
            "school_name": "FERNANDO MELENDEZ CELIS",
            "country_name": "Peru",
            "connectivity": false
        },
        {
            "lon": -77.309,
            "lat": -8.92804,
            "school_name": "FLOR DE RETAMA",
            "country_name": "Peru",
            "connectivity": false
        },
        {
            "lon": -71.9714,
            "lat": -13.5197,
            "school_name": "FORTUNATO L HERRERA",
            "country_name": "Peru",
            "connectivity": false
        },
        {
            "lon": -77.0709,
            "lat": -11.9917,
            "school_name": "INGENIERIA DE LOS OLIVOS",
            "country_name": "Peru",
            "connectivity": false
        },
        {
            "lon": -80.6247,
            "lat": -5.21052,
            "school_name": "JOSEMARIA ESCRIVA DE BALAGUER",
            "country_name": "Peru",
            "connectivity": false
        },
        {
            "lon": -76.9844,
            "lat": -11.9568,
            "school_name": "JUAN ESPINOZA MEDRANO",
            "country_name": "Peru",
            "connectivity": false
        },
        {
            "lon": -71.5174,
            "lat": -16.4566,
            "school_name": "LA CAMPI\u00d1A",
            "country_name": "Peru",
            "connectivity": false
        },
        {
            "lon": -76.9496,
            "lat": -12.1626,
            "school_name": "MARIA DE LOS ANGELES",
            "country_name": "Peru",
            "connectivity": false
        },
        {
            "lon": -71.5478,
            "lat": -16.3918,
            "school_name": "MI PEQUE\u00d1O ESPACIO",
            "country_name": "Peru",
            "connectivity": false
        },
        {
            "lon": -78.2845,
            "lat": -5.1314,
            "school_name": "NUMPARQUE",
            "country_name": "Peru",
            "connectivity": false
        },
        {
            "lon": -71.5368,
            "lat": -16.4504,
            "school_name": "PADRE FRANCOIS DELATTE",
            "country_name": "Peru",
            "connectivity": false
        },
        {
            "lon": -69.2581,
            "lat": -15.45,
            "school_name": "PAJCHANI",
            "country_name": "Peru",
            "connectivity": false
        },
        {
            "lon": -80.672,
            "lat": -5.18211,
            "school_name": "SAN JUAN BAUTISTA",
            "country_name": "Peru",
            "connectivity": false
        },
        {
            "lon": -73.7241,
            "lat": -10.7387,
            "school_name": "SAN JUAN BAUTISTA DE MALDONADILLO",
            "country_name": "Peru",
            "connectivity": false
        },
        {
            "lon": -75.5635,
            "lat": -11.3846,
            "school_name": "SANTA CRUZ",
            "country_name": "Peru",
            "connectivity": false
        },
        {
            "lon": -72.1426,
            "lat": -13.4666,
            "school_name": "SANTA ROSA",
            "country_name": "Peru",
            "connectivity": false
        },
        {
            "lon": -78.6779,
            "lat": -6.54103,
            "school_name": "SE\u00d1OR DE LOS MILAGROS",
            "country_name": "Peru",
            "connectivity": false
        },
        {
            "lon": -71.9715,
            "lat": -13.5381,
            "school_name": "SONRISITAS",
            "country_name": "Peru",
            "connectivity": false
        },
        {
            "lon": -71.3287,
            "lat": -17.6548,
            "school_name": "TERNURITAS DE MAMA",
            "country_name": "Peru",
            "connectivity": false
        },
        {
            "lon": -71.5494,
            "lat": -16.4026,
            "school_name": "VILLA SETON",
            "country_name": "Peru",
            "connectivity": false
        },
        {
            "lon": 10.1962557,
            "lat": 12.9268236,
            "school_name": "Name unknown",
            "country_name": "Nigeria",
            "connectivity": false
        },
        {
            "lon": 10.16277316,
            "lat": 12.30545036,
            "school_name": "Name unknown",
            "country_name": "Nigeria",
            "connectivity": false
        },
        {
            "lon": 7.397344708,
            "lat": 10.46304524,
            "school_name": "Name unknown",
            "country_name": "Nigeria",
            "connectivity": false
        },
        {
            "lon": 7.644901968,
            "lat": 10.93533409,
            "school_name": "Name unknown",
            "country_name": "Nigeria",
            "connectivity": false
        },
        {
            "lon": 8.29292357,
            "lat": 9.578002096,
            "school_name": "Name unknown",
            "country_name": "Nigeria",
            "connectivity": false
        },
        {
            "lon": 7.473419019,
            "lat": 10.54913108,
            "school_name": "Name unknown",
            "country_name": "Nigeria",
            "connectivity": false
        },
        {
            "lon": 8.45272984,
            "lat": 10.98538078,
            "school_name": "Name unknown",
            "country_name": "Nigeria",
            "connectivity": false
        },
        {
            "lon": 8.041511,
            "lat": 12.26436,
            "school_name": "Name unknown",
            "country_name": "Nigeria",
            "connectivity": false
        },
        {
            "lon": 8.720738,
            "lat": 12.32738,
            "school_name": "Name unknown",
            "country_name": "Nigeria",
            "connectivity": false
        },
        {
            "lon": 8.017741,
            "lat": 11.7805,
            "school_name": "Name unknown",
            "country_name": "Nigeria",
            "connectivity": false
        },
        {
            "lon": 12.950291,
            "lat": 10.239216,
            "school_name": "Name unknown",
            "country_name": "Nigeria",
            "connectivity": false
        },
        {
            "lon": 12.919459,
            "lat": 10.235567,
            "school_name": "Name unknown",
            "country_name": "Nigeria",
            "connectivity": false
        },
        {
            "lon": 13.218536,
            "lat": 10.114282,
            "school_name": "Name unknown",
            "country_name": "Nigeria",
            "connectivity": false
        },
        {
            "lon": 11.923047,
            "lat": 9.457015,
            "school_name": "Name unknown",
            "country_name": "Nigeria",
            "connectivity": false
        },
        {
            "lon": 12.63027,
            "lat": 9.837923,
            "school_name": "Name unknown",
            "country_name": "Nigeria",
            "connectivity": false
        },
        {
            "lon": 7.629681,
            "lat": 7.358646,
            "school_name": "Name unknown",
            "country_name": "Nigeria",
            "connectivity": false
        },
        {
            "lon": 6.16516,
            "lat": 7.456628,
            "school_name": "Name unknown",
            "country_name": "Nigeria",
            "connectivity": false
        },
        {
            "lon": 5.23118,
            "lat": 8.079915,
            "school_name": "Name unknown",
            "country_name": "Nigeria",
            "connectivity": false
        },
        {
            "lon": 4.113523,
            "lat": 9.033705,
            "school_name": "Name unknown",
            "country_name": "Nigeria",
            "connectivity": false
        },
        {
            "lon": 4.663948,
            "lat": 8.106431,
            "school_name": "Name unknown",
            "country_name": "Nigeria",
            "connectivity": false
        },
        {
            "lon": 3.339791,
            "lat": 6.458086,
            "school_name": "Name unknown",
            "country_name": "Nigeria",
            "connectivity": false
        },
        {
            "lon": 3.303359186,
            "lat": 6.589846131,
            "school_name": "Name unknown",
            "country_name": "Nigeria",
            "connectivity": false
        },
        {
            "lon": 3.26382,
            "lat": 6.65931,
            "school_name": "Name unknown",
            "country_name": "Nigeria",
            "connectivity": false
        },
        {
            "lon": 2.93993,
            "lat": 6.44501,
            "school_name": "Name unknown",
            "country_name": "Nigeria",
            "connectivity": false
        },
        {
            "lon": 6.625765,
            "lat": 5.662332,
            "school_name": "Name unknown",
            "country_name": "Nigeria",
            "connectivity": false
        },
        {
            "lon": 3.44774,
            "lat": 6.43011,
            "school_name": "Name unknown",
            "country_name": "Nigeria",
            "connectivity": false
        },
        {
            "lon": 3.336066847,
            "lat": 6.655635758,
            "school_name": "Name unknown",
            "country_name": "Nigeria",
            "connectivity": false
        },
        {
            "lon": 3.381232,
            "lat": 6.546871,
            "school_name": "Name unknown",
            "country_name": "Nigeria",
            "connectivity": false
        },
        {
            "lon": 3.32912979,
            "lat": 6.476356868,
            "school_name": "Name unknown",
            "country_name": "Nigeria",
            "connectivity": false
        },
        {
            "lon": 3.404576,
            "lat": 6.453413,
            "school_name": "Name unknown",
            "country_name": "Nigeria",
            "connectivity": false
        },
        {
            "lon": 7.721717,
            "lat": 9.075289,
            "school_name": "Name unknown",
            "country_name": "Nigeria",
            "connectivity": false
        },
        {
            "lon": 5.729708076,
            "lat": 9.042053819,
            "school_name": "Name unknown",
            "country_name": "Nigeria",
            "connectivity": false
        },
        {
            "lon": 6.18986,
            "lat": 9.04869,
            "school_name": "Name unknown",
            "country_name": "Nigeria",
            "connectivity": false
        },
        {
            "lon": 5.465085,
            "lat": 10.38904667,
            "school_name": "Name unknown",
            "country_name": "Nigeria",
            "connectivity": false
        },
        {
            "lon": 6.804932094,
            "lat": 9.414611357,
            "school_name": "Name unknown",
            "country_name": "Nigeria",
            "connectivity": false
        },
        {
            "lon": 3.280864109,
            "lat": 7.180681187,
            "school_name": "Name unknown",
            "country_name": "Nigeria",
            "connectivity": false
        },
        {
            "lon": 3.9230345,
            "lat": 6.8328236,
            "school_name": "Name unknown",
            "country_name": "Nigeria",
            "connectivity": false
        },
        {
            "lon": 3.90533535,
            "lat": 6.80901243,
            "school_name": "Name unknown",
            "country_name": "Nigeria",
            "connectivity": false
        },
        {
            "lon": 4.34947221,
            "lat": 6.55570526,
            "school_name": "Name unknown",
            "country_name": "Nigeria",
            "connectivity": false
        },
        {
            "lon": 5.764087,
            "lat": 7.635696,
            "school_name": "Name unknown",
            "country_name": "Nigeria",
            "connectivity": false
        },
        {
            "lon": 5.261201,
            "lat": 7.259951,
            "school_name": "Name unknown",
            "country_name": "Nigeria",
            "connectivity": false
        },
        {
            "lon": 5.059113,
            "lat": 7.030128,
            "school_name": "Name unknown",
            "country_name": "Nigeria",
            "connectivity": false
        },
        {
            "lon": 4.879383,
            "lat": 7.213324,
            "school_name": "Name unknown",
            "country_name": "Nigeria",
            "connectivity": false
        },
        {
            "lon": 4.844851,
            "lat": 7.078905,
            "school_name": "Name unknown",
            "country_name": "Nigeria",
            "connectivity": false
        },
        {
            "lon": 5.563262,
            "lat": 7.206696,
            "school_name": "Name unknown",
            "country_name": "Nigeria",
            "connectivity": false
        },
        {
            "lon": 4.754317,
            "lat": 7.59398,
            "school_name": "Name unknown",
            "country_name": "Nigeria",
            "connectivity": false
        },
        {
            "lon": 4.176207,
            "lat": 7.638001,
            "school_name": "Name unknown",
            "country_name": "Nigeria",
            "connectivity": false
        },
        {
            "lon": 4.887015,
            "lat": 7.749174,
            "school_name": "Name unknown",
            "country_name": "Nigeria",
            "connectivity": false
        },
        {
            "lon": 3.927571,
            "lat": 7.408122,
            "school_name": "Name unknown",
            "country_name": "Nigeria",
            "connectivity": false
        },
        {
            "lon": 3.117891,
            "lat": 7.703816,
            "school_name": "Name unknown",
            "country_name": "Nigeria",
            "connectivity": false
        },
        {
            "lon": 3.019385,
            "lat": 7.93248,
            "school_name": "Name unknown",
            "country_name": "Nigeria",
            "connectivity": false
        },
        {
            "lon": 4.24952,
            "lat": 8.297349,
            "school_name": "Name unknown",
            "country_name": "Nigeria",
            "connectivity": false
        },
        {
            "lon": 8.856832,
            "lat": 9.782095,
            "school_name": "Name unknown",
            "country_name": "Nigeria",
            "connectivity": false
        },
        {
            "lon": 9.141945,
            "lat": 9.483916,
            "school_name": "Name unknown",
            "country_name": "Nigeria",
            "connectivity": false
        },
        {
            "lon": 9.514678,
            "lat": 8.716174,
            "school_name": "Name unknown",
            "country_name": "Nigeria",
            "connectivity": false
        },
        {
            "lon": 6.650464,
            "lat": 5.261044,
            "school_name": "Name unknown",
            "country_name": "Nigeria",
            "connectivity": false
        },
        {
            "lon": 10.69368,
            "lat": 7.45705,
            "school_name": "Name unknown",
            "country_name": "Nigeria",
            "connectivity": false
        },
        {
            "lon": 9.567017,
            "lat": 7.842896,
            "school_name": "Name unknown",
            "country_name": "Nigeria",
            "connectivity": false
        },
        {
            "lon": 6.942571,
            "lat": 6.392061,
            "school_name": "Name unknown",
            "country_name": "Nigeria",
            "connectivity": false
        },
        {
            "lon": 7.03745,
            "lat": 6.30635,
            "school_name": "Name unknown",
            "country_name": "Nigeria",
            "connectivity": false
        },
        {
            "lon": 6.815975,
            "lat": 6.073819,
            "school_name": "Name unknown",
            "country_name": "Nigeria",
            "connectivity": false
        },
        {
            "lon": 6.913947,
            "lat": 6.014515,
            "school_name": "Name unknown",
            "country_name": "Nigeria",
            "connectivity": false
        },
        {
            "lon": 9.768211667,
            "lat": 10.69606333,
            "school_name": "Name unknown",
            "country_name": "Nigeria",
            "connectivity": false
        },
        {
            "lon": 9.830913333,
            "lat": 10.89726333,
            "school_name": "Name unknown",
            "country_name": "Nigeria",
            "connectivity": false
        },
        {
            "lon": 4.51911,
            "lat": 12.02831,
            "school_name": "Name unknown",
            "country_name": "Nigeria",
            "connectivity": false
        },
        {
            "lon": 4.7177755,
            "lat": 11.01898818,
            "school_name": "Name unknown",
            "country_name": "Nigeria",
            "connectivity": false
        },
        {
            "lon": 5.368531583,
            "lat": 13.623952,
            "school_name": "Name unknown",
            "country_name": "Nigeria",
            "connectivity": false
        },
        {
            "lon": 5.630188605,
            "lat": 12.48294538,
            "school_name": "Name unknown",
            "country_name": "Nigeria",
            "connectivity": false
        },
        {
            "lon": 8.134646,
            "lat": 6.971678,
            "school_name": "Name unknown",
            "country_name": "Nigeria",
            "connectivity": false
        },
        {
            "lon": 8.033457,
            "lat": 7.793319,
            "school_name": "Name unknown",
            "country_name": "Nigeria",
            "connectivity": false
        },
        {
            "lon": 9.361288,
            "lat": 6.772756,
            "school_name": "Name unknown",
            "country_name": "Nigeria",
            "connectivity": false
        },
        {
            "lon": 9.213049,
            "lat": 6.805277,
            "school_name": "Name unknown",
            "country_name": "Nigeria",
            "connectivity": false
        },
        {
            "lon": 6.666895171,
            "lat": 12.16690365,
            "school_name": "Name unknown",
            "country_name": "Nigeria",
            "connectivity": false
        },
        {
            "lon": 6.684810519,
            "lat": 12.17175186,
            "school_name": "Name unknown",
            "country_name": "Nigeria",
            "connectivity": false
        },
        {
            "lon": 8.3167633,
            "lat": 4.9170067,
            "school_name": "Name unknown",
            "country_name": "Nigeria",
            "connectivity": false
        },
        {
            "lon": 27.91536,
            "lat": -26.04165,
            "school_name": "Far North Secondary School",
            "country_name": "South Africa",
            "connectivity": false
        },
        {
            "lon": 33.33804751,
            "lat": -11.81985633,
            "school_name": "Mubanga",
            "country_name": "Malawi",
            "connectivity": false
        },
        {
            "lon": -12.83887,
            "lat": 20.64195,
            "school_name": "entid",
            "country_name": "Mauritania",
            "connectivity": false
        },
        {
            "lon": -8.531645,
            "lat": 4.96239,
            "school_name": "Nipliakpo Elem. School",
            "country_name": "Liberia",
            "connectivity": false
        },
        {
            "lon": -58.76019328,
            "lat": -34.65135873,
            "school_name": "C.E.N.S. REPUBLICA ARGENTINA",
            "country_name": "Argentina",
            "connectivity": false
        },
        {
            "lon": -77.8843,
            "lat": -8.2349,
            "school_name": "1671",
            "country_name": "Peru",
            "connectivity": false
        },
        {
            "lon": -76.1672,
            "lat": -13.4601,
            "school_name": "22247 JUAN XXIII",
            "country_name": "Peru",
            "connectivity": false
        },
        {
            "lon": -75.2645,
            "lat": -10.1195,
            "school_name": "322",
            "country_name": "Peru",
            "connectivity": false
        },
        {
            "lon": -75.1394,
            "lat": -8.50126,
            "school_name": "735",
            "country_name": "Peru",
            "connectivity": false
        },
        {
            "lon": -77.0098,
            "lat": -12.1883,
            "school_name": "MICAELA BASTIDAS",
            "country_name": "Peru",
            "connectivity": false
        },
        {
            "lon": -69.1117,
            "lat": -16.4963,
            "school_name": "ZEPITA",
            "country_name": "Peru",
            "connectivity": false
        },
        {
            "lon": 7.140144,
            "lat": 5.41543,
            "school_name": "Name unknown",
            "country_name": "Nigeria",
            "connectivity": false
        },
        {
            "lon": 7.214871,
            "lat": 5.783299,
            "school_name": "Name unknown",
            "country_name": "Nigeria",
            "connectivity": false
        },
        {
            "lon": 8.781922,
            "lat": 12.23756,
            "school_name": "Name unknown",
            "country_name": "Nigeria",
            "connectivity": false
        },
        {
            "lon": 6.677428969,
            "lat": 8.624834271,
            "school_name": "Name unknown",
            "country_name": "Nigeria",
            "connectivity": false
        },
        {
            "lon": 6.577055454,
            "lat": 9.030987024,
            "school_name": "Name unknown",
            "country_name": "Nigeria",
            "connectivity": false
        },
        {
            "lon": 3.531855,
            "lat": 6.719126667,
            "school_name": "Name unknown",
            "country_name": "Nigeria",
            "connectivity": false
        },
        {
            "lon": 3.656295,
            "lat": 6.852298333,
            "school_name": "Name unknown",
            "country_name": "Nigeria",
            "connectivity": false
        },
        {
            "lon": 9.853282,
            "lat": 9.148152,
            "school_name": "Name unknown",
            "country_name": "Nigeria",
            "connectivity": false
        },
        {
            "lon": 9.671915,
            "lat": 7.9908117,
            "school_name": "Name unknown",
            "country_name": "Nigeria",
            "connectivity": false
        },
        {
            "lon": 10.528979,
            "lat": 11.247971,
            "school_name": "Name unknown",
            "country_name": "Nigeria",
            "connectivity": false
        },
        {
            "lon": 66.64645,
            "lat": 38.28578,
            "school_name": "79 -  sonli umumta\u2018lim maktabi",
            "country_name": "Uzbekistan",
            "connectivity": false
        },
        {
            "lon": 64.38635697,
            "lat": 39.99808583,
            "school_name": "4 -  sonli umumta\u2018lim maktabi",
            "country_name": "Uzbekistan",
            "connectivity": false
        },
        {
            "lon": 72.117476,
            "lat": 40.802613,
            "school_name": "36 -  sonli umumta\u2018lim maktabi",
            "country_name": "Uzbekistan",
            "connectivity": false
        },
        {
            "lon": 72.10870882,
            "lat": 40.75578581,
            "school_name": "50 -  sonli umumta\u2018lim maktabi",
            "country_name": "Uzbekistan",
            "connectivity": false
        },
        {
            "lon": -104.001355,
            "lat": 26.389531,
            "school_name": "TELESECUNDARIA NUM. 228",
            "country_name": "Mexico",
            "connectivity": false
        },
        {
            "lon": -102.779447,
            "lat": 20.363674,
            "school_name": "ESCUELA SECUNDARIA TECNICA 42",
            "country_name": "Mexico",
            "connectivity": false
        },
        {
            "lon": -101.943744,
            "lat": 21.362847,
            "school_name": "JOSE BECERRA Y VILLALOBOS",
            "country_name": "Mexico",
            "connectivity": false
        },
        {
            "lon": -97.971049,
            "lat": 19.947526,
            "school_name": "JUAN ESCUTIA",
            "country_name": "Mexico",
            "connectivity": false
        },
        {
            "lon": -106.418421,
            "lat": 23.200162,
            "school_name": "CENTRO SEA NUM. 7",
            "country_name": "Mexico",
            "connectivity": false
        },
        {
            "lon": -107.035136,
            "lat": 24.180835,
            "school_name": "TELESECUNDARIA FEDERALIZADA NUM. 175",
            "country_name": "Mexico",
            "connectivity": false
        },
        {
            "lon": -106.369937,
            "lat": 23.268307,
            "school_name": "INSTITUTO CANIZALEZ DE MAZATLAN A.C.",
            "country_name": "Mexico",
            "connectivity": false
        },
        {
            "lon": -97.5327,
            "lat": 20.72244,
            "school_name": "EMILIANO ZAPATA",
            "country_name": "Mexico",
            "connectivity": false
        },
        {
            "lon": -98.13161,
            "lat": 21.30086,
            "school_name": "MANUEL GUTIERREZ NAJERA",
            "country_name": "Mexico",
            "connectivity": false
        },
        {
            "lon": 69.0272,
            "lat": 24.6242,
            "school_name": "GBPS - GEDOORO MALLAH",
            "country_name": "Pakistan",
            "connectivity": false
        },
        {
            "lon": -99.241533,
            "lat": 18.949493,
            "school_name": "TOHUI",
            "country_name": "Mexico",
            "connectivity": false
        },
        {
            "lon": 68.5183,
            "lat": 24.7856,
            "school_name": "GBPS - MUHAMMAD UMER WADHO",
            "country_name": "Pakistan",
            "connectivity": false
        },
        {
            "lon": 68.5083,
            "lat": 24.6033,
            "school_name": "GBPS - SHAFI MUHAMMAD ARAIN",
            "country_name": "Pakistan",
            "connectivity": false
        },
        {
            "lon": 69.1278,
            "lat": 25.0333,
            "school_name": "GBPS - BACHAL AHMEDANI @ SIDDIQUE JATWAR",
            "country_name": "Pakistan",
            "connectivity": false
        },
        {
            "lon": 69.2428,
            "lat": 27.9175,
            "school_name": "GBPS - MUHAMMAD ALI KALHORO",
            "country_name": "Pakistan",
            "connectivity": false
        },
        {
            "lon": 69.5093,
            "lat": 27.9501,
            "school_name": "GBPS - BAHADUR TUMRANI",
            "country_name": "Pakistan",
            "connectivity": false
        },
        {
            "lon": 68.4549,
            "lat": 25.3895,
            "school_name": "GBPS - JHANDO KHOSO",
            "country_name": "Pakistan",
            "connectivity": false
        },