{
    "name": "Patchwork Kingdom #807 | Fenquilar",
    "description": "The twin kingdoms of Fenquilar, separated by a digital divide. A bustling kingdom of 209 schools on top that are all connected to the internet, and 140 schools, not connected, hidden in the upside down kingdom | Created for Giga (GigaConnect.org) \u2014 connecting every school in the world \u2014 in celebration of UNICEF's 75th birthday, by Nadieh Bremer",
    "external_url": "https://dummyURL.com/patchwork_kingdoms_807",
    "image": "https://dummy-storage-url.com/patchwork_kingdoms_807.png",
    "attributes": [
        {
            "trait_type": "Color palette",
            "value": "broomsticks"
        },
        {
            "display_type": "number",
            "trait_type": "Schools",
            "value": 373,
            "max_value": 460
        },
        {
            "display_type": "number",
            "trait_type": "Ratio - Connected",
            "value": 0.56,
            "max_value": 1
        },
        {
            "display_type": "number",
            "trait_type": "Ratio - Unconnected",
            "value": 0.38,
            "max_value": 1
        },
        {
            "display_type": "number",
            "trait_type": "Ratio - Data unavailable",
            "value": 0.06,
            "max_value": 1
        },
        {
            "trait_type": "Countries",
            "value": "BJ-BR-CO-CR-HN-KG-KZ-LC-NA-PH-PS-RW-SL-ZW"
        },
        {
            "display_type": "number",
            "trait_type": "Symbols",
            "value": 45,
            "max_value": 51
        }
    ],
    "cluster_id": 807,
    "num_schools": 373,
    "num_schools_connected": 209,
    "num_schools_unconnected": 140,
    "num_schools_unknown": 24,
    "schools": [
        {
            "lon": -49.2232,
            "lat": -16.7415,
            "school_name": "ESCOLA MUNICIPAL PARQUE FLAMBOYANT",
            "country_name": "Brazil",
            "connectivity": true
        },
        {
            "lon": -54.9103,
            "lat": -9.9497,
            "school_name": "ESCOLA ESTADUAL ALBERT EINSTEIN",
            "country_name": "Brazil",
            "connectivity": true
        },
        {
            "lon": 29.30779,
            "lat": -17.14524,
            "school_name": "JINGA",
            "country_name": "Zimbabwe",
            "connectivity": true
        },
        {
            "lon": -87.64506,
            "lat": 14.33577,
            "school_name": "RAFAEL PINEDA PONCE",
            "country_name": "Honduras",
            "connectivity": true
        },
        {
            "lon": -86.8509,
            "lat": 14.98294,
            "school_name": "LIC. PORFIRIO LOBO SOSA",
            "country_name": "Honduras",
            "connectivity": true
        },
        {
            "lon": -86.11814,
            "lat": 15.7261,
            "school_name": "MARCELINO PINEDA LOPEZ",
            "country_name": "Honduras",
            "connectivity": true
        },
        {
            "lon": -61.044829,
            "lat": 13.798162,
            "school_name": "Mongouge Combined",
            "country_name": "Saint Lucia",
            "connectivity": true
        },
        {
            "lon": -87.74261,
            "lat": 14.73211,
            "school_name": "RAYOS DE LUZ",
            "country_name": "Honduras",
            "connectivity": true
        },
        {
            "lon": -87.96419,
            "lat": 14.73451,
            "school_name": "VISITACION PADILLA",
            "country_name": "Honduras",
            "connectivity": true
        },
        {
            "lon": -73.57333333,
            "lat": 6.025555556,
            "school_name": "Name unknown",
            "country_name": "Colombia",
            "connectivity": false
        },
        {
            "lon": -87.01603,
            "lat": 13.96887,
            "school_name": "ANDI RUBIO",
            "country_name": "Honduras",
            "connectivity": true
        },
        {
            "lon": -87.09345,
            "lat": 14.28123,
            "school_name": "ENMANUEL .",
            "country_name": "Honduras",
            "connectivity": true
        },
        {
            "lon": -84.54035,
            "lat": 15.75693,
            "school_name": "GALILLAS BORDAS ASTIN",
            "country_name": "Honduras",
            "connectivity": true
        },
        {
            "lon": 32.4591,
            "lat": -19.21171,
            "school_name": "SHUNDURE",
            "country_name": "Zimbabwe",
            "connectivity": true
        },
        {
            "lon": 32.63921,
            "lat": -19.13273,
            "school_name": "MT  DANGARE",
            "country_name": "Zimbabwe",
            "connectivity": true
        },
        {
            "lon": 32.73307,
            "lat": -19.93569,
            "school_name": "THORNTON",
            "country_name": "Zimbabwe",
            "connectivity": true
        },
        {
            "lon": -50.8723,
            "lat": -23.3939,
            "school_name": "OASIS SANTA PAULA CENTRO EDUC INF",
            "country_name": "Brazil",
            "connectivity": true
        },
        {
            "lon": -50.8995,
            "lat": -22.2308,
            "school_name": "EM DONA MILOCA",
            "country_name": "Brazil",
            "connectivity": true
        },
        {
            "lon": -49.6291,
            "lat": -26.9605,
            "school_name": "EEB JOSE CLEMENTE PEREIRA",
            "country_name": "Brazil",
            "connectivity": true
        },
        {
            "lon": -84.20034361,
            "lat": 9.9333866,
            "school_name": "ISABEL LA CATOLICA",
            "country_name": "Costa Rica",
            "connectivity": true
        },
        {
            "lon": -84.47592975,
            "lat": 10.37239756,
            "school_name": "CAIMITOS",
            "country_name": "Costa Rica",
            "connectivity": true
        },
        {
            "lon": -83.83494128,
            "lat": 10.01156838,
            "school_name": "ARGENTINA GONGORA DE ROBERT",
            "country_name": "Costa Rica",
            "connectivity": true
        },
        {
            "lon": -84.42548534,
            "lat": 9.55767151,
            "school_name": "CHIRES",
            "country_name": "Costa Rica",
            "connectivity": true
        },
        {
            "lon": 35.289989,
            "lat": 32.19441,
            "school_name": "Amar bn Yaser coed",
            "country_name": "Palestine",
            "connectivity": true
        },
        {
            "lon": 35.022955,
            "lat": 31.619372,
            "school_name": "hatta basic moktalata",
            "country_name": "Palestine",
            "connectivity": true
        },
        {
            "lon": 35.001702,
            "lat": 31.439261,
            "school_name": "korza boy sec school",
            "country_name": "Palestine",
            "connectivity": true
        },
        {
            "lon": -84.37831632,
            "lat": 9.97319994,
            "school_name": "C.T.P. DE ATENAS",
            "country_name": "Costa Rica",
            "connectivity": true
        },
        {
            "lon": 28.48416,
            "lat": -20.14273,
            "school_name": "ST BERNARDS",
            "country_name": "Zimbabwe",
            "connectivity": true
        },
        {
            "lon": 27.68265,
            "lat": -18.7261,
            "school_name": "BHANGALE",
            "country_name": "Zimbabwe",
            "connectivity": true
        },
        {
            "lon": 29.65332,
            "lat": -20.46871,
            "school_name": "MWELE",
            "country_name": "Zimbabwe",
            "connectivity": true
        },
        {
            "lon": -49.5585,
            "lat": -15.1734,
            "school_name": "ESCOLA MUNICIPAL PROFESSOR JOAO BATISTA GUIMARAES",
            "country_name": "Brazil",
            "connectivity": true
        },
        {
            "lon": -36.5627,
            "lat": -8.3605,
            "school_name": "ESCOLA MUNICIPAL PROFESSOR AMARO SOARES DE SOUZA",
            "country_name": "Brazil",
            "connectivity": true
        },
        {
            "lon": -88.15793,
            "lat": 14.8169,
            "school_name": "SUPERACION",
            "country_name": "Honduras",
            "connectivity": true
        },
        {
            "lon": -73.511667,
            "lat": 6.697778,
            "school_name": "Name unknown",
            "country_name": "Colombia",
            "connectivity": false
        },
        {
            "lon": -74.10097895,
            "lat": 4.607712761,
            "school_name": "Name unknown",
            "country_name": "Colombia",
            "connectivity": false
        },
        {
            "lon": -74.21833333,
            "lat": 4.5775,
            "school_name": "Name unknown",
            "country_name": "Colombia",
            "connectivity": false
        },
        {
            "lon": 20.67417,
            "lat": -18.00722,
            "school_name": "Nyangana CS",
            "country_name": "Namibia",
            "connectivity": true
        },
        {
            "lon": 19.502808,
            "lat": -17.875478,
            "school_name": "Leevi Hakusembe SS",
            "country_name": "Namibia",
            "connectivity": true
        },
        {
            "lon": 15.07028,
            "lat": -17.84306,
            "school_name": "Nakashololo PS",
            "country_name": "Namibia",
            "connectivity": false
        },
        {
            "lon": 120.557528,
            "lat": 15.264231,
            "school_name": "Lourdes ES - Park",
            "country_name": "Philippines",
            "connectivity": true
        },
        {
            "lon": 120.6007782,
            "lat": 15.68143785,
            "school_name": "Manaois Elementary School",
            "country_name": "Philippines",
            "connectivity": true
        },
        {
            "lon": 122.172861,
            "lat": 13.748223,
            "school_name": "San Isidro ES",
            "country_name": "Philippines",
            "connectivity": true
        },
        {
            "lon": 119.605039,
            "lat": 10.548559,
            "school_name": "Sta. Maria ES",
            "country_name": "Philippines",
            "connectivity": true
        },
        {
            "lon": 124.056088,
            "lat": 12.987722,
            "school_name": "San Vicente Elementary School",
            "country_name": "Philippines",
            "connectivity": true
        },
        {
            "lon": 123.9791862,
            "lat": 12.05143169,
            "school_name": "Sta. Teresita ES",
            "country_name": "Philippines",
            "connectivity": true
        },
        {
            "lon": 123.68858,
            "lat": 10.322897,
            "school_name": "MEDIA ONCE ELEMENTARY  SCHOOL",
            "country_name": "Philippines",
            "connectivity": true
        },
        {
            "lon": 124.551696,
            "lat": 11.641592,
            "school_name": "Habuhab ES",
            "country_name": "Philippines",
            "connectivity": true
        },
        {
            "lon": 124.4414036,
            "lat": 11.30203595,
            "school_name": "Pining Paglingap ES",
            "country_name": "Philippines",
            "connectivity": true
        },
        {
            "lon": 125.519829,
            "lat": 10.245668,
            "school_name": "Melody-Curada ES",
            "country_name": "Philippines",
            "connectivity": true
        },
        {
            "lon": 126.2540872,
            "lat": 8.386003155,
            "school_name": "Sta. Rita Elementary School",
            "country_name": "Philippines",
            "connectivity": true
        },
        {
            "lon": 121.894684,
            "lat": 6.593674,
            "school_name": "Pamucalin ES",
            "country_name": "Philippines",
            "connectivity": true
        },
        {
            "lon": 124.35045,
            "lat": 7.850112,
            "school_name": "Ragayan CES",
            "country_name": "Philippines",
            "connectivity": true
        },
        {
            "lon": 120.7361619,
            "lat": 16.57865908,
            "school_name": "Adoyunan ES",
            "country_name": "Philippines",
            "connectivity": true
        },
        {
            "lon": 121.0644444,
            "lat": 18.23111111,
            "school_name": "Ferdinand PS",
            "country_name": "Philippines",
            "connectivity": true
        },
        {
            "lon": 120.604,
            "lat": 17.6269,
            "school_name": "San Antonio ES",
            "country_name": "Philippines",
            "connectivity": true
        },
        {
            "lon": 121.543642,
            "lat": 16.9086555,
            "school_name": "San Juan ES",
            "country_name": "Philippines",
            "connectivity": true
        },
        {
            "lon": -87.89363,
            "lat": 14.4502,
            "school_name": "JOSE CECILIO DEL VALLE",
            "country_name": "Honduras",
            "connectivity": true
        },
        {
            "lon": -75.021667,
            "lat": 4.879722,
            "school_name": "LA HONDA",
            "country_name": "Colombia",
            "connectivity": true
        },
        {
            "lon": -72.634722,
            "lat": 1.949722,
            "school_name": "EL TRIUNFO",
            "country_name": "Colombia",
            "connectivity": true
        },
        {
            "lon": -72.69333333,
            "lat": 6.62944444,
            "school_name": "ESCUELA RURAL LOMA DEL NEGRO",
            "country_name": "Colombia",
            "connectivity": true
        },
        {
            "lon": -72.964444,
            "lat": 4.569167,
            "school_name": "SEDE JORGE ELIECER GAITAN",
            "country_name": "Colombia",
            "connectivity": true
        },
        {
            "lon": -73.23761581,
            "lat": 6.567712689,
            "school_name": "ESCUELA RURAL  EL OVAL",
            "country_name": "Colombia",
            "connectivity": true
        },
        {
            "lon": -73.449405,
            "lat": 4.989119,
            "school_name": "ESC ANTONIA SANTOS",
            "country_name": "Colombia",
            "connectivity": true
        },
        {
            "lon": -73.63796389,
            "lat": 4.141108333,
            "school_name": "INSTITUCI\u00d2N EDUCATIVA COLEGIO FRANCISCO ARANGO",
            "country_name": "Colombia",
            "connectivity": true
        },
        {
            "lon": -73.46326056,
            "lat": 8.635630019,
            "school_name": "SEDE LAS DELICIAS",
            "country_name": "Colombia",
            "connectivity": true
        },
        {
            "lon": -73.98584011,
            "lat": 10.20871086,
            "school_name": "ESCUELA BELLA MARIA",
            "country_name": "Colombia",
            "connectivity": true
        },
        {
            "lon": -73.97430266,
            "lat": 10.45127785,
            "school_name": "CENTRO ETNOEDUCATIVO UMAKE",
            "country_name": "Colombia",
            "connectivity": true
        },
        {
            "lon": -74.05472222,
            "lat": 9.40222222,
            "school_name": "ERM LAS MERCEDES",
            "country_name": "Colombia",
            "connectivity": true
        },
        {
            "lon": -74.27601089,
            "lat": 2.165070356,
            "school_name": "LAS MALVINAS",
            "country_name": "Colombia",
            "connectivity": true
        },
        {
            "lon": -74.449185,
            "lat": 1.583047,
            "school_name": "EL GUAYABO MEDIO",
            "country_name": "Colombia",
            "connectivity": true
        },
        {
            "lon": -74.77231111,
            "lat": 10.98145556,
            "school_name": "INSTITUTO TECNICO NACIONAL DE COMERCIO (ANT. C.E.B. #113)",
            "country_name": "Colombia",
            "connectivity": true
        },
        {
            "lon": -75.12927848,
            "lat": 6.111321892,
            "school_name": "C. E. R. TAFETANES",
            "country_name": "Colombia",
            "connectivity": true
        },
        {
            "lon": -75.170833,
            "lat": 5.697778,
            "school_name": "C. E. R. CONCEPCION CARDONA",
            "country_name": "Colombia",
            "connectivity": true
        },
        {
            "lon": -75.03,
            "lat": 9.46,
            "school_name": "CENTRO EDUCATIVO SANTA ISABEL",
            "country_name": "Colombia",
            "connectivity": true
        },
        {
            "lon": -75.243182,
            "lat": 6.524374,
            "school_name": "E R LAS BEATRICES",
            "country_name": "Colombia",
            "connectivity": true
        },
        {
            "lon": -75.515556,
            "lat": 5.261944,
            "school_name": "INSTITUCION EDUCATIVA DIVINO NI\u00d1O",
            "country_name": "Colombia",
            "connectivity": true
        },
        {
            "lon": -75.69012031,
            "lat": 1.241617631,
            "school_name": "LIBERIA",
            "country_name": "Colombia",
            "connectivity": true
        },
        {
            "lon": -75.691389,
            "lat": 6.915556,
            "school_name": "C. E. R. MONTA\u00d1ADENTRO",
            "country_name": "Colombia",
            "connectivity": true
        },
        {
            "lon": -75.74744694,
            "lat": 5.794918789,
            "school_name": "C. E. R. SAN RAMON",
            "country_name": "Colombia",
            "connectivity": true
        },
        {
            "lon": -75.95961239,
            "lat": 2.565620344,
            "school_name": "ESCUELA RURAL MIXTA LAS DELICIAS CALOTO",
            "country_name": "Colombia",
            "connectivity": true
        },
        {
            "lon": -76.08468055,
            "lat": 2.30387074,
            "school_name": "AGUA BONITA",
            "country_name": "Colombia",
            "connectivity": true
        },
        {
            "lon": -76.45642054,
            "lat": 4.40903571,
            "school_name": "DOJUURU",
            "country_name": "Colombia",
            "connectivity": true
        },
        {
            "lon": -76.50310217,
            "lat": 3.788345813,
            "school_name": "ANTONIO NARI\u00d1O",
            "country_name": "Colombia",
            "connectivity": true
        },
        {
            "lon": -76.426389,
            "lat": 8.499444,
            "school_name": "C. E. R. MESOPOTAMIA",
            "country_name": "Colombia",
            "connectivity": true
        },
        {
            "lon": -76.63754423,
            "lat": 2.80701447,
            "school_name": "EL DANUBIO",
            "country_name": "Colombia",
            "connectivity": true
        },
        {
            "lon": -77.11722222,
            "lat": 7.916666667,
            "school_name": "SEDE ANEXA FRANCISCO MIRANDA",
            "country_name": "Colombia",
            "connectivity": true
        },
        {
            "lon": -38.915997,
            "lat": -6.2513275,
            "school_name": "ROBERTO ROLIM EEF",
            "country_name": "Brazil",
            "connectivity": true
        },
        {
            "lon": -78.77763169,
            "lat": 1.805417293,
            "school_name": "SEDE # 2 TRES CRUCES",
            "country_name": "Colombia",
            "connectivity": true
        },
        {
            "lon": -60.2534,
            "lat": -12.3369,
            "school_name": "EIEEFM SOWAINTE",
            "country_name": "Brazil",
            "connectivity": false
        },
        {
            "lon": -64.2321,
            "lat": -12.4303,
            "school_name": "CRECHE MUNICIPAL MUNDO MAGICO",
            "country_name": "Brazil",
            "connectivity": true
        },
        {
            "lon": -61.3718,
            "lat": -3.5412,
            "school_name": "ESCOLA MUNICIPAL WALDIO PEREIRA DE VASCONCELOS",
            "country_name": "Brazil",
            "connectivity": false
        },
        {
            "lon": -62.0615,
            "lat": -3.8423,
            "school_name": "ESCOLA ESTADUAL WILSON GARCIA BASTOS",
            "country_name": "Brazil",
            "connectivity": true
        },
        {
            "lon": -58.035,
            "lat": -2.754,
            "school_name": "ESCOLA MUNICIPAL SANTO ANTONIO",
            "country_name": "Brazil",
            "connectivity": false
        },
        {
            "lon": -57.344,
            "lat": -3.0639,
            "school_name": "ESC MANOEL DE SOUZA PENA",
            "country_name": "Brazil",
            "connectivity": false
        },
        {
            "lon": -57.6457,
            "lat": -3.5583,
            "school_name": "ESC MUN BOA ESPERANCA I",
            "country_name": "Brazil",
            "connectivity": false
        },
        {
            "lon": -57.2075,
            "lat": -3.7352,
            "school_name": "ESC MUN INDIGENA NUITU-NUITU YWYT OKPY",
            "country_name": "Brazil",
            "connectivity": false
        },
        {
            "lon": -37.6695,
            "lat": -9.3897,
            "school_name": "ESCOLA MUNICIPAL FREI DAMIAO",
            "country_name": "Brazil",
            "connectivity": true
        },
        {
            "lon": -60.6476,
            "lat": -3.1849,
            "school_name": "EMEF INDIGENA KATXIPIRY",
            "country_name": "Brazil",
            "connectivity": false
        },
        {
            "lon": -59.7014,
            "lat": -2.699,
            "school_name": "CENTRO DE EDUCACAO TECNOLOGICA DO AMAZONAS CETAM",
            "country_name": "Brazil",
            "connectivity": true
        },
        {
            "lon": -64.795,
            "lat": -7.2654,
            "school_name": "CENTRO DE EDUCACAO TECNOLOGICA DO AMAZONAS - CETAM",
            "country_name": "Brazil",
            "connectivity": false
        },
        {
            "lon": -60.3775,
            "lat": -5.118,
            "school_name": "ESC MUN PROF",
            "country_name": "Brazil",
            "connectivity": false
        },
        {
            "lon": -50.0088,
            "lat": -1.6458,
            "school_name": "E M E I F ALAYDE DIAS",
            "country_name": "Brazil",
            "connectivity": false
        },
        {
            "lon": -47.6134,
            "lat": -1.1288,
            "school_name": "EEEFM NILO DE OLIVEIRA",
            "country_name": "Brazil",
            "connectivity": false
        },
        {
            "lon": -48.9089,
            "lat": -17.7232,
            "school_name": "ESCOLA MUNICIPAL LINDOLFO ALVES PINTO",
            "country_name": "Brazil",
            "connectivity": true
        },
        {
            "lon": -44.7081,
            "lat": -2.0792,
            "school_name": "UEB NOSSA SENHORA DE FATIMA",
            "country_name": "Brazil",
            "connectivity": false
        },
        {
            "lon": -42.8582,
            "lat": -3.1686,
            "school_name": "UE SAO RAIMUNDO",
            "country_name": "Brazil",
            "connectivity": false
        },
        {
            "lon": -45.2743,
            "lat": -2.5882,
            "school_name": "EM FRANCISCO DA SILVA",
            "country_name": "Brazil",
            "connectivity": false
        },
        {
            "lon": -47.2933,
            "lat": -4.7706,
            "school_name": "EM SAO GERALDO MAGELA",
            "country_name": "Brazil",
            "connectivity": false
        },
        {
            "lon": -44.2523,
            "lat": -4.9938,
            "school_name": "EM SAO RAIMUNDO",
            "country_name": "Brazil",
            "connectivity": false
        },
        {
            "lon": -43.4335,
            "lat": -3.0482,
            "school_name": "EM CARDOSO ALVES",
            "country_name": "Brazil",
            "connectivity": false
        },
        {
            "lon": -46.0009,
            "lat": -7.0356,
            "school_name": "EM TIRADENTES",
            "country_name": "Brazil",
            "connectivity": false
        },
        {
            "lon": -45.2733,
            "lat": -2.3032,
            "school_name": "CEF MARIA AMALIA MARTINS REIS",
            "country_name": "Brazil",
            "connectivity": false
        },
        {
            "lon": -42.3338,
            "lat": -4.432,
            "school_name": "ESC MUL DOMINGOS PEREIRA DA ROCHA",
            "country_name": "Brazil",
            "connectivity": false
        },
        {
            "lon": -41.8764,
            "lat": -6.4786,
            "school_name": "UNID ESC GAUDENCIO PORTELA VELOSO",
            "country_name": "Brazil",
            "connectivity": false
        },
        {
            "lon": -45.188,
            "lat": -10.6507,
            "school_name": "UNIDADE ESCOLAR TIA BELINHA",
            "country_name": "Brazil",
            "connectivity": false
        },
        {
            "lon": -38.5809,
            "lat": -3.724,
            "school_name": "EEMTI PROFESSORA BALBINA JUCA DE ALBUQUERQUE",
            "country_name": "Brazil",
            "connectivity": true
        },
        {
            "lon": -39.2427,
            "lat": -5.7389,
            "school_name": "ANTONIO HONORIO PINHEIRO EEIEF",
            "country_name": "Brazil",
            "connectivity": false
        },
        {
            "lon": -39.6256,
            "lat": -5.7403,
            "school_name": "LAURA ALENCAR PROFA EEF",
            "country_name": "Brazil",
            "connectivity": true
        },
        {
            "lon": -37.8359,
            "lat": -4.8001,
            "school_name": "RAIMUNDO SALES FACANHA EEF",
            "country_name": "Brazil",
            "connectivity": false
        },
        {
            "lon": -39.3544,
            "lat": -7.1537,
            "school_name": "LAURENTINO ALVES DE MACENA EEF",
            "country_name": "Brazil",
            "connectivity": false
        },
        {
            "lon": -48.2419,
            "lat": -15.7662,
            "school_name": "ESCOLA MUNICIPAL MARIA MACHADO DE MATOS",
            "country_name": "Brazil",
            "connectivity": true
        },
        {
            "lon": -36.5535,
            "lat": -5.1458,
            "school_name": "UNIDADE 4 - CANTO DO PAPAGAIO",
            "country_name": "Brazil",
            "connectivity": true
        },
        {
            "lon": -35.0524,
            "lat": -6.2283,
            "school_name": "ESCOLA MUNICIPAL VICENCIA CASTELO",
            "country_name": "Brazil",
            "connectivity": true
        },
        {
            "lon": -35.1291,
            "lat": -6.1116,
            "school_name": "CMEI PROFESSORA MARIA SEBASTIANA DA COSTA LUZ",
            "country_name": "Brazil",
            "connectivity": false
        },
        {
            "lon": -35.2481,
            "lat": -5.8283,
            "school_name": "E E EURIPEDES BARSANULFO",
            "country_name": "Brazil",
            "connectivity": true
        },
        {
            "lon": -37.4601,
            "lat": -6.5012,
            "school_name": "EEEFM JOAO SILVEIRA GUIMARAES",
            "country_name": "Brazil",
            "connectivity": true
        },
        {
            "lon": -34.8847,
            "lat": -7.1989,
            "school_name": "EMEF JORNALISTA RAIMUNDO NONATO BATISTA",
            "country_name": "Brazil",
            "connectivity": true
        },
        {
            "lon": -36.1827,
            "lat": -8.7154,
            "school_name": "ESCOLA ANTONIO SEVERO DE OLIVEIRA",
            "country_name": "Brazil",
            "connectivity": false
        },
        {
            "lon": -48.3677,
            "lat": -1.3434,
            "school_name": "EMEF MARIA EMILIA ANTUNES",
            "country_name": "Brazil",
            "connectivity": true
        },
        {
            "lon": -37.4954,
            "lat": -10.7382,
            "school_name": "ESCOLA MUNICIPAL PROF LUCIA MARIA BEZERRA SANTOS DE ANDRADE CRUZ",
            "country_name": "Brazil",
            "connectivity": false
        },
        {
            "lon": -44.6333,
            "lat": -13.2534,
            "school_name": "ESC MUNICIPAL AVARISTO DE SOUZA BARBOSA",
            "country_name": "Brazil",
            "connectivity": false
        },
        {
            "lon": -40.002,
            "lat": -11.3791,
            "school_name": "ESC MUL LUCIANO SILVA",
            "country_name": "Brazil",
            "connectivity": true
        },
        {
            "lon": -41.3293,
            "lat": -12.7982,
            "school_name": "ESCOLA MUNICIPAL CARLOS SANTANA",
            "country_name": "Brazil",
            "connectivity": true
        },
        {
            "lon": -41.8093,
            "lat": -11.4545,
            "school_name": "CENTRO EDUCACIONAL C ANTONIO MATOS FILHO",
            "country_name": "Brazil",
            "connectivity": true
        },
        {
            "lon": -43.1828,
            "lat": -12.6989,
            "school_name": "EE - COLEGIO ESTADUAL EVANDRO BRANDAO",
            "country_name": "Brazil",
            "connectivity": true
        },
        {
            "lon": -40.5102,
            "lat": -9.4431,
            "school_name": "ESCOLA MUNICIPAL DE EDUCACAO INFANTIL LUZINETE DE OLIVEIRA",
            "country_name": "Brazil",
            "connectivity": false
        },
        {
            "lon": -43.621,
            "lat": -18.2347,
            "school_name": "EE PROFESSOR AIRES DA MATA MACHADO",
            "country_name": "Brazil",
            "connectivity": true
        },
        {
            "lon": -46.079,
            "lat": -19.9119,
            "school_name": "EM MATA DOS RIBEIROS",
            "country_name": "Brazil",
            "connectivity": true
        },
        {
            "lon": -46.1973,
            "lat": -22.7071,
            "school_name": "EM EDU VALENTIM VILACA",
            "country_name": "Brazil",
            "connectivity": true
        },
        {
            "lon": -44.1546,
            "lat": -16.0357,
            "school_name": "EM FRANCISCO SOARES",
            "country_name": "Brazil",
            "connectivity": true
        },
        {
            "lon": -43.4162,
            "lat": -20.3755,
            "school_name": "EE DOUTOR GOMES FREIRE",
            "country_name": "Brazil",
            "connectivity": true
        },
        {
            "lon": -46.3107,
            "lat": -18.9135,
            "school_name": "EM SALATIEL SOARES",
            "country_name": "Brazil",
            "connectivity": false
        },
        {
            "lon": -41.5426,
            "lat": -17.0831,
            "school_name": "EM JOSE LIMA",
            "country_name": "Brazil",
            "connectivity": false
        },
        {
            "lon": -37.7065,
            "lat": -11.3468,
            "school_name": "ESC MUL RAIMUNDO VIEIRA BARRETO",
            "country_name": "Brazil",
            "connectivity": true
        },
        {
            "lon": -48.5451,
            "lat": -22.3155,
            "school_name": "BENEDICTO MONTENEGRO PROFESSOR DOUTOR",
            "country_name": "Brazil",
            "connectivity": true
        },
        {
            "lon": -48.2718,
            "lat": -18.9199,
            "school_name": "EMEI PROF\u00aa STELA MARIA DE PAIVA CARRIJO",
            "country_name": "Brazil",
            "connectivity": true
        },
        {
            "lon": -44.6285,
            "lat": -19.8359,
            "school_name": "CENTRO MUNICIPAL DE EDUCACAO INFANTIL RAYMUNDO MENDONCA",
            "country_name": "Brazil",
            "connectivity": true
        },
        {
            "lon": -42.1254,
            "lat": -17.6434,
            "school_name": "EM SAO JUDAS TADEU",
            "country_name": "Brazil",
            "connectivity": false
        },
        {
            "lon": -45.5563,
            "lat": -23.0484,
            "school_name": "MAUD SA DE MIRANDA PROFA EMEI",
            "country_name": "Brazil",
            "connectivity": true
        },
        {
            "lon": -43.9656,
            "lat": -19.5386,
            "school_name": "PEM SITIO DO PICA PAU AMARELO",
            "country_name": "Brazil",
            "connectivity": true
        },
        {
            "lon": -44.9214,
            "lat": -21.4044,
            "school_name": "PEM CANTINHO FELIZ",
            "country_name": "Brazil",
            "connectivity": true
        },
        {
            "lon": -46.4532,
            "lat": -23.6904,
            "school_name": "SAMIR AUADA EM",
            "country_name": "Brazil",
            "connectivity": true
        },
        {
            "lon": -41.9409,
            "lat": -20.3444,
            "school_name": "CRECHE MUNICIPAL CELCINO FRANCO SOARES",
            "country_name": "Brazil",
            "connectivity": false
        },
        {
            "lon": -44.1331,
            "lat": -19.9986,
            "school_name": "EM EDVALDO FALEIRO DE AGUIAR",
            "country_name": "Brazil",
            "connectivity": true
        },
        {
            "lon": -39.9667,
            "lat": -18.9959,
            "school_name": "EUM CORREGO MENEZES",
            "country_name": "Brazil",
            "connectivity": false
        },
        {
            "lon": -40.2732,
            "lat": -20.218,
            "school_name": "EMEF ANTONIO VIEIRA DE REZENDE",
            "country_name": "Brazil",
            "connectivity": true
        },
        {
            "lon": -47.9408,
            "lat": -16.5159,
            "school_name": "3\u00aa ESCOLA POLO MUNICIPAL RURAL ARARAS NAIR TIECHER",
            "country_name": "Brazil",
            "connectivity": true
        },
        {
            "lon": -42.1891,
            "lat": -21.5258,
            "school_name": "CRECHE ESCOLA PROFA ESTHER PINHEIRO FONSECA",
            "country_name": "Brazil",
            "connectivity": true
        },
        {
            "lon": -38.3095,
            "lat": -6.7201,
            "school_name": "EMEFM MARIA ESTRELA DE OLIVEIRA",
            "country_name": "Brazil",
            "connectivity": true
        },
        {
            "lon": -48.9074,
            "lat": -22.03,
            "school_name": "SEBASTIAO INOC ASSUMPCAO PROF",
            "country_name": "Brazil",
            "connectivity": true
        },
        {
            "lon": -44.1193,
            "lat": -22.5583,
            "school_name": "CE BOA VISTA",
            "country_name": "Brazil",
            "connectivity": true
        },
        {
            "lon": -43.4052,
            "lat": -22.7254,
            "school_name": "CE BAIRRO NOVA AURORA",
            "country_name": "Brazil",
            "connectivity": true
        },
        {
            "lon": -43.2651,
            "lat": -22.6352,
            "school_name": "CE PADRE ANCHIETA",
            "country_name": "Brazil",
            "connectivity": true
        },
        {
            "lon": -45.5529,
            "lat": -22.9629,
            "school_name": "MARIA PIA IORI PROFESSORA EMEI",
            "country_name": "Brazil",
            "connectivity": true
        },
        {
            "lon": -43.2753,
            "lat": -22.83,
            "school_name": "CE HEITOR LIRA",
            "country_name": "Brazil",
            "connectivity": true
        },
        {
            "lon": -46.4196,
            "lat": -23.3937,
            "school_name": "EPG - EPG EDSON NUNES MALECKA PROFESSOR",
            "country_name": "Brazil",
            "connectivity": true
        },
        {
            "lon": -34.8439,
            "lat": -7.9893,
            "school_name": "ESCOLA SAO LUCAS",
            "country_name": "Brazil",
            "connectivity": true
        },
        {
            "lon": -47.9101,
            "lat": -21.6225,
            "school_name": "MARIA IGNES MENIN BIFFI EMEF",
            "country_name": "Brazil",
            "connectivity": true
        },
        {
            "lon": -43.1749,
            "lat": -22.4762,
            "school_name": "CENTRO DE EDUCACAO INFANTIL IRMA SILVANA",
            "country_name": "Brazil",
            "connectivity": true
        },
        {
            "lon": -43.7938,
            "lat": -22.8757,
            "school_name": "ESCOLA MUNICIPAL JARDIM MAR",
            "country_name": "Brazil",
            "connectivity": false
        },
        {
            "lon": -42.8715,
            "lat": -22.3718,
            "school_name": "CRECHE PROFESSORA ALAYDE FERREIRA DA SILVA",
            "country_name": "Brazil",
            "connectivity": false
        },
        {
            "lon": -41.2114,
            "lat": -21.8534,
            "school_name": "EM COMPARTILHADA LEONCIO PEREIRA GOMES",
            "country_name": "Brazil",
            "connectivity": true
        },
        {
            "lon": -49.3675,
            "lat": -20.793,
            "school_name": "NOEMIA BUENO DO VALLE PROFESSORA",
            "country_name": "Brazil",
            "connectivity": true
        },
        {
            "lon": -46.7853,
            "lat": -23.4444,
            "school_name": "JOSE OSCAR ABREU SAMPAIO",
            "country_name": "Brazil",
            "connectivity": true
        },
        {
            "lon": -46.6528,
            "lat": -23.6535,
            "school_name": "EMEI MACHADO DE ASSIS",
            "country_name": "Brazil",
            "connectivity": true
        },
        {
            "lon": -46.5415,
            "lat": -23.5076,
            "school_name": "EMEF EDGARD CAVALHEIRO",
            "country_name": "Brazil",
            "connectivity": true
        },
        {
            "lon": -46.7445,
            "lat": -23.6467,
            "school_name": "CEU EMEI CASA BLANCA",
            "country_name": "Brazil",
            "connectivity": true
        },
        {
            "lon": -46.7908,
            "lat": -23.7518,
            "school_name": "JARDIM DO CARMO",
            "country_name": "Brazil",
            "connectivity": true
        },
        {
            "lon": -48.7067,
            "lat": -22.5012,
            "school_name": "DESIDERIO MINETTO EMEI",
            "country_name": "Brazil",
            "connectivity": true
        },
        {
            "lon": -49.313,
            "lat": -23.6286,
            "school_name": "MITSUO MATSURA PROF EM",
            "country_name": "Brazil",
            "connectivity": true
        },
        {
            "lon": -47.1502,
            "lat": -23.5572,
            "school_name": "IOLANDA LIMA DE OLIVEIRA PROFESSORA EMEI",
            "country_name": "Brazil",
            "connectivity": true
        },
        {
            "lon": -49.8936,
            "lat": -22.9662,
            "school_name": "MARIA JOSE FERREIRA EMEI",
            "country_name": "Brazil",
            "connectivity": false
        },
        {
            "lon": -47.8725,
            "lat": -20.6051,
            "school_name": "JAYR DE ANDRADE EMEI",
            "country_name": "Brazil",
            "connectivity": true
        },
        {
            "lon": -48.5725,
            "lat": -20.5335,
            "school_name": "JUNTO COMPLEXO SOCIAL EDUCACIONAL AMADOR A QUEIROZ CEMEI",
            "country_name": "Brazil",
            "connectivity": true
        },
        {
            "lon": -47.7796,
            "lat": -23.3215,
            "school_name": "JOSE MENEZES BUENO PROFESSOR EMEF",
            "country_name": "Brazil",
            "connectivity": true
        },
        {
            "lon": -59.9328,
            "lat": -3.0258,
            "school_name": "EM PROF JOAO CASTRO FILHO",
            "country_name": "Brazil",
            "connectivity": true
        },
        {
            "lon": -46.8018,
            "lat": -23.6966,
            "school_name": "SAMAMBAIA EM",
            "country_name": "Brazil",
            "connectivity": true
        },
        {
            "lon": -42.9873,
            "lat": -21.8655,
            "school_name": "EM ELVIRA MAGDALENA MANNARINO",
            "country_name": "Brazil",
            "connectivity": true
        },
        {
            "lon": -47.3791,
            "lat": -22.3306,
            "school_name": "LEONALDO ZORNOFF PROF EMEF",
            "country_name": "Brazil",
            "connectivity": true
        },
        {
            "lon": -47.3044,
            "lat": -23.4176,
            "school_name": "FAZENDA CURUMIM EMEFEI",
            "country_name": "Brazil",
            "connectivity": true
        },
        {
            "lon": -46.3931,
            "lat": -23.9533,
            "school_name": "PARQUE SAO VICENTE CENTRO EDUCACIONAL E RECREATIVO CER",
            "country_name": "Brazil",
            "connectivity": false
        },
        {
            "lon": -47.4489,
            "lat": -22.5716,
            "school_name": "JAMILE CARAM DE SOUZA DIAS PROFA CEIEF",
            "country_name": "Brazil",
            "connectivity": true
        },
        {
            "lon": -40.8453,
            "lat": -14.8452,
            "school_name": "ESCOLA MUNICIPAL PROFESSORA MARIA DA CONCEICAO MEIRA BARROS",
            "country_name": "Brazil",
            "connectivity": true
        },
        {
            "lon": -49.6783,
            "lat": -19.9796,
            "school_name": "RUY MALACHIAS FERREIRA PREFEITO EMEB",
            "country_name": "Brazil",
            "connectivity": true
        },
        {
            "lon": -49.2338,
            "lat": -22.4522,
            "school_name": "MARIA JOSE DE CAMPOS VASQUES EMEF",
            "country_name": "Brazil",
            "connectivity": false
        },
        {
            "lon": -43.3626,
            "lat": -19.8203,
            "school_name": "CENTRO EDUCACIONAL DE SAO GONCALO DO RIO ABAIXO",
            "country_name": "Brazil",
            "connectivity": true
        },
        {
            "lon": -49.386,
            "lat": -20.8072,
            "school_name": "CEL JTO A EE MONSENHOR GONCALVES",
            "country_name": "Brazil",
            "connectivity": false
        },
        {
            "lon": -52.4747,
            "lat": -23.6204,
            "school_name": "JULITA ALVES SOARES E M EF",
            "country_name": "Brazil",
            "connectivity": true
        },
        {
            "lon": -51.2224,
            "lat": -23.3092,
            "school_name": "CENTRO MUNICIPAL DE EDUCACAO INFANTIL MADRE TEREZA DE CALCUTA",
            "country_name": "Brazil",
            "connectivity": true
        },
        {
            "lon": -39.5964,
            "lat": -14.8719,
            "school_name": "EE - COLEGIO ESTADUAL LUIS EDUARDO MAGALHAES - TEMPO INTEGRAL",
            "country_name": "Brazil",
            "connectivity": true
        },
        {
            "lon": -40.3842,
            "lat": -20.2521,
            "school_name": "EEEFM TEOTONIO BRANDAO VILELA",
            "country_name": "Brazil",
            "connectivity": true
        },
        {
            "lon": -41.8849,
            "lat": -21.1948,
            "school_name": "CE CHEQUER JORGE",
            "country_name": "Brazil",
            "connectivity": true
        },
        {
            "lon": -41.7552,
            "lat": -22.3358,
            "school_name": "CM ZELITA ROCHA DE AZEVEDO",
            "country_name": "Brazil",
            "connectivity": true
        },
        {
            "lon": -49.2554,
            "lat": -25.398,
            "school_name": "CARAMURU E M EI EF",
            "country_name": "Brazil",
            "connectivity": true
        },
        {
            "lon": -52.2115,
            "lat": -24.8913,
            "school_name": "AUGUSTO VICENTIM E M EI EF",
            "country_name": "Brazil",
            "connectivity": true
        },
        {
            "lon": -49.1944,
            "lat": -25.4241,
            "school_name": "MONTEIRO LOBATO C M E I",
            "country_name": "Brazil",
            "connectivity": true
        },
        {
            "lon": -49.1641,
            "lat": -25.4422,
            "school_name": "PEQUENO PRINCIPE C M E I",
            "country_name": "Brazil",
            "connectivity": true
        },
        {
            "lon": -48.6324,
            "lat": -27.7752,
            "school_name": "EEB JOSE MARIA CARDOSO DA VEIGA",
            "country_name": "Brazil",
            "connectivity": true
        },
        {
            "lon": -48.6967,
            "lat": -26.9034,
            "school_name": "EB MARECHAL OLIMPIO FALCONIERI DA CUNHA",
            "country_name": "Brazil",
            "connectivity": true
        },
        {
            "lon": -48.5509,
            "lat": -27.694,
            "school_name": "CENTRO DE CONVIVENCIA E FORTALECIMENTO DE VINCULOS DA TAPERA",
            "country_name": "Brazil",
            "connectivity": true
        },
        {
            "lon": -50.374,
            "lat": -25.8959,
            "school_name": "OLIVIO W DO AMARAL E M PREF EF",
            "country_name": "Brazil",
            "connectivity": true
        },
        {
            "lon": -52.3901,
            "lat": -29.024,
            "school_name": "ESC MUN ENS FUND PRINCESA IZABEL",
            "country_name": "Brazil",
            "connectivity": false
        },
        {
            "lon": -57.0762,
            "lat": -29.7827,
            "school_name": "ESCOLA MUNICIPAL DE EDUCACAO INFANTIL VOVO CHICA",
            "country_name": "Brazil",
            "connectivity": true
        },
        {
            "lon": -48.7169,
            "lat": -25.4301,
            "school_name": "ROCHA POMBO C E EF M",
            "country_name": "Brazil",
            "connectivity": true
        },
        {
            "lon": -49.2471,
            "lat": -16.6819,
            "school_name": "CENTRO DE EDUCACAO DE JOVENS E ADULTOS",
            "country_name": "Brazil",
            "connectivity": true
        },
        {
            "lon": -46.6034,
            "lat": -14.0066,
            "school_name": "ESC MUL PEDRO PEREIRA DOS SANTOS",
            "country_name": "Brazil",
            "connectivity": true
        },
        {
            "lon": -46.5272,
            "lat": -23.5848,
            "school_name": "SANTOS AMARO DA CRUZ PROFESSOR",
            "country_name": "Brazil",
            "connectivity": true
        },
        {
            "lon": -49.2088,
            "lat": -17.1719,
            "school_name": "ESCOLA MUNICIPAL DE EDUCACAO BASICA SERGIO HONORATO SILVA E SOUZA",
            "country_name": "Brazil",
            "connectivity": true
        },
        {
            "lon": -46.3375,
            "lat": -23.9383,
            "school_name": "JOAO OCTAVIO DOS SANTOS",
            "country_name": "Brazil",
            "connectivity": true
        },
        {
            "lon": -47.0031,
            "lat": -24.3179,
            "school_name": "PORTAL DA JUREIA",
            "country_name": "Brazil",
            "connectivity": true
        },
        {
            "lon": -52.3361,
            "lat": -31.7457,
            "school_name": "COL ESTADUAL CASSIANO DO NASCIMENTO",
            "country_name": "Brazil",
            "connectivity": true
        },
        {
            "lon": -46.6606,
            "lat": -23.4939,
            "school_name": "COLOMBO DE ALMEIDA PROFESSOR",
            "country_name": "Brazil",
            "connectivity": true
        },
        {
            "lon": -35.7471,
            "lat": -9.6341,
            "school_name": "ESCOLA MUNICIPAL RADIALISTA EDECIO LOPES",
            "country_name": "Brazil",
            "connectivity": true
        },
        {
            "lon": -48.5007,
            "lat": -8.8442,
            "school_name": "CENTRO MUNICIPAL DE EDUCACAO INFANTIL AQUARELA",
            "country_name": "Brazil",
            "connectivity": true
        },
        {
            "lon": -48.4423,
            "lat": -22.411,
            "school_name": "CRECHE ESCOLA PROFESSORA MARISA APARECIDA SANTILLI BORGES",
            "country_name": "Brazil",
            "connectivity": true
        },
        {
            "lon": -60.0065,
            "lat": -3.1278,
            "school_name": "ESCOLA ESTADUAL RUY ARAUJO",
            "country_name": "Brazil",
            "connectivity": true
        },
        {
            "lon": -48.4093,
            "lat": -10.694,
            "school_name": "CEM FELIX CAMOA I",
            "country_name": "Brazil",
            "connectivity": true
        },
        {
            "lon": -51.5411,
            "lat": -23.5592,
            "school_name": "LUIZ J DOS SANTOS C E C CEL EF M PROFIS",
            "country_name": "Brazil",
            "connectivity": true
        },
        {
            "lon": -47.2696,
            "lat": -23.2197,
            "school_name": "CENTRO DE EDUCACAO MUNICIPAL DE SALTO UNIDADE XV - PROFESSOR DANIEL GASPARINI",
            "country_name": "Brazil",
            "connectivity": true
        },
        {
            "lon": -48.3122,
            "lat": -21.2524,
            "school_name": "JOAQUIM BATISTA DOUTOR",
            "country_name": "Brazil",
            "connectivity": true
        },
        {
            "lon": -49.1235,
            "lat": -12.4748,
            "school_name": "CRECHE MUNICIPAL ARCO-IRIS",
            "country_name": "Brazil",
            "connectivity": true
        },
        {
            "lon": -36.7616,
            "lat": -5.2884,
            "school_name": "ESCOLA MUNICIPAL MANOEL VENANCIO FILHO",
            "country_name": "Brazil",
            "connectivity": true
        },
        {
            "lon": -45.7996,
            "lat": -12.104,
            "school_name": "ESCOLA MUNICIPAL AMELIO GATTO - 29404517",
            "country_name": "Brazil",
            "connectivity": true
        },
        {
            "lon": -39.628,
            "lat": -13.9281,
            "school_name": "EE - COLEGIO ESTADUAL DO CAMPO DE ALGODAO - DISTRITO DE ALGODAO",
            "country_name": "Brazil",
            "connectivity": true
        },
        {
            "lon": -46.0131,
            "lat": -12.1937,
            "school_name": "ESCOLA MUNICIPAL MOZART FELICIANO - INEP 29675626",
            "country_name": "Brazil",
            "connectivity": true
        },
        {
            "lon": -42.5158,
            "lat": -19.3057,
            "school_name": "ESCOLA MUNICIPAL BOM JESUS DO BAGRE",
            "country_name": "Brazil",
            "connectivity": true
        },
        {
            "lon": -36.1311,
            "lat": -7.4754,
            "school_name": "EEEFM SEVERINO BARBOSA CAMELO",
            "country_name": "Brazil",
            "connectivity": true
        },
        {
            "lon": -35.2402,
            "lat": -7.8454,
            "school_name": "ESCOLA PAULA FRASSINETTI",
            "country_name": "Brazil",
            "connectivity": true
        },
        {
            "lon": -37.5562,
            "lat": -10.8983,
            "school_name": "ESCOLA MUL SANTIAGO BISPO",
            "country_name": "Brazil",
            "connectivity": true
        }
    ],
    "num_countries": 14,
    "countries": [
        "Benin",
        "Brazil",
        "Colombia",
        "Costa Rica",
        "Honduras",
        "Kazakhstan",
        "Kyrgyzstan",
        "Namibia",
        "Palestine",
        "Philippines",
        "Rwanda",
        "Saint Lucia",
        "Sierra Leone",
        "Zimbabwe"
    ],
    "schools_no_data": [
        {
            "lon": 25.3220883,
            "lat": -24.2563061,
            "school_name": "Thebephatshwa (RPC)",
            "country_name": "Botswana",
            "connectivity": false
        },
        {
            "lon": 27.5164341,
            "lat": -21.1958174,
            "school_name": "Phatsimo (RPC)",
            "country_name": "Botswana",
            "connectivity": false
        },
        {
            "lon": 2.1409761,
            "lat": 13.5048627,
            "school_name": "Croix rouge",
            "country_name": "Niger",
            "connectivity": false
        },
        {
            "lon": 28.348,
            "lat": -15.42206,
            "school_name": "KABULONGA BOYS HIGH",
            "country_name": "Zambia",
            "connectivity": false
        },
        {
            "lon": -7.563358,
            "lat": 5.785166,
            "school_name": "Garleo",
            "country_name": "Liberia",
            "connectivity": false
        },
        {
            "lon": -10.098125,
            "lat": 8.355735,
            "school_name": "Ngokorhun Town Public",
            "country_name": "Liberia",
            "connectivity": false
        },
        {
            "lon": -8.522323,
            "lat": 6.878228,
            "school_name": "Zuaplay Public",
            "country_name": "Liberia",
            "connectivity": false
        },
        {
            "lon": -8.857965,
            "lat": 6.494262,
            "school_name": "Mohter  jacob",
            "country_name": "Liberia",
            "connectivity": false
        },
        {
            "lon": 34.009271,
            "lat": 12.904126,
            "school_name": "Name unknown",
            "country_name": "Sudan",
            "connectivity": false
        },
        {
            "lon": 25.92362338,
            "lat": 11.68285753,
            "school_name": "Name unknown",
            "country_name": "Sudan",
            "connectivity": false
        },
        {
            "lon": -1.8503788,
            "lat": 9.2523103,
            "school_name": "Name unknown",
            "country_name": "Ghana",
            "connectivity": false
        },
        {
            "lon": -0.2910565,
            "lat": 5.7009077,
            "school_name": "Name unknown",
            "country_name": "Ghana",
            "connectivity": false
        },
        {
            "lon": -1.8999333,
            "lat": 7.3117834,
            "school_name": "Name unknown",
            "country_name": "Ghana",
            "connectivity": false
        },
        {
            "lon": -0.623617,
            "lat": 5.3526648,
            "school_name": "Name unknown",
            "country_name": "Ghana",
            "connectivity": false
        },
        {
            "lon": -2.0052771,
            "lat": 7.6171785,
            "school_name": "Name unknown",
            "country_name": "Ghana",
            "connectivity": false
        },
        {
            "lon": -1.6468629,
            "lat": 6.6589224,
            "school_name": "Name unknown",
            "country_name": "Ghana",
            "connectivity": false
        },
        {
            "lon": 33.89519,
            "lat": -2.00837,
            "school_name": "OLYMPUS",
            "country_name": "United Republic of Tanzania",
            "connectivity": false
        },
        {
            "lon": 35.12614,
            "lat": -8.48687,
            "school_name": "KITIRU",
            "country_name": "United Republic of Tanzania",
            "connectivity": false
        },
        {
            "lon": 32.62288,
            "lat": -3.82123,
            "school_name": "GWAMIYE",
            "country_name": "United Republic of Tanzania",
            "connectivity": false
        },
        {
            "lon": 33.85021,
            "lat": -9.30543,
            "school_name": "ITETE",
            "country_name": "United Republic of Tanzania",
            "connectivity": false
        },
        {
            "lon": 38.45206,
            "lat": -5.07161,
            "school_name": "VUGIRI",
            "country_name": "United Republic of Tanzania",
            "connectivity": false
        },
        {
            "lon": 39.10827,
            "lat": -5.07029,
            "school_name": "DARAJANI",
            "country_name": "United Republic of Tanzania",
            "connectivity": false
        },
        {
            "lon": 34.52372,
            "lat": -5.70626,
            "school_name": "BANGAYEGA",
            "country_name": "United Republic of Tanzania",
            "connectivity": false
        },
        {
            "lon": 29.8904,
            "lat": -4.49749,
            "school_name": "KAFENE",
            "country_name": "United Republic of Tanzania",
            "connectivity": false
        },
        {
            "lon": 39.41499,
            "lat": -10.79091,
            "school_name": "KUCHELE",
            "country_name": "United Republic of Tanzania",
            "connectivity": false
        },
        {
            "lon": 38.2984,
            "lat": -4.81203,
            "school_name": "BOMBO",
            "country_name": "United Republic of Tanzania",
            "connectivity": false
        },
        {
            "lon": 34.86026,
            "lat": -11.01402,
            "school_name": "MBUJI",
            "country_name": "United Republic of Tanzania",
            "connectivity": false
        },
        {
            "lon": 35.63761,
            "lat": -10.67804,
            "school_name": "ZIMANIMOTO",
            "country_name": "United Republic of Tanzania",
            "connectivity": false
        },
        {
            "lon": 38.3876,
            "lat": -4.8151,
            "school_name": "KWEKITUI",
            "country_name": "United Republic of Tanzania",
            "connectivity": false
        },
        {
            "lon": 33.9767,
            "lat": -8.84067,
            "school_name": "MBALINO",
            "country_name": "United Republic of Tanzania",
            "connectivity": false
        },
        {
            "lon": 6.012384,
            "lat": 5.621506,
            "school_name": "Name unknown",
            "country_name": "Nigeria",
            "connectivity": false
        },
        {
            "lon": 38.42504,
            "lat": -7.84296,
            "school_name": "NYAMINYWILI",
            "country_name": "United Republic of Tanzania",
            "connectivity": false
        },
        {
            "lon": 36.8542271,
            "lat": -1.2633561,
            "school_name": "Angel Girls Education Centre",
            "country_name": "Kenya",
            "connectivity": false
        },
        {
            "lon": 34.5067384,
            "lat": 0.334479,
            "school_name": "Ichinga Muslim Secondary School",
            "country_name": "Kenya",
            "connectivity": false
        },
        {
            "lon": 19.8534362,
            "lat": 45.25159101,
            "school_name": "\u0402\u043e\u0440\u0452\u0435 \u041d\u0430\u0442\u043e\u0448\u0435\u0432\u0438\u045b",
            "country_name": "Serbia",
            "connectivity": false
        },
        {
            "lon": 0.939915,
            "lat": 7.17336,
            "school_name": "JEP BAYA-COPE",
            "country_name": "Togo",
            "connectivity": false
        },
        {
            "lon": 1.197008333,
            "lat": 6.212753333,
            "school_name": "EPL MAISON DU SAVOIR",
            "country_name": "Togo",
            "connectivity": false
        },
        {
            "lon": 1.157629,
            "lat": 7.789719,
            "school_name": "EPP KONIGBO G/A",
            "country_name": "Togo",
            "connectivity": false
        },
        {
            "lon": 6.474388,
            "lat": 6.315417,
            "school_name": "Name unknown",
            "country_name": "Nigeria",
            "connectivity": false
        },
        {
            "lon": 0.901053,
            "lat": 9.406046,
            "school_name": "EPP KAMBOUA KOUDJOUKADA",
            "country_name": "Togo",
            "connectivity": false
        },
        {
            "lon": 0.22381,
            "lat": 10.91974,
            "school_name": "EPC NAMOTONG",
            "country_name": "Togo",
            "connectivity": false
        },
        {
            "lon": 32.28283,
            "lat": -2.3134,
            "school_name": "AZIMIO",
            "country_name": "United Republic of Tanzania",
            "connectivity": false
        },
        {
            "lon": 38.03013,
            "lat": -5.42792,
            "school_name": "VIBAONI",
            "country_name": "United Republic of Tanzania",
            "connectivity": false
        },
        {
            "lon": 32.70148,
            "lat": -2.79458,
            "school_name": "KISHINDA",
            "country_name": "United Republic of Tanzania",
            "connectivity": false
        },
        {
            "lon": 33.43252,
            "lat": -3.66134,
            "school_name": "BUGOYI",
            "country_name": "United Republic of Tanzania",
            "connectivity": false
        },
        {
            "lon": 33.93019199,
            "lat": -10.00471316,
            "school_name": "Mwenilondo",
            "country_name": "Malawi",
            "connectivity": false
        },
        {
            "lon": 33.98467708,
            "lat": -11.38644537,
            "school_name": "Nkhorongo",
            "country_name": "Malawi",
            "connectivity": false
        },
        {
            "lon": 33.85983864,
            "lat": -13.11232796,
            "school_name": "Mtuwanjovu II Full Primary",
            "country_name": "Malawi",
            "connectivity": false
        },
        {
            "lon": 20.72757177,
            "lat": 0.713183644,
            "school_name": "INST OKAF'ONUMBOLA",
            "country_name": "Democratic Republic of the Congo",
            "connectivity": false
        },
        {
            "lon": 20.45442991,
            "lat": -5.982133073,
            "school_name": "EP MALONGO",
            "country_name": "Democratic Republic of the Congo",
            "connectivity": false
        },
        {
            "lon": 27.46489861,
            "lat": -11.62031294,
            "school_name": "CS LOUEZ L'ETERNEL",
            "country_name": "Democratic Republic of the Congo",
            "connectivity": false
        },
        {
            "lon": 27.56008451,
            "lat": -1.210804902,
            "school_name": "EP CHASSA",
            "country_name": "Democratic Republic of the Congo",
            "connectivity": false
        },
        {
            "lon": 21.16769533,
            "lat": 2.996603803,
            "school_name": "INST MONGILI",
            "country_name": "Democratic Republic of the Congo",
            "connectivity": false
        },
        {
            "lon": 21.22653795,
            "lat": 2.874753279,
            "school_name": "INST KPEDE ELOMBE",
            "country_name": "Democratic Republic of the Congo",
            "connectivity": false
        },
        {
            "lon": 27.98734444,
            "lat": -3.317261111,
            "school_name": "EP AMUKA",
            "country_name": "Democratic Republic of the Congo",
            "connectivity": false
        },
        {
            "lon": 14.43507221,
            "lat": -5.562056804,
            "school_name": "CS MAMAN N'SADISI",
            "country_name": "Democratic Republic of the Congo",
            "connectivity": false
        },
        {
            "lon": 13.46592603,
            "lat": -5.828695023,
            "school_name": "CS  ACADEMIA",
            "country_name": "Democratic Republic of the Congo",
            "connectivity": false
        },
        {
            "lon": 15.05268302,
            "lat": -5.129000091,
            "school_name": "INST DIAKANUA",
            "country_name": "Democratic Republic of the Congo",
            "connectivity": false
        },
        {
            "lon": -68.951525,
            "lat": -15.840022,
            "school_name": "CAMAJHUACHA",
            "country_name": "Bolivia (Plurinational State of)",
            "connectivity": false
        },
        {
            "lon": -9.6955,
            "lat": 15.7148,
            "school_name": "\u0644\u0645\u0631\u0627\u064a\u0647",
            "country_name": "Mauritania",
            "connectivity": false
        },
        {
            "lon": -14.38804,
            "lat": 19.74631,
            "school_name": "\u0627\u0644\u0645\u062f\u0631\u0633\u0629\u0627\u0644\u0648\u0637\u0646\u064a\u0629",
            "country_name": "Mauritania",
            "connectivity": false
        },
        {
            "lon": 33.84157,
            "lat": 0.68567,
            "school_name": "KABUKO PRIMARY SCHOOL",
            "country_name": "Uganda",
            "connectivity": false
        },
        {
            "lon": 33.29563,
            "lat": 0.85268,
            "school_name": "KIRABO NURSERY SCHOOL",
            "country_name": "Uganda",
            "connectivity": false
        },
        {
            "lon": 34.26653,
            "lat": 1.23383,
            "school_name": "DORCUS PRIMARY",
            "country_name": "Uganda",
            "connectivity": false
        },
        {
            "lon": 31.07995,
            "lat": 3.13419,
            "school_name": "Ejome P.S.",
            "country_name": "Uganda",
            "connectivity": false
        },
        {
            "lon": 31.94304,
            "lat": 2.59524,
            "school_name": "Anaka Vocational Training Sch.",
            "country_name": "Uganda",
            "connectivity": false
        },
        {
            "lon": 32.64722,
            "lat": 1.75224,
            "school_name": "Te-Got P.S",
            "country_name": "Uganda",
            "connectivity": false
        },
        {
            "lon": 32.26349,
            "lat": 2.86892,
            "school_name": "Panykworo P.S.((abandoned site)",
            "country_name": "Uganda",
            "connectivity": false
        },
        {
            "lon": 31.19561,
            "lat": 3.29201,
            "school_name": "Bidi P.S.",
            "country_name": "Uganda",
            "connectivity": false
        },
        {
            "lon": 31.76376,
            "lat": 3.27314,
            "school_name": "Subbe P.S.",
            "country_name": "Uganda",
            "connectivity": false
        },
        {
            "lon": 29.96591,
            "lat": -0.96363,
            "school_name": "Ngoma P.S.",
            "country_name": "Uganda",
            "connectivity": false
        },
        {
            "lon": 32.72219,
            "lat": 3.42936,
            "school_name": "Opoki P.S.",
            "country_name": "Uganda",
            "connectivity": false
        },
        {
            "lon": 30.51895,
            "lat": 0.73614,
            "school_name": "Kisangi P.S.",
            "country_name": "Uganda",
            "connectivity": false
        },
        {
            "lon": 30.54821,
            "lat": 0.85909,
            "school_name": "Kyongera Parents School",
            "country_name": "Uganda",
            "connectivity": false
        },
        {
            "lon": 31.66114,
            "lat": 1.60355,
            "school_name": "Kiina P.S.",
            "country_name": "Uganda",
            "connectivity": false
        },
        {
            "lon": 32.1394,
            "lat": 0.20123,
            "school_name": "Saad Sseneene UMEA P.S.",
            "country_name": "Uganda",
            "connectivity": false
        },
        {
            "lon": 32.26417,
            "lat": 0.16918,
            "school_name": "Kabira UMEA P.S.",
            "country_name": "Uganda",
            "connectivity": false
        },
        {
            "lon": 29.16763,
            "lat": -25.86746,
            "school_name": "Elukhanyisweni Secondary School",
            "country_name": "South Africa",
            "connectivity": false
        },
        {
            "lon": 31.28994,
            "lat": -24.76778,
            "school_name": "Welani Primary School",
            "country_name": "South Africa",
            "connectivity": false
        },
        {
            "lon": 30.50768,
            "lat": -26.63875,
            "school_name": "Glen Eland Combined School",
            "country_name": "South Africa",
            "connectivity": false
        },
        {
            "lon": 18.40159,
            "lat": -34.12222,
            "school_name": "Sun Valley Primary School",
            "country_name": "South Africa",
            "connectivity": false
        },
        {
            "lon": 18.36157,
            "lat": -31.15071,
            "school_name": "Nuwerus High School",
            "country_name": "South Africa",
            "connectivity": false
        },
        {
            "lon": 24.76918,
            "lat": -28.73937,
            "school_name": "Kidja - Kimberley International Diamond and Jewellery Academy",
            "country_name": "South Africa",
            "connectivity": false
        },
        {
            "lon": 18.35531,
            "lat": -34.14363,
            "school_name": "Green Curtains Educare",
            "country_name": "South Africa",
            "connectivity": false
        },
        {
            "lon": 29.50611,
            "lat": -25.05516,
            "school_name": "Rammupudu Primary School",
            "country_name": "South Africa",
            "connectivity": false
        },
        {
            "lon": 29.54507,
            "lat": -24.74572,
            "school_name": "Maphokeng Primary",
            "country_name": "South Africa",
            "connectivity": false
        },
        {
            "lon": 29.80128,
            "lat": -24.73387,
            "school_name": "Makubarate Primary",
            "country_name": "South Africa",
            "connectivity": false
        },
        {
            "lon": 29.48198,
            "lat": -23.89829,
            "school_name": "Wonderland Creche",
            "country_name": "South Africa",
            "connectivity": false
        },
        {
            "lon": 29.581,
            "lat": -30.09753,
            "school_name": "Delamuzi Junior Secondary School",
            "country_name": "South Africa",
            "connectivity": false
        },
        {
            "lon": 29.60776,
            "lat": -29.19811,
            "school_name": "Enhlanganisweni Primary School",
            "country_name": "South Africa",
            "connectivity": false
        },
        {
            "lon": 30.6726,
            "lat": -29.8511,
            "school_name": "Lalelani Primary School",
            "country_name": "South Africa",
            "connectivity": false
        },
        {
            "lon": 30.73655,
            "lat": -23.64127,
            "school_name": "Zava High",
            "country_name": "South Africa",
            "connectivity": false
        },
        {
            "lon": 30.83821,
            "lat": -23.55422,
            "school_name": "Vuyani Primary",
            "country_name": "South Africa",
            "connectivity": false
        },
        {
            "lon": 30.25753,
            "lat": -22.88162,
            "school_name": "Tshiheni Primary",
            "country_name": "South Africa",
            "connectivity": false
        },
        {
            "lon": 31.91499,
            "lat": -27.76092,
            "school_name": "Matimane Primary School",
            "country_name": "South Africa",
            "connectivity": false
        },
        {
            "lon": 31.79866,
            "lat": -28.84976,
            "school_name": "Ongoye Primary School",
            "country_name": "South Africa",
            "connectivity": false
        },
        {
            "lon": 28.75007,
            "lat": -31.30958,
            "school_name": "Victory Christian Government School",
            "country_name": "South Africa",
            "connectivity": false
        },
        {
            "lon": 28.05686,
            "lat": -26.2017,
            "school_name": "Spark Maboneng",
            "country_name": "South Africa",
            "connectivity": false
        },
        {
            "lon": 28.14049,
            "lat": -26.35971,
            "school_name": "Simunye Primary School",
            "country_name": "South Africa",
            "connectivity": false
        },
        {
            "lon": 28.14707,
            "lat": -26.3223,
            "school_name": "Zimleleni Special School",
            "country_name": "South Africa",
            "connectivity": false
        },
        {
            "lon": 28.20926,
            "lat": -25.85422,
            "school_name": "Saint Mary's Diocesan School For Girls",
            "country_name": "South Africa",
            "connectivity": false
        },
        {
            "lon": 29.35157,
            "lat": -31.09603,
            "school_name": "Zanokanyo Senior Primary School",
            "country_name": "South Africa",
            "connectivity": false
        },
        {
            "lon": 29.48598,
            "lat": -31.26928,
            "school_name": "Sangoni Senior Secondary School",
            "country_name": "South Africa",
            "connectivity": false
        },
        {
            "lon": 29.05366,
            "lat": -31.98616,
            "school_name": "Zinkawu Junior Secondary School",
            "country_name": "South Africa",
            "connectivity": false
        },
        {
            "lon": -58.08659638,
            "lat": -34.87564152,
            "school_name": "JARDIN DE INFANTES N\u00ba960",
            "country_name": "Argentina",
            "connectivity": false
        },
        {
            "lon": -58.47760471,
            "lat": -34.69069061,
            "school_name": "INST. OBRA DE LA CONSER. DE LA FE N\u00ba 5 FUND. MACNAB BERNAL",
            "country_name": "Argentina",
            "connectivity": false
        },
        {
            "lon": -58.33399457,
            "lat": -34.81548917,
            "school_name": "JARDIN DE INFANTES N\u00ba927",
            "country_name": "Argentina",
            "connectivity": false
        },
        {
            "lon": -61.36342187,
            "lat": -35.63625705,
            "school_name": "ESCUELA ESPECIAL N\u00ba501 DR. RICARDO GUTIERREZ",
            "country_name": "Argentina",
            "connectivity": false
        },
        {
            "lon": -58.52156485,
            "lat": -34.53010467,
            "school_name": "ESCUELA DE ADULTOS N\u00ba701 JORGE NEWBERY",
            "country_name": "Argentina",
            "connectivity": false
        },
        {
            "lon": -58.36080666,
            "lat": -34.77130853,
            "school_name": "ESCUELA PRIMARIA N\u00ba52 ALFEREZ DE NAVIO DE JOSE H. SOBRAL",
            "country_name": "Argentina",
            "connectivity": false
        },
        {
            "lon": -58.92368224,
            "lat": -34.47738432,
            "school_name": "COLEGIO DEL PILAR",
            "country_name": "Argentina",
            "connectivity": false
        },
        {
            "lon": -58.46282655,
            "lat": -34.72485573,
            "school_name": "ESCUELA PRIMARIA N\u00ba12 PRIMERA JUNTA",
            "country_name": "Argentina",
            "connectivity": false
        },
        {
            "lon": -59.66586628,
            "lat": -32.38904162,
            "school_name": "AYACUCHO 5",
            "country_name": "Argentina",
            "connectivity": false
        },
        {
            "lon": -58.94856152,
            "lat": -34.17581242,
            "school_name": "COLEGIO SANTO TOMAS DE AQUINO",
            "country_name": "Argentina",
            "connectivity": false
        },
        {
            "lon": -61.92950476,
            "lat": -37.45915597,
            "school_name": "INSTITUTO JOSE MANUEL ESTRADA",
            "country_name": "Argentina",
            "connectivity": false
        },
        {
            "lon": -59.0046322,
            "lat": -33.84797557,
            "school_name": "ESCUELA PRIMARIA N\u00ba32 ALMAFUERTE",
            "country_name": "Argentina",
            "connectivity": false
        },
        {
            "lon": -58.62206221,
            "lat": -34.93846929,
            "school_name": "ESCUELA SECUNDARIA N\u00ba1 ALFONSINA STORNI",
            "country_name": "Argentina",
            "connectivity": false
        },
        {
            "lon": -59.43284141,
            "lat": -34.648149,
            "school_name": "JARDIN DE INFANTES N\u00ba905 CUERPO DE ARRIBE\u00d1OS",
            "country_name": "Argentina",
            "connectivity": false
        },
        {
            "lon": -59.25602373,
            "lat": -34.53967706,
            "school_name": "ESCUELA CENTRO EDUCATIVO RURAL N\u00ba1",
            "country_name": "Argentina",
            "connectivity": false
        },
        {
            "lon": 6.9735963,
            "lat": 5.8473528,
            "school_name": "Name unknown",
            "country_name": "Nigeria",
            "connectivity": false
        },
        {
            "lon": -58.29958504,
            "lat": -34.70518628,
            "school_name": "ESCUELA PRIMARIA N\u00ba42 RICARDO ROJAS",
            "country_name": "Argentina",
            "connectivity": false
        },
        {
            "lon": -59.14624264,
            "lat": -37.30706998,
            "school_name": "ESCUELA POLIMODAL N\u00ba2 FLORENTINO AMEGHINO",
            "country_name": "Argentina",
            "connectivity": false
        },
        {
            "lon": -58.79415068,
            "lat": -34.43329943,
            "school_name": "ESCUELA DEL MANANTIAL",
            "country_name": "Argentina",
            "connectivity": false
        },
        {
            "lon": -58.82223592,
            "lat": -34.39334441,
            "school_name": "CENTRO DE ADULTOS N\u00ba703/07",
            "country_name": "Argentina",
            "connectivity": false
        },
        {
            "lon": -58.68483051,
            "lat": -34.65983887,
            "school_name": "JARDIN DE INFANTES N\u00ba920",
            "country_name": "Argentina",
            "connectivity": false
        },
        {
            "lon": -57.7286698,
            "lat": -37.4458744,
            "school_name": "ESCUELA SECUNDARIA N\u00ba2",
            "country_name": "Argentina",
            "connectivity": false
        },
        {
            "lon": -58.99301991,
            "lat": -27.47486015,
            "school_name": "PRIM.ADULTOS N\u00ba 16-JOSE MANUEL ESTRADA",
            "country_name": "Argentina",
            "connectivity": false
        },
        {
            "lon": -59.00779064,
            "lat": -27.44390556,
            "school_name": "JARDIN DE INFANTES N\u00ba 26-MARTHA A. SALOTTI",
            "country_name": "Argentina",
            "connectivity": false
        },
        {
            "lon": -63.1481429,
            "lat": -32.4665618,
            "school_name": "ESCUELA JULIO ARGENTINO ROCA",
            "country_name": "Argentina",
            "connectivity": false
        },
        {
            "lon": -64.24211842,
            "lat": -31.4294989,
            "school_name": "C.E.N.P.A. N\u00ba 13 MAURO FERNANDEZ",
            "country_name": "Argentina",
            "connectivity": false
        },
        {
            "lon": -62.06774806,
            "lat": -31.42164823,
            "school_name": "ESCUELA JOSE MARIA PAZ",
            "country_name": "Argentina",
            "connectivity": false
        },
        {
            "lon": -58.34966549,
            "lat": -28.11357325,
            "school_name": "ESCUELA PRIMARIA N\u00ba 441",
            "country_name": "Argentina",
            "connectivity": false
        },
        {
            "lon": -60.17263516,
            "lat": -32.60509395,
            "school_name": "ESTEBAN ECHEVERRIA 7",
            "country_name": "Argentina",
            "connectivity": false
        },
        {
            "lon": -60.30558048,
            "lat": -32.03281601,
            "school_name": "ESCUELA SECUNDARIA DE ADULTOS 33",
            "country_name": "Argentina",
            "connectivity": false
        },
        {
            "lon": -58.97955779,
            "lat": -25.51249433,
            "school_name": "EPEP N\u00ba117",
            "country_name": "Argentina",
            "connectivity": false
        },
        {
            "lon": -53.92122429,
            "lat": -26.46650727,
            "school_name": "AULA SAT. N\u00ba 01 ESC. N\u00ba 342",
            "country_name": "Argentina",
            "connectivity": false
        },
        {
            "lon": -71.07866942,
            "lat": -39.94954812,
            "school_name": "ESCUELA DE MUSICA DE JUNIN DE LOS ANDES",
            "country_name": "Argentina",
            "connectivity": false
        },
        {
            "lon": -65.49009625,
            "lat": -25.0776,
            "school_name": "LA SAGRADA FAMILIA EX 2512",
            "country_name": "Argentina",
            "connectivity": false
        },
        {
            "lon": -61.8796709,
            "lat": -29.7591424,
            "school_name": "ESCUELA NRO 6171",
            "country_name": "Argentina",
            "connectivity": false
        },
        {
            "lon": -61.95379212,
            "lat": -33.74693919,
            "school_name": "ESCUELA DE EDUC. ESPEC. NRO 1206 C. A. N. E. A.",
            "country_name": "Argentina",
            "connectivity": false
        },
        {
            "lon": -60.62808636,
            "lat": -33.02146107,
            "school_name": "ESCUELA PART. INC. NRO 1054 TEODELINA F.DE ALVEAR",
            "country_name": "Argentina",
            "connectivity": false
        },
        {
            "lon": -64.23350701,
            "lat": -27.80741969,
            "school_name": "COLEGIO HERMANO HERMAS DE BRUIJN",
            "country_name": "Argentina",
            "connectivity": false
        },
        {
            "lon": -63.47266282,
            "lat": -27.92377496,
            "school_name": "ESCUELA N\u00b0 481",
            "country_name": "Argentina",
            "connectivity": false
        },
        {
            "lon": -62.28877983,
            "lat": -28.88951342,
            "school_name": "ESCUELA N\u00ba 204 JOSE JACINTO BERRUTTI",
            "country_name": "Argentina",
            "connectivity": false
        },
        {
            "lon": -63.4887,
            "lat": -26.23329,
            "school_name": "ESCUELA N\u00b0 720",
            "country_name": "Argentina",
            "connectivity": false
        },
        {
            "lon": 7.332496667,
            "lat": 5.097181667,
            "school_name": "Name unknown",
            "country_name": "Nigeria",
            "connectivity": false
        },
        {
            "lon": 6.644229,
            "lat": 6.175727,
            "school_name": "Name unknown",
            "country_name": "Nigeria",
            "connectivity": false
        },
        {
            "lon": 5.667658,
            "lat": 5.895539,
            "school_name": "Name unknown",
            "country_name": "Nigeria",
            "connectivity": false
        },
        {
            "lon": 6.011475,
            "lat": 5.519482,
            "school_name": "Name unknown",
            "country_name": "Nigeria",
            "connectivity": false
        },
        {
            "lon": 5.728659,
            "lat": 5.570511,
            "school_name": "Name unknown",
            "country_name": "Nigeria",
            "connectivity": false
        },
        {
            "lon": 5.211642,
            "lat": 6.054317,
            "school_name": "Name unknown",
            "country_name": "Nigeria",
            "connectivity": false
        },
        {
            "lon": 7.749689,
            "lat": 5.531135,
            "school_name": "Name unknown",
            "country_name": "Nigeria",
            "connectivity": false
        },
        {
            "lon": 7.548571667,
            "lat": 5.320483333,
            "school_name": "Name unknown",
            "country_name": "Nigeria",
            "connectivity": false
        },
        {
            "lon": 13.33533,
            "lat": 10.801036,
            "school_name": "Name unknown",
            "country_name": "Nigeria",
            "connectivity": false
        },
        {
            "lon": 13.07481328,
            "lat": 10.56334357,
            "school_name": "Name unknown",
            "country_name": "Nigeria",
            "connectivity": false
        },
        {
            "lon": 8.129885,
            "lat": 6.649005,
            "school_name": "Name unknown",
            "country_name": "Nigeria",
            "connectivity": false
        },
        {
            "lon": 6.103643,
            "lat": 7.265136,
            "school_name": "Name unknown",
            "country_name": "Nigeria",
            "connectivity": false
        },
        {
            "lon": 6.42848,
            "lat": 6.4857,
            "school_name": "Name unknown",
            "country_name": "Nigeria",
            "connectivity": false
        },
        {
            "lon": 5.222973333,
            "lat": 7.662066667,
            "school_name": "Name unknown",
            "country_name": "Nigeria",
            "connectivity": false
        },
        {
            "lon": 5.5363557,
            "lat": 7.41506,
            "school_name": "Name unknown",
            "country_name": "Nigeria",
            "connectivity": false
        },
        {
            "lon": 7.500365,
            "lat": 6.489278333,
            "school_name": "Name unknown",
            "country_name": "Nigeria",
            "connectivity": false
        },
        {
            "lon": 7.488505317,
            "lat": 6.436742294,
            "school_name": "Name unknown",
            "country_name": "Nigeria",
            "connectivity": false
        },
        {
            "lon": 7.477336667,
            "lat": 6.400593333,
            "school_name": "Name unknown",
            "country_name": "Nigeria",
            "connectivity": false
        },
        {
            "lon": 7.42042,
            "lat": 6.886021667,
            "school_name": "Name unknown",
            "country_name": "Nigeria",
            "connectivity": false
        },
        {
            "lon": 7.402096667,
            "lat": 6.366533333,
            "school_name": "Name unknown",
            "country_name": "Nigeria",
            "connectivity": false
        },
        {
            "lon": 11.22337,
            "lat": 10.44052,
            "school_name": "Name unknown",
            "country_name": "Nigeria",
            "connectivity": false
        },
        {
            "lon": 11.05399,
            "lat": 9.674655,
            "school_name": "Name unknown",
            "country_name": "Nigeria",
            "connectivity": false
        },
        {
            "lon": 7.210384,
            "lat": 5.430406,
            "school_name": "Name unknown",
            "country_name": "Nigeria",
            "connectivity": false
        },
        {
            "lon": -76.7372,
            "lat": -7.18161,
            "school_name": "6",
            "country_name": "Peru",
            "connectivity": false
        },
        {
            "lon": -76.902,
            "lat": -12.0262,
            "school_name": "0025 SAN MARTIN DE PORRES",
            "country_name": "Peru",
            "connectivity": false
        },
        {
            "lon": -76.6871,
            "lat": -11.9304,
            "school_name": "60",
            "country_name": "Peru",
            "connectivity": false
        },
        {
            "lon": -77.3515,
            "lat": -5.65883,
            "school_name": "1085",
            "country_name": "Peru",
            "connectivity": false
        },
        {
            "lon": -77.0183,
            "lat": -11.9813,
            "school_name": "0132 TORIBIO DE LUZURIAGA Y MEJIA",
            "country_name": "Peru",
            "connectivity": false
        },
        {
            "lon": -78.7157,
            "lat": -5.47052,
            "school_name": "56",
            "country_name": "Peru",
            "connectivity": false
        },
        {
            "lon": -78.8677,
            "lat": -6.43117,
            "school_name": "10827",
            "country_name": "Peru",
            "connectivity": false
        },
        {
            "lon": -77.0229,
            "lat": -12.0514,
            "school_name": "1168 HEROES DEL CENEPA",
            "country_name": "Peru",
            "connectivity": false
        },
        {
            "lon": -79.7156,
            "lat": -4.68301,
            "school_name": "1249",
            "country_name": "Peru",
            "connectivity": false
        },
        {
            "lon": -76.3597,
            "lat": -6.54468,
            "school_name": "1288",
            "country_name": "Peru",
            "connectivity": false
        },
        {
            "lon": -75.3675,
            "lat": -11.8633,
            "school_name": "1512",
            "country_name": "Peru",
            "connectivity": false
        },
        {
            "lon": -79.939,
            "lat": -4.9337,
            "school_name": "15483",
            "country_name": "Peru",
            "connectivity": false
        },
        {
            "lon": -78.5192,
            "lat": -9.12503,
            "school_name": "1563 CRISTO REY AMIGO DE LOS NI\u00d1OS",
            "country_name": "Peru",
            "connectivity": false
        },
        {
            "lon": -78.7586,
            "lat": -6.05994,
            "school_name": "16415",
            "country_name": "Peru",
            "connectivity": false
        },
        {
            "lon": -79.0292,
            "lat": -5.18334,
            "school_name": "17627",
            "country_name": "Peru",
            "connectivity": false
        },
        {
            "lon": -78.0927,
            "lat": -5.92003,
            "school_name": "18377",
            "country_name": "Peru",
            "connectivity": false
        },
        {
            "lon": -78.5506,
            "lat": -7.75213,
            "school_name": "2321",
            "country_name": "Peru",
            "connectivity": false
        },
        {
            "lon": -74.7447,
            "lat": -13.0064,
            "school_name": "283",
            "country_name": "Peru",
            "connectivity": false
        },
        {
            "lon": -73.9502,
            "lat": -13.8504,
            "school_name": "317",
            "country_name": "Peru",
            "connectivity": false
        },
        {
            "lon": -74.7785,
            "lat": -11.1963,
            "school_name": "31977",
            "country_name": "Peru",
            "connectivity": false
        },
        {
            "lon": -76.2495,
            "lat": -9.93151,
            "school_name": "32004 SAN PEDRO",
            "country_name": "Peru",
            "connectivity": false
        },
        {
            "lon": -80.266,
            "lat": -3.48708,
            "school_name": "ARCO IRIS",
            "country_name": "Peru",
            "connectivity": false
        },
        {
            "lon": -76.7402,
            "lat": -10.0411,
            "school_name": "32259",
            "country_name": "Peru",
            "connectivity": false
        },
        {
            "lon": -74.9786,
            "lat": -12.7841,
            "school_name": "325 ANGELITOS",
            "country_name": "Peru",
            "connectivity": false
        },
        {
            "lon": -77.1114,
            "lat": -8.86136,
            "school_name": "33047",
            "country_name": "Peru",
            "connectivity": false
        },
        {
            "lon": -79.7789,
            "lat": -5.83882,
            "school_name": "358 NICOLAS DE PIEROLA",
            "country_name": "Peru",
            "connectivity": false
        },
        {
            "lon": 7.013714,
            "lat": 5.498791,
            "school_name": "Name unknown",
            "country_name": "Nigeria",
            "connectivity": false
        },
        {
            "lon": -74.6809,
            "lat": -12.7899,
            "school_name": "36160",
            "country_name": "Peru",
            "connectivity": false
        },
        {
            "lon": -74.7839,
            "lat": -13.0499,
            "school_name": "36242",
            "country_name": "Peru",
            "connectivity": false
        },
        {
            "lon": -71.5744,
            "lat": -16.351,
            "school_name": "40103 LIBERTADORES DE AMERICA",
            "country_name": "Peru",
            "connectivity": false
        },
        {
            "lon": -72.7657,
            "lat": -15.1351,
            "school_name": "40510 CORONEL CASIMIRO PERALTA",
            "country_name": "Peru",
            "connectivity": false
        },
        {
            "lon": -71.5523,
            "lat": -16.3483,
            "school_name": "40616 CASIMIRO CUADROS I",
            "country_name": "Peru",
            "connectivity": false
        },
        {
            "lon": -70.1362,
            "lat": -17.3782,
            "school_name": "42094 HORACIO ZORA CARVAJAL",
            "country_name": "Peru",
            "connectivity": false
        },
        {
            "lon": -74.1748,
            "lat": -13.0024,
            "school_name": "429-106",
            "country_name": "Peru",
            "connectivity": false
        },
        {
            "lon": -70.4273,
            "lat": -16.4718,
            "school_name": "43089",
            "country_name": "Peru",
            "connectivity": false
        },
        {
            "lon": -76.5855,
            "lat": -10.5113,
            "school_name": "EL INVENCIBLE GARABOMBO",
            "country_name": "Peru",
            "connectivity": false
        },
        {
            "lon": -75.2481,
            "lat": -12.0976,
            "school_name": "543",
            "country_name": "Peru",
            "connectivity": false
        },
        {
            "lon": -73.5927,
            "lat": -13.4545,
            "school_name": "54681",
            "country_name": "Peru",
            "connectivity": false
        },
        {
            "lon": -73.5555,
            "lat": -13.5505,
            "school_name": "54819-4",
            "country_name": "Peru",
            "connectivity": false
        },
        {
            "lon": -77.016,
            "lat": -12.1127,
            "school_name": "6049 RICARDO PALMA",
            "country_name": "Peru",
            "connectivity": false
        },
        {
            "lon": -76.8715,
            "lat": -4.3513,
            "school_name": "62703",
            "country_name": "Peru",
            "connectivity": false
        },
        {
            "lon": -69.4574,
            "lat": -16.2144,
            "school_name": "CHINCHAYA D",
            "country_name": "Peru",
            "connectivity": false
        },
        {
            "lon": -74.5919,
            "lat": -9.09588,
            "school_name": "65022",
            "country_name": "Peru",
            "connectivity": false
        },
        {
            "lon": -77.1411,
            "lat": -9.50407,
            "school_name": "689",
            "country_name": "Peru",
            "connectivity": false
        },
        {
            "lon": -69.915,
            "lat": -14.4409,
            "school_name": "72075",
            "country_name": "Peru",
            "connectivity": false
        },
        {
            "lon": -75.7365,
            "lat": -14.0302,
            "school_name": "74",
            "country_name": "Peru",
            "connectivity": false
        },
        {
            "lon": -77.8812,
            "lat": -7.70453,
            "school_name": "80649 CLODOMIRO MAGNO GUEVARA VARGAS",
            "country_name": "Peru",
            "connectivity": false
        },
        {
            "lon": -74.9458,
            "lat": -14.8516,
            "school_name": "807",
            "country_name": "Peru",
            "connectivity": false
        },
        {
            "lon": -77.6808,
            "lat": -7.94328,
            "school_name": "80859",
            "country_name": "Peru",
            "connectivity": false
        },
        {
            "lon": -79.0688,
            "lat": -8.0207,
            "school_name": "81714 SE\u00d1OR DE LOS MILAGROS",
            "country_name": "Peru",
            "connectivity": false
        },
        {
            "lon": -77.8077,
            "lat": -7.2695,
            "school_name": "81733",
            "country_name": "Peru",
            "connectivity": false
        },
        {
            "lon": -78.8842,
            "lat": -7.08655,
            "school_name": "82781",
            "country_name": "Peru",
            "connectivity": false
        },
        {
            "lon": -75.2655,
            "lat": -4.27283,
            "school_name": "854",
            "country_name": "Peru",
            "connectivity": false
        },
        {
            "lon": -77.7163,
            "lat": -10.01,
            "school_name": "86160",
            "country_name": "Peru",
            "connectivity": false
        },
        {
            "lon": -73.5246,
            "lat": -13.7449,
            "school_name": "981",
            "country_name": "Peru",
            "connectivity": false
        },
        {
            "lon": -76.9569,
            "lat": -11.8897,
            "school_name": "AMERICA INTERNATIONAL SCHOOL",
            "country_name": "Peru",
            "connectivity": false
        },
        {
            "lon": -78.7982,
            "lat": -5.69235,
            "school_name": "CARITAS FELICES",
            "country_name": "Peru",
            "connectivity": false
        },
        {
            "lon": -79.7127,
            "lat": -4.63666,
            "school_name": "CEBA - LIZARDO MONTERO",
            "country_name": "Peru",
            "connectivity": false
        },
        {
            "lon": -69.76,
            "lat": -15.1579,
            "school_name": "CHICASCO",
            "country_name": "Peru",
            "connectivity": false
        },
        {
            "lon": 3.33275,
            "lat": 6.47558,
            "school_name": "Name unknown",
            "country_name": "Nigeria",
            "connectivity": false
        },
        {
            "lon": -80.6308,
            "lat": -5.16916,
            "school_name": "DIVINO REDENTOR",
            "country_name": "Peru",
            "connectivity": false
        },
        {
            "lon": -78.6167,
            "lat": -9.01714,
            "school_name": "DULCE DESPERTAR",
            "country_name": "Peru",
            "connectivity": false
        },
        {
            "lon": -76.7047,
            "lat": -11.7398,
            "school_name": "FREDERICK W. TAYLOR SCHOOL",
            "country_name": "Peru",
            "connectivity": false
        },