{
    "name": "Patchwork Kingdom #822 | Cuebintal",
    "description": "The twin kingdoms of Cuebintal, separated by a digital divide. A bustling kingdom of 75 schools on top that are all connected to the internet, and 69 schools, not connected, hidden in the upside down kingdom | Created for Giga (GigaConnect.org) \u2014 connecting every school in the world \u2014 in celebration of UNICEF's 75th birthday, by Nadieh Bremer",
    "external_url": "https://dummyURL.com/patchwork_kingdoms_822",
    "image": "https://dummy-storage-url.com/patchwork_kingdoms_822.png",
    "attributes": [
        {
            "trait_type": "Color palette",
            "value": "slime"
        },
        {
            "display_type": "number",
            "trait_type": "Schools",
            "value": 153,
            "max_value": 460
        },
        {
            "display_type": "number",
            "trait_type": "Ratio - Connected",
            "value": 0.49,
            "max_value": 1
        },
        {
            "display_type": "number",
            "trait_type": "Ratio - Unconnected",
            "value": 0.45,
            "max_value": 1
        },
        {
            "display_type": "number",
            "trait_type": "Ratio - Data unavailable",
            "value": 0.06,
            "max_value": 1
        },
        {
            "trait_type": "Countries",
            "value": "BR-CO-CR-GD-HN-KZ-NA-PH-RW-SL-ZW"
        },
        {
            "display_type": "number",
            "trait_type": "Symbols",
            "value": 39,
            "max_value": 51
        }
    ],
    "cluster_id": 822,
    "num_schools": 153,
    "num_schools_connected": 75,
    "num_schools_unconnected": 69,
    "num_schools_unknown": 9,
    "schools": [
        {
            "lon": -87.92223,
            "lat": 13.91539,
            "school_name": "MI ESPERANZA",
            "country_name": "Honduras",
            "connectivity": true
        },
        {
            "lon": -88.35497,
            "lat": 14.70831,
            "school_name": "DOLORES CACERES",
            "country_name": "Honduras",
            "connectivity": true
        },
        {
            "lon": -88.71484,
            "lat": 14.34768,
            "school_name": "LORENZO LOPEZ",
            "country_name": "Honduras",
            "connectivity": true
        },
        {
            "lon": -85.86071,
            "lat": 15.09133,
            "school_name": "PABLO MENDEZ",
            "country_name": "Honduras",
            "connectivity": true
        },
        {
            "lon": -86.71561,
            "lat": 15.00168,
            "school_name": "ALEJANDRO EFRAIN CARCAMO",
            "country_name": "Honduras",
            "connectivity": true
        },
        {
            "lon": -87.73481,
            "lat": 13.5902,
            "school_name": "11 DE FEBRERO",
            "country_name": "Honduras",
            "connectivity": true
        },
        {
            "lon": -52.414,
            "lat": -29.749,
            "school_name": "EMEF LEONEL DE MOURA BRIZOLA",
            "country_name": "Brazil",
            "connectivity": true
        },
        {
            "lon": -54.8236,
            "lat": -22.246,
            "school_name": "EM PROF\u00aa ELZA FARIAS KINTSCHEV REAL",
            "country_name": "Brazil",
            "connectivity": true
        },
        {
            "lon": -72.60482147,
            "lat": 7.947558275,
            "school_name": "Name unknown",
            "country_name": "Colombia",
            "connectivity": false
        },
        {
            "lon": -88.82005,
            "lat": 14.89593,
            "school_name": "J.N.NUEVOS HORIZONTES",
            "country_name": "Honduras",
            "connectivity": true
        },
        {
            "lon": -87.08834,
            "lat": 13.74367,
            "school_name": "ADAN CANALES",
            "country_name": "Honduras",
            "connectivity": true
        },
        {
            "lon": -87.22396,
            "lat": 14.10303,
            "school_name": "LINAJE ESCOGIDO",
            "country_name": "Honduras",
            "connectivity": true
        },
        {
            "lon": -87.56131,
            "lat": 14.00751,
            "school_name": "CRISTOBAL COLON",
            "country_name": "Honduras",
            "connectivity": true
        },
        {
            "lon": -84.54422546,
            "lat": 10.98906303,
            "school_name": "EL CRUCE",
            "country_name": "Costa Rica",
            "connectivity": true
        },
        {
            "lon": -84.4880819,
            "lat": 10.58990135,
            "school_name": "SAN GERARDO",
            "country_name": "Costa Rica",
            "connectivity": true
        },
        {
            "lon": -83.99396897,
            "lat": 10.52255375,
            "school_name": "SAN JOSE DE RIO SUCIO",
            "country_name": "Costa Rica",
            "connectivity": true
        },
        {
            "lon": -85.35920318,
            "lat": 10.44673018,
            "school_name": "I.D.A. LAS PLAYITAS",
            "country_name": "Costa Rica",
            "connectivity": true
        },
        {
            "lon": 29.76728,
            "lat": -17.39558,
            "school_name": "KANYAGA",
            "country_name": "Zimbabwe",
            "connectivity": true
        },
        {
            "lon": 28.44553,
            "lat": -16.81896,
            "school_name": "MATUSADONA",
            "country_name": "Zimbabwe",
            "connectivity": true
        },
        {
            "lon": 28.61714,
            "lat": -20.21144,
            "school_name": "WHITESTONE",
            "country_name": "Zimbabwe",
            "connectivity": true
        },
        {
            "lon": 29.31908,
            "lat": -19.66814,
            "school_name": "RUSIBE",
            "country_name": "Zimbabwe",
            "connectivity": true
        },
        {
            "lon": -49.6652,
            "lat": -29.2514,
            "school_name": "EMEB VILA NOVA",
            "country_name": "Brazil",
            "connectivity": true
        },
        {
            "lon": 18.823888,
            "lat": -17.787081,
            "school_name": "Matava PS",
            "country_name": "Namibia",
            "connectivity": false
        },
        {
            "lon": 121.5041667,
            "lat": 15.77861111,
            "school_name": "Bagtu ES",
            "country_name": "Philippines",
            "connectivity": true
        },
        {
            "lon": 120.598017,
            "lat": 15.474605,
            "school_name": "San Sebastian ES",
            "country_name": "Philippines",
            "connectivity": true
        },
        {
            "lon": 121.378761,
            "lat": 12.355702,
            "school_name": "San Juan ES",
            "country_name": "Philippines",
            "connectivity": true
        },
        {
            "lon": 122.9844715,
            "lat": 13.1244197,
            "school_name": "San Pascual CS",
            "country_name": "Philippines",
            "connectivity": true
        },
        {
            "lon": 123.8961309,
            "lat": 12.16086866,
            "school_name": "Sta. Cruz ES",
            "country_name": "Philippines",
            "connectivity": true
        },
        {
            "lon": 124.8091761,
            "lat": 10.27821689,
            "school_name": "Pong-on ES",
            "country_name": "Philippines",
            "connectivity": true
        },
        {
            "lon": 124.9874858,
            "lat": 7.044505672,
            "school_name": "Onica ES",
            "country_name": "Philippines",
            "connectivity": true
        },
        {
            "lon": 120.6044399,
            "lat": 16.57118244,
            "school_name": "Lomon ES",
            "country_name": "Philippines",
            "connectivity": true
        },
        {
            "lon": -42.692772,
            "lat": -21.393494,
            "school_name": "ESC TEC MUN JOANA DARC",
            "country_name": "Brazil",
            "connectivity": true
        },
        {
            "lon": -43.70261,
            "lat": -20.525496,
            "school_name": "CENTRO MUNICIPAL DE EDUCACAO INTEGRAL",
            "country_name": "Brazil",
            "connectivity": false
        },
        {
            "lon": -86.90799,
            "lat": 15.71014,
            "school_name": "FRANCISCO MORAZAN",
            "country_name": "Honduras",
            "connectivity": true
        },
        {
            "lon": -71.97888889,
            "lat": 11.7314,
            "school_name": "CENTRO ETNOEDUCATIVO INTEGRAL NO.3 CERRO DE LA TETA",
            "country_name": "Colombia",
            "connectivity": true
        },
        {
            "lon": -72.92,
            "lat": 2.46,
            "school_name": "I.E. LA CARPA",
            "country_name": "Colombia",
            "connectivity": true
        },
        {
            "lon": -73.10563381,
            "lat": 6.536538281,
            "school_name": "INSTITUCION EDUCATIVA VERSALLES",
            "country_name": "Colombia",
            "connectivity": true
        },
        {
            "lon": -74.663611,
            "lat": 7.702222,
            "school_name": "C. E. R. VILLA ABAJO",
            "country_name": "Colombia",
            "connectivity": true
        },
        {
            "lon": -75.93034804,
            "lat": 6.585231569,
            "school_name": "C. E. R. JESUS DEL CORRAL",
            "country_name": "Colombia",
            "connectivity": true
        },
        {
            "lon": -76.34576972,
            "lat": 2.659630132,
            "school_name": "ESCUELA RURAL MIXTA LOS ALPES",
            "country_name": "Colombia",
            "connectivity": true
        },
        {
            "lon": -76.3775,
            "lat": 8.404722,
            "school_name": "C. E. R. SAN PABLO APOSTOL",
            "country_name": "Colombia",
            "connectivity": true
        },
        {
            "lon": -76.45166667,
            "lat": 5.4975,
            "school_name": "SEDE NIPURDU",
            "country_name": "Colombia",
            "connectivity": true
        },
        {
            "lon": -67.2234,
            "lat": 1.2748,
            "school_name": "ESC MUN INDIGENA SANTA KURUSA",
            "country_name": "Brazil",
            "connectivity": false
        },
        {
            "lon": -41.6637,
            "lat": -21.1459,
            "school_name": "E M OLIVIO BASTOS",
            "country_name": "Brazil",
            "connectivity": true
        },
        {
            "lon": -48.6618,
            "lat": -2.0452,
            "school_name": "E M E F IGARAPE MARTINHO",
            "country_name": "Brazil",
            "connectivity": false
        },
        {
            "lon": -48.1962,
            "lat": -2.3295,
            "school_name": "E M E I F CASTANHAL",
            "country_name": "Brazil",
            "connectivity": false
        },
        {
            "lon": -46.3349,
            "lat": -1.4349,
            "school_name": "E M E F MARIA APARECIDA MENDES DE SOUZA - CURVA",
            "country_name": "Brazil",
            "connectivity": false
        },
        {
            "lon": -44.8307,
            "lat": -2.9487,
            "school_name": "GRUPO ESCOLAR PEDRO NEIVA DE SANTANA",
            "country_name": "Brazil",
            "connectivity": false
        },
        {
            "lon": -44.8116,
            "lat": -2.8453,
            "school_name": "GE CASTELO BRANCO",
            "country_name": "Brazil",
            "connectivity": false
        },
        {
            "lon": -45.6053,
            "lat": -5.1949,
            "school_name": "UI SANTA LUZIA",
            "country_name": "Brazil",
            "connectivity": false
        },
        {
            "lon": -44.3695,
            "lat": -3.4923,
            "school_name": "EM MARIA ARAGAO",
            "country_name": "Brazil",
            "connectivity": false
        },
        {
            "lon": -41.3028,
            "lat": -3.0391,
            "school_name": "UNID ESC JOSE DURVAL DE BRITO",
            "country_name": "Brazil",
            "connectivity": false
        },
        {
            "lon": -43.7182,
            "lat": -7.6917,
            "school_name": "CRECHE CASULO TIA DOROTEIA",
            "country_name": "Brazil",
            "connectivity": false
        },
        {
            "lon": -46.41,
            "lat": -23.4868,
            "school_name": "HENRIQUE SMITH BAYMA DR",
            "country_name": "Brazil",
            "connectivity": true
        },
        {
            "lon": -40.6751,
            "lat": -7.6883,
            "school_name": "ESC MUL SANTA RITA",
            "country_name": "Brazil",
            "connectivity": false
        },
        {
            "lon": -42.8159,
            "lat": -4.9833,
            "school_name": "CENTRO MUNICIPAL DE EDUCACAO INFANTIL RAQUEL DE QUEIROZ",
            "country_name": "Brazil",
            "connectivity": false
        },
        {
            "lon": -39.2893,
            "lat": -7.2302,
            "school_name": "ODETE MATOS DE ALENCAR EMEIF",
            "country_name": "Brazil",
            "connectivity": true
        },
        {
            "lon": -38.4178,
            "lat": -3.8686,
            "school_name": "CRIANCA VIVENDO FELIZ ESCOLA CRECHE",
            "country_name": "Brazil",
            "connectivity": true
        },
        {
            "lon": -40.6955,
            "lat": -5.8474,
            "school_name": "MARIA ESTRELA COUTINHO CARVALHO CEI",
            "country_name": "Brazil",
            "connectivity": true
        },
        {
            "lon": -35.6398,
            "lat": -5.8852,
            "school_name": "UNIDADE DE ENSINO TOMAZ GARCIA DE ARAUJO",
            "country_name": "Brazil",
            "connectivity": false
        },
        {
            "lon": -37.4355,
            "lat": -6.483,
            "school_name": "EMEIEF ELIZA MARIA DE MORAIS",
            "country_name": "Brazil",
            "connectivity": true
        },
        {
            "lon": -36.788,
            "lat": -7.6765,
            "school_name": "ESC MUN MANOEL DUARTE DA SILVA",
            "country_name": "Brazil",
            "connectivity": false
        },
        {
            "lon": -36.8274,
            "lat": -7.7769,
            "school_name": "UMEIEF SENADOR PAULO GUERRA",
            "country_name": "Brazil",
            "connectivity": false
        },
        {
            "lon": -35.8035,
            "lat": -7.3736,
            "school_name": "GR ESC GUSTAVO JOAQUIM DA SILVA",
            "country_name": "Brazil",
            "connectivity": false
        },
        {
            "lon": -35.9256,
            "lat": -7.2536,
            "school_name": "CRECHE MUNICIPAL ALCIDE CARTAXO LOUREIRO",
            "country_name": "Brazil",
            "connectivity": true
        },
        {
            "lon": -36.142,
            "lat": -8.7767,
            "school_name": "ESCOLA ANA ROSA",
            "country_name": "Brazil",
            "connectivity": false
        },
        {
            "lon": -37.6472,
            "lat": -7.6018,
            "school_name": "ESCOLA INFANTIL TURMA DA MONICA",
            "country_name": "Brazil",
            "connectivity": true
        },
        {
            "lon": -35.1843,
            "lat": -8.2806,
            "school_name": "ESCOLA MUN DR JOSE ROBERTO MONTEIRO",
            "country_name": "Brazil",
            "connectivity": false
        },
        {
            "lon": -40.6092,
            "lat": -19.9398,
            "school_name": "EEEFM JOSE PINTO COELHO",
            "country_name": "Brazil",
            "connectivity": true
        },
        {
            "lon": -37.4923,
            "lat": -11.4065,
            "school_name": "ESCOLA MUNIC DE ENSINO FUND EDMAR JOSE DA CRUZ",
            "country_name": "Brazil",
            "connectivity": true
        },
        {
            "lon": -37.744,
            "lat": -11.4663,
            "school_name": "CRECHE DR",
            "country_name": "Brazil",
            "connectivity": true
        },
        {
            "lon": -39.2855,
            "lat": -13.388,
            "school_name": "ESCOLA MUNICIPAL BOM JESUS DA LAPA I",
            "country_name": "Brazil",
            "connectivity": false
        },
        {
            "lon": -42.1076,
            "lat": -20.547,
            "school_name": "EM SILVINO FERNANDES ROCHA",
            "country_name": "Brazil",
            "connectivity": false
        },
        {
            "lon": -40.34,
            "lat": -18.8493,
            "school_name": "EMEF MARIA LUIZA JORGE DOS REIS",
            "country_name": "Brazil",
            "connectivity": true
        },
        {
            "lon": -43.7556,
            "lat": -22.8649,
            "school_name": "E M OSCAR JOSE DE SOUZA",
            "country_name": "Brazil",
            "connectivity": true
        },
        {
            "lon": -43.5579,
            "lat": -22.7275,
            "school_name": "E M JOSE ANASTACIO RODRIGUES",
            "country_name": "Brazil",
            "connectivity": false
        },
        {
            "lon": -45.1299,
            "lat": -23.5019,
            "school_name": "LUIZA BASILIO DOS SANTOS CENTRO DE EDUCACAO INFANTIL",
            "country_name": "Brazil",
            "connectivity": true
        },
        {
            "lon": -46.7359,
            "lat": -23.8089,
            "school_name": "EMEI JOSE LA TORRE PROF",
            "country_name": "Brazil",
            "connectivity": true
        },
        {
            "lon": -38.4062,
            "lat": -12.9044,
            "school_name": "EE - COLEGIO DA POLICIA MILITAR- CPM DONA LEONOR CALMON",
            "country_name": "Brazil",
            "connectivity": true
        },
        {
            "lon": -47.1563,
            "lat": -22.7659,
            "school_name": "JOSE LOZANO ARAUJO PREFEITO EMEFM",
            "country_name": "Brazil",
            "connectivity": true
        },
        {
            "lon": -47.3188,
            "lat": -24.1502,
            "school_name": "SANTA RITA DE CASSIA EMEI",
            "country_name": "Brazil",
            "connectivity": false
        },
        {
            "lon": -49.2095,
            "lat": -21.4715,
            "school_name": "RAUF NICOLAU EID DR CENTRO MUNICIPAL DE EDUCACAO INFANTIL",
            "country_name": "Brazil",
            "connectivity": true
        },
        {
            "lon": -53.6253,
            "lat": -29.8157,
            "school_name": "ESC EST ENS MED PRINCESA ISABEL",
            "country_name": "Brazil",
            "connectivity": true
        },
        {
            "lon": -40.6877,
            "lat": -19.4238,
            "school_name": "EP MUL PONTE DO PANCAS",
            "country_name": "Brazil",
            "connectivity": true
        },
        {
            "lon": -48.9177,
            "lat": -28.3733,
            "school_name": "CEI PEIXINHO COLORIDO",
            "country_name": "Brazil",
            "connectivity": true
        },
        {
            "lon": -53.0193,
            "lat": -29.104,
            "school_name": "EMEF TOMAS ANTONIO GONZAGA",
            "country_name": "Brazil",
            "connectivity": true
        },
        {
            "lon": -51.7977,
            "lat": -27.9527,
            "school_name": "ESCOLA MUNICIPAL DE ENSINO FUNDAMENTAL GENTIL ANTONIO TONIAL",
            "country_name": "Brazil",
            "connectivity": true
        },
        {
            "lon": -54.1898,
            "lat": -23.4748,
            "school_name": "EE MANOEL GUILHERME DOS SANTOS",
            "country_name": "Brazil",
            "connectivity": true
        },
        {
            "lon": -54.9742,
            "lat": -14.9285,
            "school_name": "EE TANCREDO DE ALMEIDA NEVES",
            "country_name": "Brazil",
            "connectivity": true
        },
        {
            "lon": -52.4597,
            "lat": -23.7671,
            "school_name": "CEEBJA VINICIUS DE MORAES EF M",
            "country_name": "Brazil",
            "connectivity": true
        },
        {
            "lon": -44.7597,
            "lat": -21.2821,
            "school_name": "EE DE MACUCO DE MINAS",
            "country_name": "Brazil",
            "connectivity": true
        },
        {
            "lon": -47.0083,
            "lat": -11.9299,
            "school_name": "ESCOLA MUNICIPAL VARJAO",
            "country_name": "Brazil",
            "connectivity": true
        },
        {
            "lon": -51.9067,
            "lat": -23.4179,
            "school_name": "BRANCA DA MOTA FERNANDES C E EF M PROFI",
            "country_name": "Brazil",
            "connectivity": true
        },
        {
            "lon": -37.9894,
            "lat": -9.3901,
            "school_name": "ESCOLA MUNICIPAL DE EDUCACAO BASICA NOEMIA BANDEIRA DA SILVA",
            "country_name": "Brazil",
            "connectivity": true
        },
        {
            "lon": -35.7618,
            "lat": -6.8302,
            "school_name": "CRECHE MUNICIPAL PE LAMBERT DE GROOT",
            "country_name": "Brazil",
            "connectivity": true
        }
    ],
    "num_countries": 11,
    "countries": [
        "Brazil",
        "Colombia",
        "Costa Rica",
        "Grenada",
        "Honduras",
        "Kazakhstan",
        "Namibia",
        "Philippines",
        "Rwanda",
        "Sierra Leone",
        "Zimbabwe"
    ],
    "schools_no_data": [
        {
            "lon": 5.9577857,
            "lat": 14.0767403,
            "school_name": "Ecole Primaire Madaoua-fille",
            "country_name": "Niger",
            "connectivity": false
        },
        {
            "lon": 9.7479578,
            "lat": 4.0140906,
            "school_name": "Ecole bilingue la Pers\u00e9v\u00e9rance Plus",
            "country_name": "Cameroon",
            "connectivity": false
        },
        {
            "lon": 9.238911,
            "lat": 4.150981,
            "school_name": "Learning Leader Nursery And Primary School",
            "country_name": "Cameroon",
            "connectivity": false
        },
        {
            "lon": -10.764964,
            "lat": 7.027457,
            "school_name": "Zuo Community School",
            "country_name": "Liberia",
            "connectivity": false
        },
        {
            "lon": -10.28835,
            "lat": 6.242399,
            "school_name": "Neegeewien Elem school",
            "country_name": "Liberia",
            "connectivity": false
        },
        {
            "lon": -11.445848,
            "lat": 6.906562,
            "school_name": "Honkpeh",
            "country_name": "Liberia",
            "connectivity": false
        },
        {
            "lon": -10.186797,
            "lat": 8.400342,
            "school_name": "Fassapo Public",
            "country_name": "Liberia",
            "connectivity": false
        },
        {
            "lon": -10.26454746,
            "lat": 6.569582266,
            "school_name": "Kollie-ta Public School",
            "country_name": "Liberia",
            "connectivity": false
        },
        {
            "lon": -0.8467519,
            "lat": 9.3963037,
            "school_name": "Name unknown",
            "country_name": "Ghana",
            "connectivity": false
        },
        {
            "lon": 30.50447685,
            "lat": 19.39858502,
            "school_name": "Name unknown",
            "country_name": "Sudan",
            "connectivity": false
        },
        {
            "lon": 30.48851395,
            "lat": 19.03389557,
            "school_name": "Name unknown",
            "country_name": "Sudan",
            "connectivity": false
        },
        {
            "lon": 32.26320017,
            "lat": 18.87583452,
            "school_name": "Name unknown",
            "country_name": "Sudan",
            "connectivity": false
        },
        {
            "lon": 21.254952,
            "lat": 42.947695,
            "school_name": "\u0414\u0440\u0438\u043d\u043a\u0430 \u041f\u0430\u0432\u043b\u043e\u0432\u0438\u045b",
            "country_name": "Serbia",
            "connectivity": false
        },
        {
            "lon": 33.1884925,
            "lat": 15.07510555,
            "school_name": "Name unknown",
            "country_name": "Sudan",
            "connectivity": false
        },
        {
            "lon": 33.06649535,
            "lat": 14.32934295,
            "school_name": "Name unknown",
            "country_name": "Sudan",
            "connectivity": false
        },
        {
            "lon": 32.29699755,
            "lat": 14.2625531,
            "school_name": "Name unknown",
            "country_name": "Sudan",
            "connectivity": false
        },
        {
            "lon": 32.80976245,
            "lat": 12.81515487,
            "school_name": "Name unknown",
            "country_name": "Sudan",
            "connectivity": false
        },
        {
            "lon": 10.61323,
            "lat": 10.67952,
            "school_name": "Name unknown",
            "country_name": "Nigeria",
            "connectivity": false
        },
        {
            "lon": 29.5810386,
            "lat": 12.71428807,
            "school_name": "Name unknown",
            "country_name": "Sudan",
            "connectivity": false
        },
        {
            "lon": -2.2975294,
            "lat": 7.3863519,
            "school_name": "Name unknown",
            "country_name": "Ghana",
            "connectivity": false
        },
        {
            "lon": -1.8514111,
            "lat": 9.2257054,
            "school_name": "Name unknown",
            "country_name": "Ghana",
            "connectivity": false
        },
        {
            "lon": -0.2814402,
            "lat": 5.5907285,
            "school_name": "Name unknown",
            "country_name": "Ghana",
            "connectivity": false
        },
        {
            "lon": -1.2742102,
            "lat": 6.9660878,
            "school_name": "Name unknown",
            "country_name": "Ghana",
            "connectivity": false
        },
        {
            "lon": 35.95696,
            "lat": -5.96822,
            "school_name": "NELSON MANDELA",
            "country_name": "United Republic of Tanzania",
            "connectivity": false
        },
        {
            "lon": 39.41213,
            "lat": -9.65738,
            "school_name": "MATAPWA",
            "country_name": "United Republic of Tanzania",
            "connectivity": false
        },
        {
            "lon": 37.78707,
            "lat": -7.18739,
            "school_name": "BALANI",
            "country_name": "United Republic of Tanzania",
            "connectivity": false
        },
        {
            "lon": 34.83948,
            "lat": -11.14333,
            "school_name": "MIKALANGA",
            "country_name": "United Republic of Tanzania",
            "connectivity": false
        },
        {
            "lon": 36.0,
            "lat": -6.70885,
            "school_name": "KITATI",
            "country_name": "United Republic of Tanzania",
            "connectivity": false
        },
        {
            "lon": 34.06331,
            "lat": -1.48967,
            "school_name": "KAGECHA",
            "country_name": "United Republic of Tanzania",
            "connectivity": false
        },
        {
            "lon": 30.04821,
            "lat": -4.53152,
            "school_name": "BWAMI",
            "country_name": "United Republic of Tanzania",
            "connectivity": false
        },
        {
            "lon": 31.63911,
            "lat": -1.2875,
            "school_name": "MISHENYE",
            "country_name": "United Republic of Tanzania",
            "connectivity": false
        },
        {
            "lon": 36.4705,
            "lat": -3.34384,
            "school_name": "NENGUNGU",
            "country_name": "United Republic of Tanzania",
            "connectivity": false
        },
        {
            "lon": -2.5215286,
            "lat": 7.7360634,
            "school_name": "Name unknown",
            "country_name": "Ghana",
            "connectivity": false
        },
        {
            "lon": 1.172991667,
            "lat": 6.26675,
            "school_name": "EPL MALAYIKA",
            "country_name": "Togo",
            "connectivity": false
        },
        {
            "lon": 1.19205,
            "lat": 6.19198,
            "school_name": "EPL LES PETITS PRINCE",
            "country_name": "Togo",
            "connectivity": false
        },
        {
            "lon": 1.18566243,
            "lat": 6.1989956,
            "school_name": "EPL TRIOMPHE DU DESTIN 2",
            "country_name": "Togo",
            "connectivity": false
        },
        {
            "lon": 1.23108,
            "lat": 6.1383,
            "school_name": "EPL ELEVE EPANOUI LOM-NAVA G/A",
            "country_name": "Togo",
            "connectivity": false
        },
        {
            "lon": 1.213043333,
            "lat": 6.426515,
            "school_name": "EPC NDA TSEVIE G/A",
            "country_name": "Togo",
            "connectivity": false
        },
        {
            "lon": 1.304146,
            "lat": 6.259964,
            "school_name": "EPP KETAPUI",
            "country_name": "Togo",
            "connectivity": false
        },
        {
            "lon": 1.22368,
            "lat": 8.195021,
            "school_name": "EPP SOLINGOBOU",
            "country_name": "Togo",
            "connectivity": false
        },
        {
            "lon": 33.44059,
            "lat": -3.66938,
            "school_name": "USHIRIKA",
            "country_name": "United Republic of Tanzania",
            "connectivity": false
        },
        {
            "lon": 37.34084,
            "lat": -11.05549,
            "school_name": "MLINGOTI",
            "country_name": "United Republic of Tanzania",
            "connectivity": false
        },
        {
            "lon": 32.58099,
            "lat": -2.74803,
            "school_name": "SOGOSO",
            "country_name": "United Republic of Tanzania",
            "connectivity": false
        },
        {
            "lon": 34.21996053,
            "lat": -10.53920818,
            "school_name": "Ndomo",
            "country_name": "Malawi",
            "connectivity": false
        },
        {
            "lon": 33.42680366,
            "lat": -9.98448132,
            "school_name": "Kayilizi",
            "country_name": "Malawi",
            "connectivity": false
        },
        {
            "lon": 35.39492757,
            "lat": -15.96585798,
            "school_name": "Namatuni",
            "country_name": "Malawi",
            "connectivity": false
        },
        {
            "lon": 34.14335062,
            "lat": -11.83193354,
            "school_name": "Mgodi",
            "country_name": "Malawi",
            "connectivity": false
        },
        {
            "lon": 34.01720951,
            "lat": -11.54137316,
            "school_name": "Chendasi",
            "country_name": "Malawi",
            "connectivity": false
        },
        {
            "lon": 18.14886999,
            "lat": -6.13118884,
            "school_name": "EP SIKAMA",
            "country_name": "Democratic Republic of the Congo",
            "connectivity": false
        },
        {
            "lon": 23.69887837,
            "lat": -0.780884663,
            "school_name": "EP IREMA",
            "country_name": "Democratic Republic of the Congo",
            "connectivity": false
        },
        {
            "lon": 23.61455065,
            "lat": 1.242009945,
            "school_name": "INST YANGWA",
            "country_name": "Democratic Republic of the Congo",
            "connectivity": false
        },
        {
            "lon": 23.37014474,
            "lat": -2.291270311,
            "school_name": "EP ST NICOLAS",
            "country_name": "Democratic Republic of the Congo",
            "connectivity": false
        },
        {
            "lon": 22.27318229,
            "lat": -5.493588628,
            "school_name": "INST TSHIKANDU",
            "country_name": "Democratic Republic of the Congo",
            "connectivity": false
        },
        {
            "lon": 27.49690317,
            "lat": -11.68202263,
            "school_name": "CS LE BERGER 2",
            "country_name": "Democratic Republic of the Congo",
            "connectivity": false
        },
        {
            "lon": 27.47769123,
            "lat": -11.62815572,
            "school_name": "CS SAINTE LUCETTE",
            "country_name": "Democratic Republic of the Congo",
            "connectivity": false
        },
        {
            "lon": 28.16310543,
            "lat": -1.682479558,
            "school_name": "EP KIRUNDU",
            "country_name": "Democratic Republic of the Congo",
            "connectivity": false
        },
        {
            "lon": 29.22144444,
            "lat": -3.112305556,
            "school_name": "EP KIMUKA",
            "country_name": "Democratic Republic of the Congo",
            "connectivity": false
        },
        {
            "lon": -65.165228,
            "lat": -19.128336,
            "school_name": "TALAHUANCA",
            "country_name": "Bolivia (Plurinational State of)",
            "connectivity": false
        },
        {
            "lon": -97.545205,
            "lat": 18.573462,
            "school_name": "CENTRO DE ESTUDIOS TECNOLOGICOS INDUSTRIALES Y DE SERVICIOS NUM. 151",
            "country_name": "Mexico",
            "connectivity": false
        },
        {
            "lon": -97.94018,
            "lat": 20.86863,
            "school_name": "TELEBACHILLERATO TLANEMPA COMUN",
            "country_name": "Mexico",
            "connectivity": false
        },
        {
            "lon": -97.61348,
            "lat": 21.35798,
            "school_name": "TELEBACHILLERATO LA PIMIENTA",
            "country_name": "Mexico",
            "connectivity": false
        },
        {
            "lon": -15.96255833,
            "lat": 18.07105,
            "school_name": "CHEIKH SAAD BOUH",
            "country_name": "Mauritania",
            "connectivity": false
        },
        {
            "lon": -15.96214,
            "lat": 18.03026,
            "school_name": "EL HADJ EL MECHRI",
            "country_name": "Mauritania",
            "connectivity": false
        },
        {
            "lon": 32.95129,
            "lat": 0.86599,
            "school_name": "Tweyagalire",
            "country_name": "Uganda",
            "connectivity": false
        },
        {
            "lon": 31.45677,
            "lat": 0.93818,
            "school_name": "Nankandula P.S.",
            "country_name": "Uganda",
            "connectivity": false
        },
        {
            "lon": 31.42823,
            "lat": -0.20153,
            "school_name": "Katwe Integrated S.S",
            "country_name": "Uganda",
            "connectivity": false
        },
        {
            "lon": 34.35105,
            "lat": 1.1937,
            "school_name": "Bukyabo P.S.",
            "country_name": "Uganda",
            "connectivity": false
        },
        {
            "lon": 34.51826,
            "lat": 1.88405,
            "school_name": "Namatata",
            "country_name": "Uganda",
            "connectivity": false
        },
        {
            "lon": 31.58613,
            "lat": -1.54549,
            "school_name": "RUTETE",
            "country_name": "United Republic of Tanzania",
            "connectivity": false
        },
        {
            "lon": 25.62127,
            "lat": -26.09866,
            "school_name": "Manno Primary School",
            "country_name": "South Africa",
            "connectivity": false
        },
        {
            "lon": 21.20818,
            "lat": -28.46226,
            "school_name": "Simbruner Primary School",
            "country_name": "South Africa",
            "connectivity": false
        },
        {
            "lon": 23.55306,
            "lat": -27.37029,
            "school_name": "Relekile Primary School",
            "country_name": "South Africa",
            "connectivity": false
        },
        {
            "lon": 23.56371,
            "lat": -27.1171,
            "school_name": "Oarabile Middle School",
            "country_name": "South Africa",
            "connectivity": false
        },
        {
            "lon": 18.56104,
            "lat": -33.98206,
            "school_name": "Luzuko Primary School",
            "country_name": "South Africa",
            "connectivity": false
        },
        {
            "lon": 29.8324,
            "lat": -24.96756,
            "school_name": "Mafetatsubela Primary",
            "country_name": "South Africa",
            "connectivity": false
        },
        {
            "lon": 30.1158,
            "lat": -24.20781,
            "school_name": "Molotoadi Primary",
            "country_name": "South Africa",
            "connectivity": false
        },
        {
            "lon": 30.16044,
            "lat": -23.19186,
            "school_name": "Nwaxinyanami Primary",
            "country_name": "South Africa",
            "connectivity": false
        },
        {
            "lon": 18.59461,
            "lat": -34.03183,
            "school_name": "Woodlands Secondary School",
            "country_name": "South Africa",
            "connectivity": false
        },
        {
            "lon": 18.61575,
            "lat": -33.9414,
            "school_name": "Erica Primary School",
            "country_name": "South Africa",
            "connectivity": false
        },
        {
            "lon": 28.71226,
            "lat": -24.52295,
            "school_name": "Strong Tower",
            "country_name": "South Africa",
            "connectivity": false
        },
        {
            "lon": 25.55147,
            "lat": -33.9187,
            "school_name": "Chapman Secondary School",
            "country_name": "South Africa",
            "connectivity": false
        },
        {
            "lon": 30.31475,
            "lat": -24.58597,
            "school_name": "Itirele Primary School",
            "country_name": "South Africa",
            "connectivity": false
        },
        {
            "lon": 30.34934,
            "lat": -24.55836,
            "school_name": "Marota Primary",
            "country_name": "South Africa",
            "connectivity": false
        },
        {
            "lon": 28.18161,
            "lat": -26.04242,
            "school_name": "Charlotte Maxeke Secondary School",
            "country_name": "South Africa",
            "connectivity": false
        },
        {
            "lon": 30.9007,
            "lat": -29.82854,
            "school_name": "Cowies Hill Pre Primary School",
            "country_name": "South Africa",
            "connectivity": false
        },
        {
            "lon": 28.08405,
            "lat": -26.07576,
            "school_name": "Acorn Pre Primary School",
            "country_name": "South Africa",
            "connectivity": false
        },
        {
            "lon": 28.15483,
            "lat": -26.75619,
            "school_name": "Vaaldam Primary Farm School",
            "country_name": "South Africa",
            "connectivity": false
        },
        {
            "lon": 28.30171,
            "lat": -25.73703,
            "school_name": "Ho?\u0192?\u00abrskool Silverton",
            "country_name": "South Africa",
            "connectivity": false
        },
        {
            "lon": 26.85756,
            "lat": -28.11534,
            "school_name": "Lakeview Primary School",
            "country_name": "South Africa",
            "connectivity": false
        },
        {
            "lon": 25.58102,
            "lat": -33.94299,
            "school_name": "Andrew Rabie High School",
            "country_name": "South Africa",
            "connectivity": false
        },
        {
            "lon": 26.2485,
            "lat": -32.01295,
            "school_name": "Raymond Mhlaba Primary School",
            "country_name": "South Africa",
            "connectivity": false
        },
        {
            "lon": 28.95217,
            "lat": -30.16183,
            "school_name": "Siphola Junior Primary School",
            "country_name": "South Africa",
            "connectivity": false
        },
        {
            "lon": 29.49452,
            "lat": -31.08265,
            "school_name": "Langa Secondary School",
            "country_name": "South Africa",
            "connectivity": false
        },
        {
            "lon": -58.60373683,
            "lat": -34.62370297,
            "school_name": "COLEGIO EMAUS",
            "country_name": "Argentina",
            "connectivity": false
        },
        {
            "lon": -58.7695271,
            "lat": -34.55822429,
            "school_name": "ESCUELA PRIMARIA N\u00ba21 CEFERINO NAMUNCURA",
            "country_name": "Argentina",
            "connectivity": false
        },
        {
            "lon": -58.35099606,
            "lat": -34.68101609,
            "school_name": "SANTO TOMAS",
            "country_name": "Argentina",
            "connectivity": false
        },
        {
            "lon": -60.53894512,
            "lat": -33.89431452,
            "school_name": "ESCUELA PRIMARIA N\u00ba52 GREGORIA SALAS",
            "country_name": "Argentina",
            "connectivity": false
        },
        {
            "lon": -57.57980739,
            "lat": -38.02634108,
            "school_name": "INSTITUTO JESUS OBRERO",
            "country_name": "Argentina",
            "connectivity": false
        },
        {
            "lon": -60.33302015,
            "lat": -36.90713719,
            "school_name": "ESCUELA PRIMARIA N\u00ba57 DAMASO ARCE",
            "country_name": "Argentina",
            "connectivity": false
        },
        {
            "lon": -58.56588701,
            "lat": -34.64850319,
            "school_name": "COLEGIO SANTISIMO REDENTOR",
            "country_name": "Argentina",
            "connectivity": false
        },
        {
            "lon": -60.51052671,
            "lat": -33.3673355,
            "school_name": "ESCUELA NRO 188 DOMINGO DE ORO",
            "country_name": "Argentina",
            "connectivity": false
        },
        {
            "lon": -58.29335502,
            "lat": -34.78830899,
            "school_name": "INSTITUTO MODELO SANTA CATALINA",
            "country_name": "Argentina",
            "connectivity": false
        },
        {
            "lon": -58.57110568,
            "lat": -34.62309496,
            "school_name": "JARDIN MUNICIPAL BICHITO DE LUZ (9905)",
            "country_name": "Argentina",
            "connectivity": false
        },
        {
            "lon": -58.65251504,
            "lat": -34.76888601,
            "school_name": "JARDIN DE INFANTES AMIGUITOS DE JESUS",
            "country_name": "Argentina",
            "connectivity": false
        },
        {
            "lon": -58.69438053,
            "lat": -34.70602546,
            "school_name": "ESC. SECUNDARIA BASICA N\u00ba38",
            "country_name": "Argentina",
            "connectivity": false
        },
        {
            "lon": -58.47496983,
            "lat": -34.7255192,
            "school_name": "ESC. SECUNDARIA BASICA N\u00ba65",
            "country_name": "Argentina",
            "connectivity": false
        },
        {
            "lon": -67.01165188,
            "lat": -27.24234836,
            "school_name": "ESCUELA N\u00b0 68 JOS\u00c9 OLMOS DE AGUILERA",
            "country_name": "Argentina",
            "connectivity": false
        },
        {
            "lon": -65.39447049,
            "lat": -28.43073557,
            "school_name": "ESCUELA N\u00b0 303 MAR\u00cdA LUISA VILLAGRA",
            "country_name": "Argentina",
            "connectivity": false
        },
        {
            "lon": -61.65476411,
            "lat": -24.8240741,
            "school_name": "E.E.P. N\u00ba 823",
            "country_name": "Argentina",
            "connectivity": false
        },
        {
            "lon": -55.82730461,
            "lat": -27.91679336,
            "school_name": "CENTRO DE EDUCACION FISICA N\u00b0 31",
            "country_name": "Argentina",
            "connectivity": false
        },
        {
            "lon": -58.2555752,
            "lat": -32.47836744,
            "school_name": "MAESTRO JULIO CESAR SOTO 113",
            "country_name": "Argentina",
            "connectivity": false
        },
        {
            "lon": -60.00175855,
            "lat": -31.87109788,
            "school_name": "AMALIO ZAPATA SO\u00d1EZ 205",
            "country_name": "Argentina",
            "connectivity": false
        },
        {
            "lon": 7.510448333,
            "lat": 5.522433333,
            "school_name": "Name unknown",
            "country_name": "Nigeria",
            "connectivity": false
        },
        {
            "lon": -65.24875357,
            "lat": -23.44771406,
            "school_name": "ESCUELA N 133 PRESIDENTE JUAN DOMINGO PER\u00d3N",
            "country_name": "Argentina",
            "connectivity": false
        },
        {
            "lon": -65.31365308,
            "lat": -24.18181413,
            "school_name": "COLEGIO DEL SALVADOR",
            "country_name": "Argentina",
            "connectivity": false
        },
        {
            "lon": -64.72435627,
            "lat": -23.76181402,
            "school_name": "ESCUELA N 645 TEMPORARIA -LOTE LIBERTAD-",
            "country_name": "Argentina",
            "connectivity": false
        },
        {
            "lon": -70.26844967,
            "lat": -38.90300941,
            "school_name": "ESCUELA PRIMARIA 218",
            "country_name": "Argentina",
            "connectivity": false
        },
        {
            "lon": -66.14623666,
            "lat": -39.16594104,
            "school_name": "CENTRO DE EDUCACION MEDIA NRO.25 HEROES DE MALVINAS",
            "country_name": "Argentina",
            "connectivity": false
        },
        {
            "lon": -61.16326941,
            "lat": -33.04617464,
            "school_name": "ESCUELA PART. INC. NRO 1049 NTRA. SRA. DE LA MISERICORDIA",
            "country_name": "Argentina",
            "connectivity": false
        },
        {
            "lon": -65.255011,
            "lat": -26.842232,
            "school_name": "ESCUELA SECUNDARIA JUAN LUIS NOUGUES",
            "country_name": "Argentina",
            "connectivity": false
        },
        {
            "lon": -65.39963361,
            "lat": -26.76927663,
            "school_name": "ESCUELA DE NIVEL INICIAL N\u00ba240 MANUEL LAINEZ - ANEXO I",
            "country_name": "Argentina",
            "connectivity": false
        },
        {
            "lon": 5.440651853,
            "lat": 5.999872321,
            "school_name": "Name unknown",
            "country_name": "Nigeria",
            "connectivity": false
        },
        {
            "lon": 7.220743333,
            "lat": 4.921088333,
            "school_name": "Name unknown",
            "country_name": "Nigeria",
            "connectivity": false
        },
        {
            "lon": 8.121779696,
            "lat": 6.336846809,
            "school_name": "Name unknown",
            "country_name": "Nigeria",
            "connectivity": false
        },
        {
            "lon": 7.948915,
            "lat": 6.261304,
            "school_name": "Name unknown",
            "country_name": "Nigeria",
            "connectivity": false
        },
        {
            "lon": 8.057091667,
            "lat": 6.241098333,
            "school_name": "Name unknown",
            "country_name": "Nigeria",
            "connectivity": false
        },
        {
            "lon": 8.01433,
            "lat": 6.177876667,
            "school_name": "Name unknown",
            "country_name": "Nigeria",
            "connectivity": false
        },
        {
            "lon": 7.879641,
            "lat": 6.06153,
            "school_name": "Name unknown",
            "country_name": "Nigeria",
            "connectivity": false
        },
        {
            "lon": 7.851248333,
            "lat": 6.214673333,
            "school_name": "Name unknown",
            "country_name": "Nigeria",
            "connectivity": false
        },
        {
            "lon": 5.360104,
            "lat": 6.563459,
            "school_name": "Name unknown",
            "country_name": "Nigeria",
            "connectivity": false
        },
        {
            "lon": 13.15867603,
            "lat": 12.49248505,
            "school_name": "Name unknown",
            "country_name": "Nigeria",
            "connectivity": false
        },
        {
            "lon": 7.447606667,
            "lat": 6.981168333,
            "school_name": "Name unknown",
            "country_name": "Nigeria",
            "connectivity": false
        },
        {
            "lon": 7.668865,
            "lat": 6.202818333,
            "school_name": "Name unknown",
            "country_name": "Nigeria",
            "connectivity": false
        },
        {
            "lon": 7.670481667,
            "lat": 6.83782,
            "school_name": "Name unknown",
            "country_name": "Nigeria",
            "connectivity": false
        },
        {
            "lon": 7.112737,
            "lat": 6.809851,
            "school_name": "Name unknown",
            "country_name": "Nigeria",
            "connectivity": false
        },
        {
            "lon": 7.369713,
            "lat": 9.277917,
            "school_name": "Name unknown",
            "country_name": "Nigeria",
            "connectivity": false
        },
        {
            "lon": 7.10764,
            "lat": 9.18858,
            "school_name": "Name unknown",
            "country_name": "Nigeria",
            "connectivity": false
        },
        {
            "lon": 11.52931,
            "lat": 10.00843,
            "school_name": "Name unknown",
            "country_name": "Nigeria",
            "connectivity": false
        },
        {
            "lon": 10.77732,
            "lat": 10.81928,
            "school_name": "Name unknown",
            "country_name": "Nigeria",
            "connectivity": false
        },
        {
            "lon": 11.16774,
            "lat": 9.678649,
            "school_name": "Name unknown",
            "country_name": "Nigeria",
            "connectivity": false
        },
        {
            "lon": 7.297696591,
            "lat": 5.616974847,
            "school_name": "Name unknown",
            "country_name": "Nigeria",
            "connectivity": false
        },
        {
            "lon": -77.0396,
            "lat": -11.9205,
            "school_name": "1",
            "country_name": "Peru",
            "connectivity": false
        },
        {
            "lon": -76.2365,
            "lat": -6.79958,
            "school_name": "26",
            "country_name": "Peru",
            "connectivity": false
        },
        {
            "lon": -78.4984,
            "lat": -6.54534,
            "school_name": "10521",
            "country_name": "Peru",
            "connectivity": false
        },
        {
            "lon": -76.6775,
            "lat": -9.9769,
            "school_name": "65",
            "country_name": "Peru",
            "connectivity": false
        },
        {
            "lon": -80.431,
            "lat": -3.6766,
            "school_name": "079 VIRGEN DE FATIMA",
            "country_name": "Peru",
            "connectivity": false
        },
        {
            "lon": -69.1648,
            "lat": -14.2558,
            "school_name": "1011 YAHUARMITA",
            "country_name": "Peru",
            "connectivity": false
        },
        {
            "lon": -71.1969,
            "lat": -14.1668,
            "school_name": "56074",
            "country_name": "Peru",
            "connectivity": false
        },
        {
            "lon": -74.9916,
            "lat": -12.3302,
            "school_name": "1073",
            "country_name": "Peru",
            "connectivity": false
        },
        {
            "lon": -77.0779,
            "lat": -12.076,
            "school_name": "1076 RABINDRANATH TAGORE",
            "country_name": "Peru",
            "connectivity": false
        },
        {
            "lon": -72.0465,
            "lat": -14.1465,
            "school_name": "56321",
            "country_name": "Peru",
            "connectivity": false
        },
        {
            "lon": -79.601,
            "lat": -6.01055,
            "school_name": "11260",
            "country_name": "Peru",
            "connectivity": false
        },
        {
            "lon": -79.7153,
            "lat": -5.85042,
            "school_name": "11588 JUAN PABLO II",
            "country_name": "Peru",
            "connectivity": false
        },
        {
            "lon": -70.1661,
            "lat": -15.4865,
            "school_name": "1342",
            "country_name": "Peru",
            "connectivity": false
        },
        {
            "lon": -75.7194,
            "lat": -14.0971,
            "school_name": "146",
            "country_name": "Peru",
            "connectivity": false
        },
        {
            "lon": -79.8454,
            "lat": -4.46877,
            "school_name": "1460",
            "country_name": "Peru",
            "connectivity": false
        },
        {
            "lon": -79.9613,
            "lat": -6.7319,
            "school_name": "155 SAN JOSE OBRERO",
            "country_name": "Peru",
            "connectivity": false
        },
        {
            "lon": -78.819,
            "lat": -5.7063,
            "school_name": "16044",
            "country_name": "Peru",
            "connectivity": false
        },
        {
            "lon": -74.6118,
            "lat": -1.56492,
            "school_name": "60329 - MONTERRICO",
            "country_name": "Peru",
            "connectivity": false
        },
        {
            "lon": -79.2268,
            "lat": -5.95058,
            "school_name": "16832",
            "country_name": "Peru",
            "connectivity": false
        },
        {
            "lon": -78.3256,
            "lat": -4.9148,
            "school_name": "17149",
            "country_name": "Peru",
            "connectivity": false
        },
        {
            "lon": -78.839,
            "lat": -8.0413,
            "school_name": "1789",
            "country_name": "Peru",
            "connectivity": false
        },
        {
            "lon": -77.9785,
            "lat": -6.62851,
            "school_name": "18196",
            "country_name": "Peru",
            "connectivity": false
        },
        {
            "lon": -77.6115,
            "lat": -11.129,
            "school_name": "20325 SAN JOSE DE MANZANARES",
            "country_name": "Peru",
            "connectivity": false
        },
        {
            "lon": -77.5208,
            "lat": -7.97577,
            "school_name": "2174",
            "country_name": "Peru",
            "connectivity": false
        },
        {
            "lon": -74.2644,
            "lat": -14.543,
            "school_name": "221",
            "country_name": "Peru",
            "connectivity": false
        },
        {
            "lon": -73.9451,
            "lat": -14.2673,
            "school_name": "24117",
            "country_name": "Peru",
            "connectivity": false
        },
        {
            "lon": -75.4573,
            "lat": -11.8131,
            "school_name": "325 SAN JUAN BAUTISTA",
            "country_name": "Peru",
            "connectivity": false
        },
        {
            "lon": -76.7229,
            "lat": -9.19726,
            "school_name": "32641",
            "country_name": "Peru",
            "connectivity": false
        },
        {
            "lon": -79.5363,
            "lat": -6.13231,
            "school_name": "337",
            "country_name": "Peru",
            "connectivity": false
        },
        {
            "lon": -76.5863,
            "lat": -10.4236,
            "school_name": "34167",
            "country_name": "Peru",
            "connectivity": false
        },
        {
            "lon": -74.9234,
            "lat": -10.4651,
            "school_name": "34320",
            "country_name": "Peru",
            "connectivity": false
        },
        {
            "lon": -74.3703,
            "lat": -13.8447,
            "school_name": "38487",
            "country_name": "Peru",
            "connectivity": false
        },
        {
            "lon": -74.3121,
            "lat": -13.9435,
            "school_name": "38493",
            "country_name": "Peru",
            "connectivity": false
        },
        {
            "lon": -74.0007,
            "lat": -13.2348,
            "school_name": "38804",
            "country_name": "Peru",
            "connectivity": false
        },
        {
            "lon": -78.5077,
            "lat": -4.4091,
            "school_name": "425",
            "country_name": "Peru",
            "connectivity": false
        },
        {
            "lon": -73.7285,
            "lat": -13.5193,
            "school_name": "475-14",
            "country_name": "Peru",
            "connectivity": false
        },
        {
            "lon": -71.5756,
            "lat": -13.6174,
            "school_name": "50912",
            "country_name": "Peru",
            "connectivity": false
        },
        {
            "lon": -76.8118,
            "lat": -10.9394,
            "school_name": "538-14",
            "country_name": "Peru",
            "connectivity": false
        },
        {
            "lon": -77.8117,
            "lat": -10.6737,
            "school_name": "CEBA - MIGUEL GRAU",
            "country_name": "Peru",
            "connectivity": false
        },
        {
            "lon": -70.6007,
            "lat": -3.9355,
            "school_name": "601429 VILLA NUEVA VIDA",
            "country_name": "Peru",
            "connectivity": false
        },
        {
            "lon": -73.0938,
            "lat": -5.2322,
            "school_name": "601690",
            "country_name": "Peru",
            "connectivity": false
        },
        {
            "lon": -76.0595,
            "lat": -7.3271,
            "school_name": "6240",
            "country_name": "Peru",
            "connectivity": false
        },
        {
            "lon": -76.3629,
            "lat": -9.48606,
            "school_name": "636",
            "country_name": "Peru",
            "connectivity": false
        },
        {
            "lon": 9.3783989,
            "lat": 12.24086,
            "school_name": "Name unknown",
            "country_name": "Nigeria",
            "connectivity": false
        },
        {
            "lon": -69.7444,
            "lat": -14.9538,
            "school_name": "72273 SAN MARTIN",
            "country_name": "Peru",
            "connectivity": false
        },
        {
            "lon": -77.628,
            "lat": -7.65017,
            "school_name": "80854 JORGE CHAVEZ DARTNELL",
            "country_name": "Peru",
            "connectivity": false
        },
        {
            "lon": -78.6804,
            "lat": -8.51258,
            "school_name": "82206 VALLE DE DIOS",
            "country_name": "Peru",
            "connectivity": false
        },
        {
            "lon": -78.1497,
            "lat": -7.55575,
            "school_name": "82393",
            "country_name": "Peru",
            "connectivity": false
        },
        {
            "lon": -77.6508,
            "lat": -9.29856,
            "school_name": "86300",
            "country_name": "Peru",
            "connectivity": false
        },
        {
            "lon": -77.7154,
            "lat": -9.22518,
            "school_name": "86643 SANTO TORIBIO",
            "country_name": "Peru",
            "connectivity": false
        },
        {
            "lon": -78.569,
            "lat": -9.08523,
            "school_name": "88014 JOSE OLAYA",
            "country_name": "Peru",
            "connectivity": false
        },
        {
            "lon": -74.8136,
            "lat": -12.2637,
            "school_name": "905",
            "country_name": "Peru",
            "connectivity": false
        },
        {
            "lon": -70.1357,
            "lat": -15.4967,
            "school_name": "944",
            "country_name": "Peru",
            "connectivity": false
        },
        {
            "lon": -73.9643,
            "lat": -10.6236,
            "school_name": "AGROPECUARIO TARITO OBENI MAPIPOKI-B",
            "country_name": "Peru",
            "connectivity": false
        },
        {
            "lon": -77.1675,
            "lat": -6.06361,
            "school_name": "ALTO MAYO",
            "country_name": "Peru",
            "connectivity": false
        },
        {
            "lon": -70.1275,
            "lat": -15.4879,
            "school_name": "ANDRES BELLO",
            "country_name": "Peru",
            "connectivity": false
        },
        {
            "lon": -70.2551,
            "lat": -17.9956,
            "school_name": "CARI\u00d1OSITOS",
            "country_name": "Peru",
            "connectivity": false
        },
        {
            "lon": -79.7855,
            "lat": -6.7691,
            "school_name": "OCTAVIO CAMPOS OTOLEAS",
            "country_name": "Peru",
            "connectivity": false
        },
        {
            "lon": -71.2322,
            "lat": -16.6317,
            "school_name": "CHILATA",
            "country_name": "Peru",
            "connectivity": false
        },
        {
            "lon": -76.9747,
            "lat": -12.1558,
            "school_name": "CRISTIANO DIEGO THOMSON",
            "country_name": "Peru",
            "connectivity": false
        },
        {
            "lon": -76.9631,
            "lat": -12.1388,
            "school_name": "CRISTO SEMBRADOR",
            "country_name": "Peru",
            "connectivity": false
        },
        {
            "lon": -77.0124,
            "lat": -11.9847,
            "school_name": "DULCE AMANECER",
            "country_name": "Peru",
            "connectivity": false
        },
        {
            "lon": -77.064,
            "lat": -11.9949,
            "school_name": "EIGER LOS OLIVOS",
            "country_name": "Peru",
            "connectivity": false
        },
        {
            "lon": -76.9245,
            "lat": -12.0409,
            "school_name": "ELVIRA GARCIA Y GARCIA BERT",
            "country_name": "Peru",
            "connectivity": false
        },
        {
            "lon": -73.2918,
            "lat": -3.77839,
            "school_name": "FE Y ALEGRIA 46 WILHEM ROSSMAN",
            "country_name": "Peru",
            "connectivity": false
        },
        {
            "lon": -77.8741,
            "lat": -7.95055,
            "school_name": "FORJADORES DEL SABER",
            "country_name": "Peru",
            "connectivity": false
        },
        {
            "lon": -76.9478,
            "lat": -12.2307,
            "school_name": "HOUSTON",
            "country_name": "Peru",
            "connectivity": false
        },
        {
            "lon": -71.9711,
            "lat": -13.5227,
            "school_name": "IGATUR",
            "country_name": "Peru",
            "connectivity": false
        },
        {
            "lon": -78.3471,
            "lat": -6.77534,
            "school_name": "JUAN VELASCO ALVARADO",
            "country_name": "Peru",
            "connectivity": false
        },
        {
            "lon": 7.7492683,
            "lat": 6.0320383,
            "school_name": "Name unknown",
            "country_name": "Nigeria",
            "connectivity": false
        },
        {
            "lon": -77.1004,
            "lat": -12.0642,
            "school_name": "SAN MARCELO",
            "country_name": "Peru",
            "connectivity": false
        },
        {
            "lon": -77.0104,
            "lat": -11.9717,
            "school_name": "LORIS MALAGUZZI SCHOOL",
            "country_name": "Peru",
            "connectivity": false
        },
        {
            "lon": -79.8372,
            "lat": -6.75175,
            "school_name": "LOS ANGELES",
            "country_name": "Peru",
            "connectivity": false
        },
        {
            "lon": -77.0559,
            "lat": -12.0158,
            "school_name": "LOS DOMINICOS DE PALAO",
            "country_name": "Peru",
            "connectivity": false
        },
        {
            "lon": -69.186,
            "lat": -12.6306,
            "school_name": "LOS HONGUITOS",
            "country_name": "Peru",
            "connectivity": false
        },
        {
            "lon": -75.2197,
            "lat": -10.1252,
            "school_name": "LOS PEQUE\u00d1OS CIENTIFICOS",
            "country_name": "Peru",
            "connectivity": false
        },
        {
            "lon": -71.2268,
            "lat": -14.283,
            "school_name": "MANUEL CALLO ZEVALLOS",
            "country_name": "Peru",
            "connectivity": false
        },
        {
            "lon": -76.8225,
            "lat": -12.0097,
            "school_name": "MARIA MONTESSORI",
            "country_name": "Peru",
            "connectivity": false
        },
        {
            "lon": -79.8354,
            "lat": -6.77441,
            "school_name": "MARIO VARGAS LLOSA",
            "country_name": "Peru",
            "connectivity": false
        },
        {
            "lon": -77.0832,
            "lat": -11.9737,
            "school_name": "PITAGORAS DE LOS OLIVOS",
            "country_name": "Peru",
            "connectivity": false
        },
        {
            "lon": -76.2367,
            "lat": -9.93093,
            "school_name": "SAN AGUSTIN",
            "country_name": "Peru",
            "connectivity": false
        },
        {
            "lon": -76.8583,
            "lat": -12.2291,
            "school_name": "SAN SALVADOR",
            "country_name": "Peru",
            "connectivity": false
        },
        {
            "lon": -71.5317,
            "lat": -16.4041,
            "school_name": "SAN VICENTE DE PAUL A",
            "country_name": "Peru",
            "connectivity": false
        },
        {
            "lon": -77.0252,
            "lat": -12.034,
            "school_name": "SANTA CECILIA",
            "country_name": "Peru",
            "connectivity": false
        },
        {
            "lon": -78.6595,
            "lat": -6.55245,
            "school_name": "SANTA EULALIA",
            "country_name": "Peru",
            "connectivity": false
        },
        {
            "lon": -78.8962,
            "lat": -6.31406,
            "school_name": "SANTA ROSA DE LIMA",
            "country_name": "Peru",
            "connectivity": false
        },
        {
            "lon": -69.5658,
            "lat": -12.7634,
            "school_name": "SANTO DOMINGO",
            "country_name": "Peru",
            "connectivity": false
        },
        {
            "lon": -77.0829,
            "lat": -11.9774,
            "school_name": "SANTO DOMINGO DE LOS OLIVOS",
            "country_name": "Peru",
            "connectivity": false
        },
        {
            "lon": -72.5985,
            "lat": -13.1373,
            "school_name": "SAUCIPAMPA",
            "country_name": "Peru",
            "connectivity": false
        },
        {
            "lon": -69.6371,
            "lat": -15.0493,
            "school_name": "TARUCANI",
            "country_name": "Peru",
            "connectivity": false
        },
        {
            "lon": 9.545674997,
            "lat": 11.84343575,
            "school_name": "Name unknown",
            "country_name": "Nigeria",
            "connectivity": false
        },
        {
            "lon": 8.029321432,
            "lat": 9.640379549,
            "school_name": "Name unknown",
            "country_name": "Nigeria",
            "connectivity": false
        },
        {
            "lon": 7.795296495,
            "lat": 10.33706902,
            "school_name": "Name unknown",
            "country_name": "Nigeria",
            "connectivity": false
        },
        {
            "lon": 8.32508118,
            "lat": 11.06517633,
            "school_name": "Name unknown",
            "country_name": "Nigeria",
            "connectivity": false
        },
        {
            "lon": 7.7384432,
            "lat": 11.11902847,
            "school_name": "Name unknown",
            "country_name": "Nigeria",
            "connectivity": false
        },
        {
            "lon": 9.234223,
            "lat": 11.47027,
            "school_name": "Name unknown",
            "country_name": "Nigeria",
            "connectivity": false
        },
        {
            "lon": 8.052977,
            "lat": 12.35423,
            "school_name": "Name unknown",
            "country_name": "Nigeria",
            "connectivity": false
        },
        {
            "lon": 11.762189,
            "lat": 9.298153,
            "school_name": "Name unknown",
            "country_name": "Nigeria",
            "connectivity": false
        },
        {
            "lon": 11.931571,
            "lat": 9.370012,
            "school_name": "Name unknown",
            "country_name": "Nigeria",
            "connectivity": false
        },
        {
            "lon": 8.719397,
            "lat": 11.2728,
            "school_name": "Name unknown",
            "country_name": "Nigeria",
            "connectivity": false
        },
        {
            "lon": 8.495899,
            "lat": 12.01216,
            "school_name": "Name unknown",
            "country_name": "Nigeria",
            "connectivity": false
        },
        {
            "lon": 8.333772,
            "lat": 12.10761,
            "school_name": "Name unknown",
            "country_name": "Nigeria",
            "connectivity": false
        },
        {
            "lon": 8.708626,
            "lat": 11.83578,
            "school_name": "Name unknown",
            "country_name": "Nigeria",
            "connectivity": false
        },
        {
            "lon": 8.570768,
            "lat": 12.55205,
            "school_name": "Name unknown",
            "country_name": "Nigeria",
            "connectivity": false
        },
        {
            "lon": 11.881263,
            "lat": 8.932484,
            "school_name": "Name unknown",
            "country_name": "Nigeria",
            "connectivity": false
        },
        {
            "lon": 6.51966,
            "lat": 7.780204,
            "school_name": "Name unknown",
            "country_name": "Nigeria",
            "connectivity": false
        },
        {
            "lon": 6.643237,
            "lat": 7.35603,
            "school_name": "Name unknown",
            "country_name": "Nigeria",
            "connectivity": false
        },
        {
            "lon": 7.094423,
            "lat": 7.613409,
            "school_name": "Name unknown",
            "country_name": "Nigeria",
            "connectivity": false
        },
        {
            "lon": 5.646943,
            "lat": 8.300305,
            "school_name": "Name unknown",
            "country_name": "Nigeria",
            "connectivity": false
        },
        {
            "lon": 5.516004,
            "lat": 8.225262,
            "school_name": "Name unknown",
            "country_name": "Nigeria",
            "connectivity": false
        },
        {
            "lon": 4.5354,
            "lat": 8.46507,
            "school_name": "Name unknown",
            "country_name": "Nigeria",
            "connectivity": false
        },
        {
            "lon": 3.27263,
            "lat": 6.62134,
            "school_name": "Name unknown",
            "country_name": "Nigeria",
            "connectivity": false
        },
        {
            "lon": 2.94004,
            "lat": 6.44477,
            "school_name": "Name unknown",
            "country_name": "Nigeria",
            "connectivity": false
        },
        {
            "lon": 3.543,
            "lat": 6.6732,
            "school_name": "Name unknown",
            "country_name": "Nigeria",
            "connectivity": false
        },
        {
            "lon": 3.16341,
            "lat": 6.45994,
            "school_name": "Name unknown",
            "country_name": "Nigeria",
            "connectivity": false
        },
        {
            "lon": 3.377157,
            "lat": 6.489889,
            "school_name": "Name unknown",
            "country_name": "Nigeria",
            "connectivity": false
        },
        {
            "lon": 7.72623,
            "lat": 8.104265,
            "school_name": "Name unknown",
            "country_name": "Nigeria",
            "connectivity": false
        },
        {
            "lon": 8.59108,
            "lat": 8.41416,
            "school_name": "Name unknown",
            "country_name": "Nigeria",
            "connectivity": false
        },
        {
            "lon": 4.58024325,
            "lat": 10.70640272,
            "school_name": "Name unknown",
            "country_name": "Nigeria",
            "connectivity": false
        },
        {
            "lon": 6.587548256,
            "lat": 9.320815802,
            "school_name": "Name unknown",
            "country_name": "Nigeria",
            "connectivity": false
        },
        {
            "lon": 3.38894967,
            "lat": 7.180670307,
            "school_name": "Name unknown",
            "country_name": "Nigeria",
            "connectivity": false
        },
        {
            "lon": 3.65829,
            "lat": 6.909611667,
            "school_name": "Name unknown",
            "country_name": "Nigeria",
            "connectivity": false
        },
        {
            "lon": 3.379901667,
            "lat": 7.194733333,
            "school_name": "Name unknown",
            "country_name": "Nigeria",
            "connectivity": false
        },
        {
            "lon": 3.877778333,
            "lat": 6.865713333,
            "school_name": "Name unknown",
            "country_name": "Nigeria",
            "connectivity": false
        },
        {
            "lon": 4.676458,
            "lat": 7.529795,
            "school_name": "Name unknown",
            "country_name": "Nigeria",
            "connectivity": false
        },
        {
            "lon": 4.559328,
            "lat": 7.462356,
            "school_name": "Name unknown",
            "country_name": "Nigeria",
            "connectivity": false
        },
        {
            "lon": 4.737989,
            "lat": 7.599812,
            "school_name": "Name unknown",
            "country_name": "Nigeria",
            "connectivity": false
        },
        {
            "lon": 4.182561,
            "lat": 7.63004,
            "school_name": "Name unknown",
            "country_name": "Nigeria",
            "connectivity": false
        },
        {
            "lon": 4.250632,
            "lat": 7.688246,
            "school_name": "Name unknown",
            "country_name": "Nigeria",
            "connectivity": false
        },
        {
            "lon": 7.854755,
            "lat": 5.169116,
            "school_name": "Name unknown",
            "country_name": "Nigeria",
            "connectivity": false
        },
        {
            "lon": 7.567543,
            "lat": 4.80082,
            "school_name": "Name unknown",
            "country_name": "Nigeria",
            "connectivity": false
        },
        {
            "lon": 3.898794,
            "lat": 7.525332,
            "school_name": "Name unknown",
            "country_name": "Nigeria",
            "connectivity": false
        },
        {
            "lon": 9.036859,
            "lat": 9.382102,
            "school_name": "Name unknown",
            "country_name": "Nigeria",
            "connectivity": false
        },
        {
            "lon": 9.022529,
            "lat": 9.859304,
            "school_name": "Name unknown",
            "country_name": "Nigeria",
            "connectivity": false
        },
        {
            "lon": 9.189067,
            "lat": 9.306431,
            "school_name": "Name unknown",
            "country_name": "Nigeria",
            "connectivity": false
        },
        {
            "lon": 9.866447,
            "lat": 7.162319,
            "school_name": "Name unknown",
            "country_name": "Nigeria",
            "connectivity": false
        },
        {
            "lon": 9.716555,
            "lat": 7.882761,
            "school_name": "Name unknown",
            "country_name": "Nigeria",
            "connectivity": false
        },
        {
            "lon": 9.894492,
            "lat": 7.709656,
            "school_name": "Name unknown",
            "country_name": "Nigeria",
            "connectivity": false
        },
        {
            "lon": 11.70717,
            "lat": 9.06826,
            "school_name": "Name unknown",
            "country_name": "Nigeria",
            "connectivity": false
        },
        {
            "lon": 6.78659,
            "lat": 6.370469,
            "school_name": "Name unknown",
            "country_name": "Nigeria",
            "connectivity": false
        },
        {
            "lon": 6.960152,
            "lat": 6.069111,
            "school_name": "Name unknown",
            "country_name": "Nigeria",
            "connectivity": false
        },
        {
            "lon": 6.913303,
            "lat": 5.988375,
            "school_name": "Name unknown",
            "country_name": "Nigeria",
            "connectivity": false
        },
        {
            "lon": 6.929246,
            "lat": 5.939989,
            "school_name": "Name unknown",
            "country_name": "Nigeria",
            "connectivity": false
        },
        {
            "lon": 8.19309058,
            "lat": 12.9315733,
            "school_name": "Name unknown",
            "country_name": "Nigeria",
            "connectivity": false
        },
        {
            "lon": 8.04198014,
            "lat": 12.64576142,
            "school_name": "Name unknown",
            "country_name": "Nigeria",
            "connectivity": false
        },
        {
            "lon": 7.58085655,
            "lat": 13.17421435,
            "school_name": "Name unknown",
            "country_name": "Nigeria",
            "connectivity": false
        },
        {
            "lon": 7.41665664,
            "lat": 11.99439626,
            "school_name": "Name unknown",
            "country_name": "Nigeria",
            "connectivity": false
        },
        {
            "lon": 7.50249396,
            "lat": 11.9139179,
            "school_name": "Name unknown",
            "country_name": "Nigeria",
            "connectivity": false
        },
        {
            "lon": 9.778396013,
            "lat": 10.47849997,
            "school_name": "Name unknown",
            "country_name": "Nigeria",
            "connectivity": false
        },
        {
            "lon": 9.83613872,
            "lat": 10.30286897,
            "school_name": "Name unknown",
            "country_name": "Nigeria",
            "connectivity": false
        },
        {
            "lon": 10.0341692,
            "lat": 11.65620305,
            "school_name": "Name unknown",
            "country_name": "Nigeria",
            "connectivity": false
        },
        {
            "lon": 9.807458011,
            "lat": 9.62104411,
            "school_name": "Name unknown",
            "country_name": "Nigeria",
            "connectivity": false
        },
        {
            "lon": 6.261872,
            "lat": 4.821219,
            "school_name": "Name unknown",
            "country_name": "Nigeria",
            "connectivity": false
        },
        {
            "lon": 6.433856244,
            "lat": 5.30899137,
            "school_name": "Name unknown",
            "country_name": "Nigeria",
            "connectivity": false
        },
        {
            "lon": 6.308483,
            "lat": 4.928653,
            "school_name": "Name unknown",
            "country_name": "Nigeria",
            "connectivity": false
        },
        {
            "lon": 4.601316108,
            "lat": 12.22514017,
            "school_name": "Name unknown",
            "country_name": "Nigeria",
            "connectivity": false
        },
        {
            "lon": 4.85214293,
            "lat": 12.73676455,
            "school_name": "Name unknown",
            "country_name": "Nigeria",
            "connectivity": false
        },
        {
            "lon": 7.77349,
            "lat": 7.07715,
            "school_name": "Name unknown",
            "country_name": "Nigeria",
            "connectivity": false
        },
        {
            "lon": 9.02834,
            "lat": 7.1746,
            "school_name": "Name unknown",
            "country_name": "Nigeria",
            "connectivity": false
        },
        {
            "lon": 12.3089692,
            "lat": 11.48651402,
            "school_name": "Name unknown",
            "country_name": "Nigeria",
            "connectivity": false
        },
        {
            "lon": 8.94579,
            "lat": 6.5763483,
            "school_name": "Name unknown",
            "country_name": "Nigeria",
            "connectivity": false
        },
        {
            "lon": 8.7328618,
            "lat": 6.4639361,
            "school_name": "Name unknown",
            "country_name": "Nigeria",
            "connectivity": false
        },
        {
            "lon": 8.703849,
            "lat": 6.480251,
            "school_name": "Name unknown",
            "country_name": "Nigeria",
            "connectivity": false
        },
        {
            "lon": 8.76585,
            "lat": 6.704511667,
            "school_name": "Name unknown",
            "country_name": "Nigeria",
            "connectivity": false
        },
        {
            "lon": 30.25053,
            "lat": -29.65611,
            "school_name": "KwaMnyandu Primary School",
            "country_name": "South Africa",
            "connectivity": false
        },
        {
            "lon": 32.13294,
            "lat": -27.22394,
            "school_name": "Mjindi High School",
            "country_name": "South Africa",
            "connectivity": false
        },
        {
            "lon": 27.90767,
            "lat": -32.28736,
            "school_name": "Ndenxa Junior Secondary School",
            "country_name": "South Africa",
            "connectivity": false
        },
        {
            "lon": 29.2944,
            "lat": -31.7394,
            "school_name": "Nqutyana Senior Primary School",
            "country_name": "South Africa",
            "connectivity": false
        },
        {
            "lon": 7.128935,
            "lat": 5.413342,
            "school_name": "Name unknown",
            "country_name": "Nigeria",
            "connectivity": false
        },
        {
            "lon": 9.4932852,
            "lat": 12.2907133,
            "school_name": "Name unknown",
            "country_name": "Nigeria",
            "connectivity": false
        },
        {
            "lon": 9.009928,
            "lat": 11.80575,
            "school_name": "Name unknown",
            "country_name": "Nigeria",
            "connectivity": false
        },
        {
            "lon": 6.268976,
            "lat": 7.613338,
            "school_name": "Name unknown",
            "country_name": "Nigeria",
            "connectivity": false
        },
        {
            "lon": 3.21048,
            "lat": 6.52363,
            "school_name": "Name unknown",
            "country_name": "Nigeria",
            "connectivity": false
        },
        {
            "lon": 3.14833415,
            "lat": 7.22489763,
            "school_name": "Name unknown",
            "country_name": "Nigeria",
            "connectivity": false
        },
        {
            "lon": 3.2381691,
            "lat": 6.7789049,
            "school_name": "Name unknown",
            "country_name": "Nigeria",
            "connectivity": false
        },
        {
            "lon": 8.811408,
            "lat": 10.238742,
            "school_name": "Name unknown",
            "country_name": "Nigeria",
            "connectivity": false
        },
        {
            "lon": 9.708953,
            "lat": 9.180859,
            "school_name": "Name unknown",
            "country_name": "Nigeria",
            "connectivity": false
        },
        {
            "lon": 6.540414,
            "lat": 5.064895,
            "school_name": "Name unknown",
            "country_name": "Nigeria",
            "connectivity": false
        },
        {
            "lon": 7.44199655,
            "lat": 12.85086781,
            "school_name": "Name unknown",
            "country_name": "Nigeria",
            "connectivity": false
        },
        {
            "lon": 9.603772759,
            "lat": 9.973933697,
            "school_name": "Name unknown",
            "country_name": "Nigeria",
            "connectivity": false
        },
        {
            "lon": 10.19408224,
            "lat": 11.68208323,
            "school_name": "Name unknown",
            "country_name": "Nigeria",
            "connectivity": false
        },
        {
            "lon": 11.16027559,
            "lat": 11.56188331,
            "school_name": "Name unknown",
            "country_name": "Nigeria",
            "connectivity": false
        },
        {
            "lon": 59.32547736,
            "lat": 42.46964177,
            "school_name": "16 -  sonli umumta\u2018lim maktabi",
            "country_name": "Uzbekistan",
            "connectivity": false
        },
        {
            "lon": 67.341677,
            "lat": 39.655487,
            "school_name": "42 -  sonli umumta\u2018lim maktabi",
            "country_name": "Uzbekistan",
            "connectivity": false
        },
        {
            "lon": 66.66645,
            "lat": 38.72694,
            "school_name": "26 -  sonli umumta\u2018lim maktabi",
            "country_name": "Uzbekistan",
            "connectivity": false
        },
        {
            "lon": 64.363206,
            "lat": 40.083776,
            "school_name": "5 -  sonli umumta\u2018lim maktabi",
            "country_name": "Uzbekistan",
            "connectivity": false
        },
        {
            "lon": 72.17469575,
            "lat": 40.69595408,
            "school_name": "22 -  sonli umumta\u2018lim maktabi",
            "country_name": "Uzbekistan",
            "connectivity": false
        },
        {
            "lon": 72.368538,
            "lat": 40.502281,
            "school_name": "2 -  sonli umumta\u2018lim maktabi",
            "country_name": "Uzbekistan",
            "connectivity": false
        },
        {
            "lon": -100.548618,
            "lat": 21.290551,
            "school_name": "SECUNDARIA TECNICA NUM. 10",
            "country_name": "Mexico",
            "connectivity": false
        },
        {
            "lon": -98.36462,
            "lat": 21.147969,
            "school_name": "TELESECUNDARIA 174",
            "country_name": "Mexico",
            "connectivity": false
        },
        {
            "lon": -99.20347,
            "lat": 20.129028,
            "school_name": "TELESECUNDARIA 272",
            "country_name": "Mexico",
            "connectivity": false
        },
        {
            "lon": -100.114913,
            "lat": 25.878723,
            "school_name": "SECUNDARIA NUM. 120 JESUS ANGEL MARTINEZ MARTINEZ",
            "country_name": "Mexico",
            "connectivity": false
        },
        {
            "lon": -109.547472,
            "lat": 31.327801,
            "school_name": "GENERAL PLUTARCO ELIAS CALLES",
            "country_name": "Mexico",
            "connectivity": false
        },
        {
            "lon": -96.6428,
            "lat": 19.80408,
            "school_name": "BENITO JUAREZ GARCIA",
            "country_name": "Mexico",
            "connectivity": false
        },
        {
            "lon": 68.7739,
            "lat": 24.4617,
            "school_name": "GBPS - ARBAB ALLAH DINO MANDHRO",
            "country_name": "Pakistan",
            "connectivity": false
        },
        {
            "lon": 68.7797,
            "lat": 24.3767,
            "school_name": "GBPS - NOOR MUHAMMAD MANDHRO",
            "country_name": "Pakistan",
            "connectivity": false
        },
        {
            "lon": 69.0578,
            "lat": 25.085,
            "school_name": "GBPS - HAJI HAKEEM DIN",
            "country_name": "Pakistan",
            "connectivity": false
        },
        {
            "lon": 68.9714,
            "lat": 25.2647,
            "school_name": "GBPS - HAJI RAWAT KHASKHELI",
            "country_name": "Pakistan",
            "connectivity": false
        },
        {
            "lon": 68.8822,
            "lat": 24.8111,
            "school_name": "GBPS - MUHAMMAD JUNEJO",
            "country_name": "Pakistan",
            "connectivity": false
        },
        {
            "lon": 67.74756,
            "lat": 27.09306,
            "school_name": "GBPS -Salah",
            "country_name": "Pakistan",
            "connectivity": false
        },
        {
            "lon": 67.8641,
            "lat": 27.3148,
            "school_name": "GBPS - KHUDA DAD PATHAN",
            "country_name": "Pakistan",
            "connectivity": false
        },
        {
            "lon": 68.4242,
            "lat": 25.4887,
            "school_name": "GBPS - TANDO SAEED KHAN",
            "country_name": "Pakistan",
            "connectivity": false
        },
        {
            "lon": 68.1751,
            "lat": 28.0257,
            "school_name": "GBPS - KHAIR MUHAMMAD WANDH",
            "country_name": "Pakistan",
            "connectivity": false
        },
        {
            "lon": 68.7256,
            "lat": 28.1768,
            "school_name": "GBHSS - MIRPUR BURIRO",
            "country_name": "Pakistan",
            "connectivity": false
        },
        {
            "lon": 68.2918,
            "lat": 25.7519,
            "school_name": "GBPS - DODO MITHANY",
            "country_name": "Pakistan",
            "connectivity": false
        },
        {
            "lon": 67.8506,
            "lat": 27.3274,
            "school_name": "GBPS - ALI BUX CHANDIO.",
            "country_name": "Pakistan",
            "connectivity": false
        },
        {
            "lon": 67.8055,
            "lat": 27.3188,
            "school_name": "GBPS - MUHAMMAD IBRAHIM PANHWER.",
            "country_name": "Pakistan",
            "connectivity": false
        },
        {
            "lon": 68.5638,
            "lat": 27.2256,
            "school_name": "GBPS - MADARSA QAMRULHUDA",
            "country_name": "Pakistan",
            "connectivity": false
        },
        {
            "lon": 68.6502,
            "lat": 27.1464,
            "school_name": "GBPS - KHUDA BUX SOOMRO",
            "country_name": "Pakistan",
            "connectivity": false
        },
        {
            "lon": 68.1496,
            "lat": 27.5604,
            "school_name": "GBPS - JUMAN TAGAR.",
            "country_name": "Pakistan",
            "connectivity": false
        },
        {
            "lon": 68.5257,
            "lat": 25.5997,
            "school_name": "GBPS - KOT HAJI KHUDA DINO SHAH JAMOTE",
            "country_name": "Pakistan",
            "connectivity": false
        },
        {
            "lon": 68.5042,
            "lat": 25.9569,
            "school_name": "GBPS - SAJAN SHORO",
            "country_name": "Pakistan",
            "connectivity": false
        },
        {
            "lon": 68.607,
            "lat": 25.8551,
            "school_name": "GBPS - ASLAM BROHI",
            "country_name": "Pakistan",
            "connectivity": false
        },
        {
            "lon": 68.6144,
            "lat": 25.7497,
            "school_name": "GBPS - SACHOO SAAND",
            "country_name": "Pakistan",
            "connectivity": false
        },
        {
            "lon": 68.5579,
            "lat": 26.3121,
            "school_name": "GBPS - SAHIB KHAN CHANDIO",
            "country_name": "Pakistan",
            "connectivity": false
        },
        {
            "lon": 68.1943,
            "lat": 26.5404,
            "school_name": "GBPS - MIR KHAN JI KHUHI",
            "country_name": "Pakistan",
            "connectivity": false
        },
        {
            "lon": 68.147,
            "lat": 26.1992,
            "school_name": "GBPS - NIHAL KHAN MARI",
            "country_name": "Pakistan",
            "connectivity": false
        },
        {
            "lon": 68.7886,
            "lat": 28.0276,
            "school_name": "GGPS -KARAM PAHORE",
            "country_name": "Pakistan",
            "connectivity": false
        },
        {
            "lon": 67.0019,
            "lat": 24.8703,
            "school_name": "GGHS - KALAKOT",
            "country_name": "Pakistan",
            "connectivity": false
        },
        {
            "lon": 68.3939,
            "lat": 24.4306,
            "school_name": "GBPS - ACHAR HINGORJO @ (BR) BAI BUDHI",
            "country_name": "Pakistan",
            "connectivity": false
        },
        {
            "lon": 68.4086,
            "lat": 25.1292,
            "school_name": "GBPS - KURHALI SHARIF",
            "country_name": "Pakistan",
            "connectivity": false
        },
        {
            "lon": 68.529,
            "lat": 25.1054,
            "school_name": "GBPS -ANWER ALI SHAH",
            "country_name": "Pakistan",
            "connectivity": false
        },
        {
            "lon": 68.697905,
            "lat": 24.939484,
            "school_name": "GBPS -uris panhwar",
            "country_name": "Pakistan",
            "connectivity": false
        },
        {
            "lon": 70.2617,
            "lat": 25.1103,
            "school_name": "GBELS - HARIJAN COLONY CHACHRO",
            "country_name": "Pakistan",
            "connectivity": false
        },
        {
            "lon": 70.2475,
            "lat": 25.705,
            "school_name": "GBPS - ALLAH RAKHIO JO PAR",
            "country_name": "Pakistan",
            "connectivity": false
        },
        {
            "lon": 70.3753,
            "lat": 25.5569,
            "school_name": "GBPS - PAHARANI PARO KHEME JO PAR",
            "country_name": "Pakistan",
            "connectivity": false
        },
        {
            "lon": 70.2167,
            "lat": 24.4,
            "school_name": "GBPS - JAROONBHRI HINGORJA",
            "country_name": "Pakistan",
            "connectivity": false
        },
        {
            "lon": 69.9617,
            "lat": 24.8369,
            "school_name": "GBPS - ALI KHAN PARO",
            "country_name": "Pakistan",
            "connectivity": false
        },
        {
            "lon": 67.6942,
            "lat": 24.2867,
            "school_name": "GBPS - ALI BUX BALOCH",
            "country_name": "Pakistan",
            "connectivity": false
        },
        {
            "lon": -111.095,
            "lat": 24.4609,
            "school_name": "CURSO COMUNITARIO DE EDUCACION PREESCOLAR",
            "country_name": "Mexico",
            "connectivity": false
        },
        {
            "lon": -92.311371,
            "lat": 16.863195,
            "school_name": "DR. MARIO PEREZ RIVERA",
            "country_name": "Mexico",
            "connectivity": false
        },
        {
            "lon": -92.384536,
            "lat": 15.215369,
            "school_name": "CAMILO PINTADO RINCON",
            "country_name": "Mexico",
            "connectivity": false
        },
        {
            "lon": 68.005,
            "lat": 25.0047,
            "school_name": "GBPS - MUHAMMAD IBRAHIM BEHRANI",
            "country_name": "Pakistan",
            "connectivity": false
        },
        {
            "lon": 69.3855,
            "lat": 25.2977,
            "school_name": "GBPS - ARZ MUHAMMAD KHAN",
            "country_name": "Pakistan",
            "connectivity": false
        },
        {
            "lon": -92.171285,
            "lat": 17.047977,
            "school_name": "PRIMARIA COMUNITARIA ESTADO DE AGUASCALIENTES",
            "country_name": "Mexico",
            "connectivity": false
        },
        {
            "lon": -93.354814,
            "lat": 16.298199,
            "school_name": "PRIMARIA CONAFE",
            "country_name": "Mexico",
            "connectivity": false
        },
        {
            "lon": -105.006314,
            "lat": 24.869806,
            "school_name": "EMERENCIANO GALINDO",
            "country_name": "Mexico",
            "connectivity": false
        },
        {
            "lon": -106.401171,
            "lat": 24.873786,
            "school_name": "GUADALUPE VICTORIA",
            "country_name": "Mexico",
            "connectivity": false
        },
        {
            "lon": -103.483437,
            "lat": 25.57954,
            "school_name": "FELIPE ANGELES",
            "country_name": "Mexico",
            "connectivity": false
        },
        {
            "lon": -106.569073,
            "lat": 24.688912,
            "school_name": "CURSO COMUNITARIO",
            "country_name": "Mexico",
            "connectivity": false
        },
        {
            "lon": -104.500278,
            "lat": 22.711111,
            "school_name": "CURSO COMUNITARIO",
            "country_name": "Mexico",
            "connectivity": false
        },
        {
            "lon": -101.43312,
            "lat": 20.94532,
            "school_name": "LIC. LUIS I. RODRIGUEZ",
            "country_name": "Mexico",
            "connectivity": false
        },
        {
            "lon": -101.76987,
            "lat": 21.02434,
            "school_name": "MATIAS LOPEZ PASTEN",
            "country_name": "Mexico",
            "connectivity": false
        },
        {
            "lon": -101.044585,
            "lat": 20.420206,
            "school_name": "BENITO JUAREZ",
            "country_name": "Mexico",
            "connectivity": false
        },