{
    "name": "Patchwork Kingdom #831 | Manipom",
    "description": "The twin kingdoms of Manipom, separated by a digital divide. A bustling kingdom of 178 schools on top that are all connected to the internet, and 117 schools, not connected, hidden in the upside down kingdom | Created for Giga (GigaConnect.org) \u2014 connecting every school in the world \u2014 in celebration of UNICEF's 75th birthday, by Nadieh Bremer",
    "external_url": "https://dummyURL.com/patchwork_kingdoms_831",
    "image": "https://dummy-storage-url.com/patchwork_kingdoms_831.png",
    "attributes": [
        {
            "trait_type": "Color palette",
            "value": "chaos"
        },
        {
            "display_type": "number",
            "trait_type": "Schools",
            "value": 330,
            "max_value": 460
        },
        {
            "display_type": "number",
            "trait_type": "Ratio - Connected",
            "value": 0.54,
            "max_value": 1
        },
        {
            "display_type": "number",
            "trait_type": "Ratio - Unconnected",
            "value": 0.35,
            "max_value": 1
        },
        {
            "display_type": "number",
            "trait_type": "Ratio - Data unavailable",
            "value": 0.11,
            "max_value": 1
        },
        {
            "trait_type": "Countries",
            "value": "BJ-BR-CO-CR-GD-HN-KG-KZ-LC-PH-PS-RW-SL-ZW"
        },
        {
            "display_type": "number",
            "trait_type": "Symbols",
            "value": 47,
            "max_value": 51
        }
    ],
    "cluster_id": 831,
    "num_schools": 330,
    "num_schools_connected": 178,
    "num_schools_unconnected": 117,
    "num_schools_unknown": 35,
    "schools": [
        {
            "lon": -51.1652,
            "lat": -23.2969,
            "school_name": "CEEBJA HERBERT DE SOUZA E F M",
            "country_name": "Brazil",
            "connectivity": true
        },
        {
            "lon": -88.36082,
            "lat": 13.98633,
            "school_name": "RAMON ROSA",
            "country_name": "Honduras",
            "connectivity": true
        },
        {
            "lon": -86.53719,
            "lat": 15.66659,
            "school_name": "LUIS ANDRES ZUNIGA",
            "country_name": "Honduras",
            "connectivity": true
        },
        {
            "lon": -87.09285,
            "lat": 15.72531,
            "school_name": "RUTH URTECHO DURON",
            "country_name": "Honduras",
            "connectivity": true
        },
        {
            "lon": -87.9216,
            "lat": 14.18011,
            "school_name": "ANICETO GARCIA",
            "country_name": "Honduras",
            "connectivity": true
        },
        {
            "lon": -88.64565,
            "lat": 14.6932,
            "school_name": "BELARMINO VARGAS",
            "country_name": "Honduras",
            "connectivity": true
        },
        {
            "lon": -60.975235,
            "lat": 13.952506,
            "school_name": "Bexon Primary",
            "country_name": "Saint Lucia",
            "connectivity": true
        },
        {
            "lon": -52.4622,
            "lat": -28.5365,
            "school_name": "ESC MUN ED INF GELSO FALKEMBACK RIBEIRO",
            "country_name": "Brazil",
            "connectivity": true
        },
        {
            "lon": -87.296,
            "lat": 14.98662,
            "school_name": "CRISTOBAL COLON",
            "country_name": "Honduras",
            "connectivity": true
        },
        {
            "lon": -85.71004,
            "lat": 15.68172,
            "school_name": "FARO DE LUZ",
            "country_name": "Honduras",
            "connectivity": true
        },
        {
            "lon": 30.05166667,
            "lat": -2.306055556,
            "school_name": "GS RUHUHA",
            "country_name": "Rwanda",
            "connectivity": true
        },
        {
            "lon": -74.408415,
            "lat": 10.444155,
            "school_name": "INST EDUC DPTAL AGOPECUARIA NUESTRA SE\u00d1ORA DE LAS MERCEDES",
            "country_name": "Colombia",
            "connectivity": true
        },
        {
            "lon": -87.61069,
            "lat": 14.85449,
            "school_name": "DR. REYNALDO SALINAS",
            "country_name": "Honduras",
            "connectivity": true
        },
        {
            "lon": -75.05012084,
            "lat": 9.321209666,
            "school_name": "Name unknown",
            "country_name": "Colombia",
            "connectivity": false
        },
        {
            "lon": -74.65583333,
            "lat": 3.989722222,
            "school_name": "Name unknown",
            "country_name": "Colombia",
            "connectivity": false
        },
        {
            "lon": -53.149,
            "lat": -18.5252,
            "school_name": "CENTRO DE EDUCACAO INFANTIL SONHO DE NINAR",
            "country_name": "Brazil",
            "connectivity": true
        },
        {
            "lon": -86.92899,
            "lat": 13.23062,
            "school_name": "JOSE CECILIO DEL VALLE",
            "country_name": "Honduras",
            "connectivity": true
        },
        {
            "lon": -85.76343,
            "lat": 14.04049,
            "school_name": "ADOLFO LEONEL SEVILLA",
            "country_name": "Honduras",
            "connectivity": true
        },
        {
            "lon": -87.25195,
            "lat": 14.09435,
            "school_name": "BESSIE WATSON DE REINA",
            "country_name": "Honduras",
            "connectivity": true
        },
        {
            "lon": -87.33913,
            "lat": 14.03105,
            "school_name": "LUCRECIA DE ALVAREZ",
            "country_name": "Honduras",
            "connectivity": true
        },
        {
            "lon": -87.0326,
            "lat": 13.91675,
            "school_name": "RAFAEL PINEDA PONCE",
            "country_name": "Honduras",
            "connectivity": true
        },
        {
            "lon": -87.27126,
            "lat": 13.789,
            "school_name": "PRESENTACION CENTENO",
            "country_name": "Honduras",
            "connectivity": true
        },
        {
            "lon": 32.4028,
            "lat": -17.9308,
            "school_name": "NYAHOWE",
            "country_name": "Zimbabwe",
            "connectivity": true
        },
        {
            "lon": 32.84335,
            "lat": -18.47245,
            "school_name": "RUTSATE",
            "country_name": "Zimbabwe",
            "connectivity": true
        },
        {
            "lon": 32.06411,
            "lat": -18.37982,
            "school_name": "MOODIESVILLE",
            "country_name": "Zimbabwe",
            "connectivity": true
        },
        {
            "lon": 31.32763,
            "lat": -17.3151,
            "school_name": "BINDURA",
            "country_name": "Zimbabwe",
            "connectivity": true
        },
        {
            "lon": -46.6874,
            "lat": -23.6748,
            "school_name": "ISALTINO DE MELLO PROFESSOR",
            "country_name": "Brazil",
            "connectivity": true
        },
        {
            "lon": -40.8141,
            "lat": -21.02,
            "school_name": "EEEFM DOMINGOS JOSE MARTINS",
            "country_name": "Brazil",
            "connectivity": true
        },
        {
            "lon": -54.1672,
            "lat": -22.28,
            "school_name": "EE SCILA MEDICI",
            "country_name": "Brazil",
            "connectivity": true
        },
        {
            "lon": 29.8111944,
            "lat": -2.6695555,
            "school_name": "NYANGE",
            "country_name": "Rwanda",
            "connectivity": false
        },
        {
            "lon": 29.4455,
            "lat": -2.36847,
            "school_name": "EP RUGANO",
            "country_name": "Rwanda",
            "connectivity": false
        },
        {
            "lon": 29.74383333,
            "lat": -2.642916667,
            "school_name": "SINAPI SCHOOL",
            "country_name": "Rwanda",
            "connectivity": false
        },
        {
            "lon": -83.98394974,
            "lat": 9.83830008,
            "school_name": "JUAN RAMIREZ RAMIREZ",
            "country_name": "Costa Rica",
            "connectivity": true
        },
        {
            "lon": 35.316903,
            "lat": 32.064766,
            "school_name": "jalud basic co-ed",
            "country_name": "Palestine",
            "connectivity": true
        },
        {
            "lon": 35.22738,
            "lat": 31.777342,
            "school_name": "Name unknown",
            "country_name": "Palestine",
            "connectivity": true
        },
        {
            "lon": 35.043641,
            "lat": 31.448369,
            "school_name": "Beit Amra sec boys",
            "country_name": "Palestine",
            "connectivity": true
        },
        {
            "lon": 35.101165,
            "lat": 31.57883,
            "school_name": "alrasheed basic boys",
            "country_name": "Palestine",
            "connectivity": true
        },
        {
            "lon": -73.73961762,
            "lat": 5.616231572,
            "school_name": "Name unknown",
            "country_name": "Colombia",
            "connectivity": false
        },
        {
            "lon": 30.75532,
            "lat": -18.56168,
            "school_name": "MAKWAVARARA",
            "country_name": "Zimbabwe",
            "connectivity": true
        },
        {
            "lon": -56.0986,
            "lat": -9.9041,
            "school_name": "EE JARDIM UNIVERSITARIO",
            "country_name": "Brazil",
            "connectivity": true
        },
        {
            "lon": -48.183,
            "lat": -7.1948,
            "school_name": "ESCOLA MUNICIPAL TEREZA HILARIO RIBEIRO",
            "country_name": "Brazil",
            "connectivity": true
        },
        {
            "lon": -48.8841,
            "lat": -16.859,
            "school_name": "ESCOLA MUNICIPAL NICANOR GOMES PEREIRA",
            "country_name": "Brazil",
            "connectivity": true
        },
        {
            "lon": -77.82512538,
            "lat": 1.482637287,
            "school_name": "Name unknown",
            "country_name": "Colombia",
            "connectivity": false
        },
        {
            "lon": -73.08090492,
            "lat": 7.070907304,
            "school_name": "Name unknown",
            "country_name": "Colombia",
            "connectivity": false
        },
        {
            "lon": -76.52432545,
            "lat": 3.350183691,
            "school_name": "Name unknown",
            "country_name": "Colombia",
            "connectivity": false
        },
        {
            "lon": 120.628766,
            "lat": 15.870687,
            "school_name": "Rabago ES",
            "country_name": "Philippines",
            "connectivity": true
        },
        {
            "lon": 120.5948766,
            "lat": 14.56116921,
            "school_name": "Limay ES",
            "country_name": "Philippines",
            "connectivity": true
        },
        {
            "lon": 120.641461,
            "lat": 15.764224,
            "school_name": "Malbeg PS",
            "country_name": "Philippines",
            "connectivity": true
        },
        {
            "lon": 120.724371,
            "lat": 15.07028,
            "school_name": "Sto. Rosario ES",
            "country_name": "Philippines",
            "connectivity": true
        },
        {
            "lon": 120.462555,
            "lat": 13.436937,
            "school_name": "Katuray Min. ES",
            "country_name": "Philippines",
            "connectivity": true
        },
        {
            "lon": 122.108917,
            "lat": 12.48485,
            "school_name": "Sto. Ni\u00f1o Elementary School",
            "country_name": "Philippines",
            "connectivity": true
        },
        {
            "lon": 123.7030769,
            "lat": 12.29641644,
            "school_name": "Bagacay ES",
            "country_name": "Philippines",
            "connectivity": true
        },
        {
            "lon": 122.905977,
            "lat": 13.885537,
            "school_name": "Tible ES",
            "country_name": "Philippines",
            "connectivity": true
        },
        {
            "lon": 122.6816667,
            "lat": 11.39055556,
            "school_name": "Dao Central School",
            "country_name": "Philippines",
            "connectivity": true
        },
        {
            "lon": 123.9802254,
            "lat": 9.604936,
            "school_name": "Alegria ES",
            "country_name": "Philippines",
            "connectivity": true
        },
        {
            "lon": 124.5762062,
            "lat": 12.48635886,
            "school_name": "Bocsol Es",
            "country_name": "Philippines",
            "connectivity": true
        },
        {
            "lon": 125.0377778,
            "lat": 11.00916667,
            "school_name": "San Roque ES",
            "country_name": "Philippines",
            "connectivity": true
        },
        {
            "lon": 124.4291667,
            "lat": 11.6074,
            "school_name": "Talustusan ES",
            "country_name": "Philippines",
            "connectivity": true
        },
        {
            "lon": 123.459694,
            "lat": 8.006707,
            "school_name": "Wakat Elementary School",
            "country_name": "Philippines",
            "connectivity": true
        },
        {
            "lon": 124.689331,
            "lat": 8.381355,
            "school_name": "Palabucan ES",
            "country_name": "Philippines",
            "connectivity": true
        },
        {
            "lon": 124.6216647,
            "lat": 7.099558711,
            "school_name": "Nalapaan Elementary School",
            "country_name": "Philippines",
            "connectivity": true
        },
        {
            "lon": 125.7260891,
            "lat": 8.524094964,
            "school_name": "Sta. Ines ES",
            "country_name": "Philippines",
            "connectivity": true
        },
        {
            "lon": -46.426422,
            "lat": -15.621506,
            "school_name": "EM JOAO JOAQUIM RAMOS",
            "country_name": "Brazil",
            "connectivity": true
        },
        {
            "lon": -44.169903,
            "lat": -19.948772,
            "school_name": "EM OLIMPIA MARIA DA GLORIA",
            "country_name": "Brazil",
            "connectivity": true
        },
        {
            "lon": -43.88102,
            "lat": -16.687445,
            "school_name": "CEMEI CASINHA FELIZ",
            "country_name": "Brazil",
            "connectivity": false
        },
        {
            "lon": -44.913345,
            "lat": -20.174812,
            "school_name": "EM JOSE CARLOS PEREIRA",
            "country_name": "Brazil",
            "connectivity": true
        },
        {
            "lon": -44.1815,
            "lat": -19.69775,
            "school_name": "CENTRO EDUCACIONAL MUN SRA MARIA ELIAS GUALBERTO CERQUEIRA",
            "country_name": "Brazil",
            "connectivity": false
        },
        {
            "lon": 120.633423,
            "lat": 14.961204,
            "school_name": "Bancal ES",
            "country_name": "Philippines",
            "connectivity": true
        },
        {
            "lon": -87.02189,
            "lat": 15.05876,
            "school_name": "ROBERTO MICHELETTI BAIN",
            "country_name": "Honduras",
            "connectivity": true
        },
        {
            "lon": -87.95883,
            "lat": 15.61394,
            "school_name": "MARCELINO PINEDA LOPEZ",
            "country_name": "Honduras",
            "connectivity": true
        },
        {
            "lon": -72.469722,
            "lat": 6.388056,
            "school_name": "ESC LOMA ALTA",
            "country_name": "Colombia",
            "connectivity": true
        },
        {
            "lon": -72.50651889,
            "lat": 6.53857227,
            "school_name": "ESC PUENTE CHIQUITO",
            "country_name": "Colombia",
            "connectivity": true
        },
        {
            "lon": -71.99008333,
            "lat": 12.16223603,
            "school_name": "CENTRO ETNOEDUCATIVO INTEGRAL RURAL PUERTO NUEVO - SEDE PRINCIPAL",
            "country_name": "Colombia",
            "connectivity": true
        },
        {
            "lon": -72.8108168,
            "lat": 8.167904052,
            "school_name": "CENT EDUC RUR NUESTRA SE\u00d1ORA DEL CARMEN",
            "country_name": "Colombia",
            "connectivity": true
        },
        {
            "lon": -73.17722914,
            "lat": 8.281379307,
            "school_name": "SEDE MONTELARGO",
            "country_name": "Colombia",
            "connectivity": true
        },
        {
            "lon": -73.45028037,
            "lat": 5.539620061,
            "school_name": "CONC SAN FELIPE",
            "country_name": "Colombia",
            "connectivity": true
        },
        {
            "lon": -73.20297222,
            "lat": 10.127552,
            "school_name": "ESC. NUEVA ARROYO DE AGUA",
            "country_name": "Colombia",
            "connectivity": true
        },
        {
            "lon": -73.7074709,
            "lat": 5.695496809,
            "school_name": "ESC FRAY MIGUEL DIAZ",
            "country_name": "Colombia",
            "connectivity": true
        },
        {
            "lon": -73.60735667,
            "lat": 8.307273968,
            "school_name": "INS. EDU. LA UNION",
            "country_name": "Colombia",
            "connectivity": true
        },
        {
            "lon": -74.139673,
            "lat": 4.544614,
            "school_name": "COL ANTONIO GARCIA (INS EDUC DIST)",
            "country_name": "Colombia",
            "connectivity": true
        },
        {
            "lon": -74.49481007,
            "lat": 4.360807298,
            "school_name": "ESCUELA RURAL PALESTINA",
            "country_name": "Colombia",
            "connectivity": true
        },
        {
            "lon": -75.202778,
            "lat": 6.729167,
            "school_name": "C. E. R. LA PRIMAVERA",
            "country_name": "Colombia",
            "connectivity": true
        },
        {
            "lon": -75.283087,
            "lat": 7.702768,
            "school_name": "E R LOS COMUNEROS",
            "country_name": "Colombia",
            "connectivity": true
        },
        {
            "lon": -75.519444,
            "lat": 5.022778,
            "school_name": "ESCUELA ALTO ARROYO",
            "country_name": "Colombia",
            "connectivity": true
        },
        {
            "lon": -75.87918984,
            "lat": 8.753310658,
            "school_name": "ESC MONGARAKATADO",
            "country_name": "Colombia",
            "connectivity": true
        },
        {
            "lon": -76.10712438,
            "lat": 4.681078248,
            "school_name": "LEONIDAS GONZALES ZAFRA",
            "country_name": "Colombia",
            "connectivity": true
        },
        {
            "lon": -76.49,
            "lat": 2.92,
            "school_name": "ESCUELA LA VETICA",
            "country_name": "Colombia",
            "connectivity": true
        },
        {
            "lon": -76.63963002,
            "lat": 2.670733635,
            "school_name": "LA PEDREGOSA",
            "country_name": "Colombia",
            "connectivity": true
        },
        {
            "lon": -76.78369427,
            "lat": 1.90461875,
            "school_name": "COLEGIO SANTA MARIA DE CAQUIONA",
            "country_name": "Colombia",
            "connectivity": true
        },
        {
            "lon": -77.676932,
            "lat": 0.8508,
            "school_name": "INSTITUCION EDUCATIVA COMERCIAL SAN LUIS",
            "country_name": "Colombia",
            "connectivity": true
        },
        {
            "lon": -61.012,
            "lat": -11.5172,
            "school_name": "EMEF TEOBALDO FERREIRA",
            "country_name": "Brazil",
            "connectivity": true
        },
        {
            "lon": -69.9358,
            "lat": -4.2246,
            "school_name": "ESCOLA ESTADUAL MARECHAL RONDON",
            "country_name": "Brazil",
            "connectivity": true
        },
        {
            "lon": -60.0518,
            "lat": -2.9855,
            "school_name": "EM MARECHAL CANDIDO RONDON",
            "country_name": "Brazil",
            "connectivity": true
        },
        {
            "lon": -57.7731,
            "lat": -3.3985,
            "school_name": "ESC LUIZ GONZAGA LAVAREDA",
            "country_name": "Brazil",
            "connectivity": false
        },
        {
            "lon": -56.7342,
            "lat": -2.6246,
            "school_name": "ESCOLA ESTADUAL ARAUJO FILHO",
            "country_name": "Brazil",
            "connectivity": true
        },
        {
            "lon": -59.9377,
            "lat": -3.0632,
            "school_name": "EM PROF ALVARO CESAR DE CARVALHO",
            "country_name": "Brazil",
            "connectivity": true
        },
        {
            "lon": -66.0598,
            "lat": -3.4709,
            "school_name": "ESCOLA PRO-INFANCIA PROFESSOR ATAIDE NOBRE DIAS FERREIRA",
            "country_name": "Brazil",
            "connectivity": false
        },
        {
            "lon": -54.7272,
            "lat": -2.7466,
            "school_name": "E M E F NSRA DO PERPETUO SOCORRO",
            "country_name": "Brazil",
            "connectivity": false
        },
        {
            "lon": -50.8293,
            "lat": -1.0576,
            "school_name": "E M E F CAMILO GONCALVES BUIUSSU",
            "country_name": "Brazil",
            "connectivity": false
        },
        {
            "lon": -48.1604,
            "lat": -1.3273,
            "school_name": "EMEF JOAQUIM SILVA",
            "country_name": "Brazil",
            "connectivity": true
        },
        {
            "lon": -48.8481,
            "lat": -1.8097,
            "school_name": "E M E I F SAO BENEDITO",
            "country_name": "Brazil",
            "connectivity": false
        },
        {
            "lon": -53.8643,
            "lat": -3.5695,
            "school_name": "E M E F SETE DE SETEMBRO",
            "country_name": "Brazil",
            "connectivity": false
        },
        {
            "lon": -46.6001,
            "lat": -2.3151,
            "school_name": "E M E F MOISES ANTONIO",
            "country_name": "Brazil",
            "connectivity": false
        },
        {
            "lon": -54.7449,
            "lat": -1.9414,
            "school_name": "E M E I DIOMAR FARIAS",
            "country_name": "Brazil",
            "connectivity": false
        },
        {
            "lon": -50.7258,
            "lat": -4.8147,
            "school_name": "E M E F MARTINS MONTEIRO",
            "country_name": "Brazil",
            "connectivity": true
        },
        {
            "lon": -49.5908,
            "lat": -11.0348,
            "school_name": "ESCOLA MUNICIPAL RURAL MENINO JESUS",
            "country_name": "Brazil",
            "connectivity": true
        },
        {
            "lon": -48.888,
            "lat": -9.9376,
            "school_name": "ESCOLA MUNICIPAL ARARA",
            "country_name": "Brazil",
            "connectivity": false
        },
        {
            "lon": -44.6781,
            "lat": -2.0836,
            "school_name": "UEB MATEUS AVELAR",
            "country_name": "Brazil",
            "connectivity": true
        },
        {
            "lon": -45.5003,
            "lat": -3.1417,
            "school_name": "EM COELHO NETO",
            "country_name": "Brazil",
            "connectivity": false
        },
        {
            "lon": -44.0521,
            "lat": -4.0753,
            "school_name": "EM BARRIGUDA - ANEXO IV - PIEDADE",
            "country_name": "Brazil",
            "connectivity": false
        },
        {
            "lon": -44.3814,
            "lat": -4.1782,
            "school_name": "UI ALBERTO TORRES",
            "country_name": "Brazil",
            "connectivity": true
        },
        {
            "lon": -44.3715,
            "lat": -4.3518,
            "school_name": "UE MUL ALDENORA BARROS",
            "country_name": "Brazil",
            "connectivity": true
        },
        {
            "lon": -49.2995,
            "lat": -16.8131,
            "school_name": "ESC MUN PROF\u00aa MONICA TOMAZ DA SILVA",
            "country_name": "Brazil",
            "connectivity": true
        },
        {
            "lon": -45.9223,
            "lat": -4.5053,
            "school_name": "EM SEDE DA FLECHAL",
            "country_name": "Brazil",
            "connectivity": false
        },
        {
            "lon": -45.3307,
            "lat": -2.3748,
            "school_name": "CEF EMILIA FERREIRO",
            "country_name": "Brazil",
            "connectivity": false
        },
        {
            "lon": -45.0461,
            "lat": -4.6397,
            "school_name": "UE CARMINA ALVES CAIANA",
            "country_name": "Brazil",
            "connectivity": false
        },
        {
            "lon": -41.4179,
            "lat": -3.5957,
            "school_name": "GRUPO ESC ANTONIO MACHADO PASSOS",
            "country_name": "Brazil",
            "connectivity": false
        },
        {
            "lon": -41.3863,
            "lat": -3.0458,
            "school_name": "UNID ESC MANUEL RODRIGUES",
            "country_name": "Brazil",
            "connectivity": false
        },
        {
            "lon": -41.5864,
            "lat": -3.6536,
            "school_name": "GRUPO MUL DE JOAQUIM AVELINO DE BRITO",
            "country_name": "Brazil",
            "connectivity": false
        },
        {
            "lon": -38.7213,
            "lat": -5.2066,
            "school_name": "MARIA OLIVEIRA FREITAS DOS SANTOS EMEIF",
            "country_name": "Brazil",
            "connectivity": true
        },
        {
            "lon": -37.9345,
            "lat": -4.9671,
            "school_name": "MARIA GOMES DA SILVA CRECHE",
            "country_name": "Brazil",
            "connectivity": false
        },
        {
            "lon": -37.1797,
            "lat": -5.7938,
            "school_name": "EM JOAO LOURENCO DE AQUINO",
            "country_name": "Brazil",
            "connectivity": false
        },
        {
            "lon": -35.296,
            "lat": -5.6154,
            "school_name": "EM BRASILIANO JERONIMO DA SILVA",
            "country_name": "Brazil",
            "connectivity": true
        },
        {
            "lon": -35.2507,
            "lat": -5.7539,
            "school_name": "ESC MUL MONSENHOR JOSE ALVES LANDIM",
            "country_name": "Brazil",
            "connectivity": true
        },
        {
            "lon": -35.2778,
            "lat": -5.762,
            "school_name": "ESC MUL PROF REGINALDO FERREIRA NETO",
            "country_name": "Brazil",
            "connectivity": true
        },
        {
            "lon": -35.7109,
            "lat": -6.1002,
            "school_name": "EMEF MARLENE VITORIANO DE SOUZA",
            "country_name": "Brazil",
            "connectivity": true
        },
        {
            "lon": -36.788,
            "lat": -7.9378,
            "school_name": "GR ESC SEBASTIANA LAFAYETE",
            "country_name": "Brazil",
            "connectivity": true
        },
        {
            "lon": -40.6304,
            "lat": -7.5324,
            "school_name": "ESCOLA CANDIDA DOS SANTOS SILVA",
            "country_name": "Brazil",
            "connectivity": false
        },
        {
            "lon": -39.5326,
            "lat": -7.6601,
            "school_name": "ESCOLA MUNICIPAL MANOEL LAURINDO",
            "country_name": "Brazil",
            "connectivity": false
        },
        {
            "lon": -40.9559,
            "lat": -8.5488,
            "school_name": "ESCOLA MUNICIPAL LUIS DE LIMA RAMOS",
            "country_name": "Brazil",
            "connectivity": true
        },
        {
            "lon": -35.5745,
            "lat": -8.346,
            "school_name": "ESCOLA ESPIRITO SANTO DIVINO",
            "country_name": "Brazil",
            "connectivity": false
        },
        {
            "lon": -36.4647,
            "lat": -9.1222,
            "school_name": "ESCOLA MUNICIPAL JOSE GONCALVES DE MELO",
            "country_name": "Brazil",
            "connectivity": false
        },
        {
            "lon": -36.18,
            "lat": -8.5828,
            "school_name": "ESCOLA MUNICIPAL DAMIANA ALVES DE FREITAS",
            "country_name": "Brazil",
            "connectivity": false
        },
        {
            "lon": -36.3972,
            "lat": -9.0439,
            "school_name": "ESCOLA MUNICIPAL ATALIBAL VICTOR",
            "country_name": "Brazil",
            "connectivity": true
        },
        {
            "lon": -46.2545,
            "lat": -16.0573,
            "school_name": "EE DARCI RIBEIRO",
            "country_name": "Brazil",
            "connectivity": true
        },
        {
            "lon": -46.5212,
            "lat": -23.4702,
            "school_name": "EPG - EPG JOAO ALVARES PADRE",
            "country_name": "Brazil",
            "connectivity": true
        },
        {
            "lon": -46.3268,
            "lat": -22.8629,
            "school_name": "EMETI - EM DE EDUCACAO EM TEMPO INTEGRAL PROFESSOR CELSO LUIS FERREIRA PO",
            "country_name": "Brazil",
            "connectivity": true
        },
        {
            "lon": -37.4213,
            "lat": -10.7151,
            "school_name": "ESCOLA MUNICIPAL ELIZEU DE OLIVEIRA",
            "country_name": "Brazil",
            "connectivity": true
        },
        {
            "lon": -37.1184,
            "lat": -10.8982,
            "school_name": "ESCOLA MUNICIPAL SANTA TEREZINHA",
            "country_name": "Brazil",
            "connectivity": false
        },
        {
            "lon": -37.9453,
            "lat": -11.8106,
            "school_name": "ESCOLA MUNICIPAL PROFESSORA MARIA DE LOURDES CARVALHO LEITE",
            "country_name": "Brazil",
            "connectivity": true
        },
        {
            "lon": -38.4653,
            "lat": -12.9496,
            "school_name": "ESCOLA MUNICIPAL EUGENIA ANNA DOS SANTOS",
            "country_name": "Brazil",
            "connectivity": true
        },
        {
            "lon": -42.1374,
            "lat": -13.3319,
            "school_name": "ESCOLA MUNICIPAL DE TAPERA",
            "country_name": "Brazil",
            "connectivity": false
        },
        {
            "lon": -39.3034,
            "lat": -14.9588,
            "school_name": "ESCOLA MUNICIPAL JOSE NERY CONSTANT",
            "country_name": "Brazil",
            "connectivity": true
        },
        {
            "lon": -39.4898,
            "lat": -16.8379,
            "school_name": "COLEGIO MUNICIPAL CARLOS A DE SOUZA PARRACHO",
            "country_name": "Brazil",
            "connectivity": true
        },
        {
            "lon": -36.656,
            "lat": -9.7408,
            "school_name": "ESCOLA DE ENSINO FUNDAMENTAL PEDRO CORREIA DAS GRACAS",
            "country_name": "Brazil",
            "connectivity": true
        },
        {
            "lon": -42.3715,
            "lat": -19.3163,
            "school_name": "ESCOLA MUNICIPAL EDUCACAO CRIATIVA",
            "country_name": "Brazil",
            "connectivity": true
        },
        {
            "lon": -44.0175,
            "lat": -19.6827,
            "school_name": "EM PEDACINHO DO CEU",
            "country_name": "Brazil",
            "connectivity": true
        },
        {
            "lon": -42.1398,
            "lat": -20.6035,
            "school_name": "C MUN EDUC INF DEUS E AMOR",
            "country_name": "Brazil",
            "connectivity": false
        },
        {
            "lon": -43.1208,
            "lat": -15.1719,
            "school_name": "EM TACIANO ANTUNES DE SOUZA",
            "country_name": "Brazil",
            "connectivity": true
        },
        {
            "lon": -43.9631,
            "lat": -19.8029,
            "school_name": "ESCOLA MUNICIPAL DR JOSE XAVIER NOGUEIRA",
            "country_name": "Brazil",
            "connectivity": true
        },
        {
            "lon": -43.3272,
            "lat": -21.7324,
            "school_name": "CENTRO DE ATENDIMENTO EDUCACIONAL ESPECIALIZADO LESTE - CAEE LESTE",
            "country_name": "Brazil",
            "connectivity": true
        },
        {
            "lon": -40.2952,
            "lat": -19.0498,
            "school_name": "EMEF ARARIBOIA",
            "country_name": "Brazil",
            "connectivity": true
        },
        {
            "lon": -41.5327,
            "lat": -20.3492,
            "school_name": "CEMEI PROFESSORA MARIA DA PENHA AMORIM SOUZA",
            "country_name": "Brazil",
            "connectivity": true
        },
        {
            "lon": -40.7163,
            "lat": -18.8323,
            "school_name": "CMEI VICENTE SCARDINI",
            "country_name": "Brazil",
            "connectivity": true
        },
        {
            "lon": -43.1328,
            "lat": -22.6612,
            "school_name": "E M PROFESSORA OPHELIA RIBEIRO MARTINS",
            "country_name": "Brazil",
            "connectivity": true
        },
        {
            "lon": -41.2858,
            "lat": -21.7976,
            "school_name": "CE JOSE MOREIRA",
            "country_name": "Brazil",
            "connectivity": true
        },
        {
            "lon": -43.3773,
            "lat": -22.7658,
            "school_name": "CRECHE MUL RENASCER",
            "country_name": "Brazil",
            "connectivity": true
        },
        {
            "lon": -44.1056,
            "lat": -22.4656,
            "school_name": "E M PROFESSOR WALDYR AMARAL BEDE",
            "country_name": "Brazil",
            "connectivity": true
        },
        {
            "lon": -45.2373,
            "lat": -22.9141,
            "school_name": "CHAGAS PEREIRA",
            "country_name": "Brazil",
            "connectivity": false
        },
        {
            "lon": -46.4539,
            "lat": -23.5988,
            "school_name": "EMEF COELHO NETO",
            "country_name": "Brazil",
            "connectivity": true
        },
        {
            "lon": -50.5822,
            "lat": -20.1077,
            "school_name": "ESCOLA MUNICIPAL EDISON RODRIGUES DOS SANTOS JUNIOR",
            "country_name": "Brazil",
            "connectivity": true
        },
        {
            "lon": -47.3735,
            "lat": -22.7273,
            "school_name": "ENY CARVALHO DE ANDRADE PROFESSORA EMEI",
            "country_name": "Brazil",
            "connectivity": true
        },
        {
            "lon": -48.0327,
            "lat": -23.5786,
            "school_name": "EMEI PROFA ANGELINA TURELLI VIEIRA",
            "country_name": "Brazil",
            "connectivity": true
        },
        {
            "lon": -46.7823,
            "lat": -23.6735,
            "school_name": "EMEI ARACY DE ALMEIDA",
            "country_name": "Brazil",
            "connectivity": true
        },
        {
            "lon": -45.8887,
            "lat": -23.2001,
            "school_name": "DENTE DE LEITE CCI",
            "country_name": "Brazil",
            "connectivity": true
        },
        {
            "lon": -46.9299,
            "lat": -23.5957,
            "school_name": "RECANTO VISTA ALEGRE ESCOLA MUNICIPAL",
            "country_name": "Brazil",
            "connectivity": true
        },
        {
            "lon": -46.5252,
            "lat": -23.7094,
            "school_name": "GERALDO DE MELO FERREIRA EMEB",
            "country_name": "Brazil",
            "connectivity": true
        },
        {
            "lon": -42.1409,
            "lat": -14.0359,
            "school_name": "ESC MUL DE 1 E 2 GRAUS NATALINO O LIMA",
            "country_name": "Brazil",
            "connectivity": true
        },
        {
            "lon": -47.2152,
            "lat": -23.6599,
            "school_name": "NOVA ESPERANCA EM",
            "country_name": "Brazil",
            "connectivity": false
        },
        {
            "lon": -48.7372,
            "lat": -22.0852,
            "school_name": "CRECHE LEONOR MAUAD CARREIRA",
            "country_name": "Brazil",
            "connectivity": true
        },
        {
            "lon": -53.3904,
            "lat": -32.5516,
            "school_name": "EMEF MARECHAL CASTELO BRANCO",
            "country_name": "Brazil",
            "connectivity": true
        },
        {
            "lon": -58.493,
            "lat": -10.3334,
            "school_name": "ESCOLA MUNICIPAL DO CAMPO DORVAL BONETTI",
            "country_name": "Brazil",
            "connectivity": true
        },
        {
            "lon": -49.9079,
            "lat": -26.3629,
            "school_name": "CEI MUN LUCENA",
            "country_name": "Brazil",
            "connectivity": true
        },
        {
            "lon": -49.3153,
            "lat": -25.4962,
            "school_name": "BOSCO E M D EI EF",
            "country_name": "Brazil",
            "connectivity": true
        },
        {
            "lon": -49.3347,
            "lat": -25.2131,
            "school_name": "JOAO A STRESSER E M VER EF",
            "country_name": "Brazil",
            "connectivity": true
        },
        {
            "lon": -52.2871,
            "lat": -24.5887,
            "school_name": "PEDRO GLUCHAK C M E I",
            "country_name": "Brazil",
            "connectivity": true
        },
        {
            "lon": -49.4416,
            "lat": -27.2923,
            "school_name": "NUCLEO ESCOLAR ANITA KNIHS",
            "country_name": "Brazil",
            "connectivity": false
        },
        {
            "lon": -52.2617,
            "lat": -26.8458,
            "school_name": "ESCOLA MUNICIPAL ALEXANDRE ANTONIOLLI",
            "country_name": "Brazil",
            "connectivity": true
        },
        {
            "lon": -53.2554,
            "lat": -27.0738,
            "school_name": "ER MUN PEDRO IVO CAMPOS",
            "country_name": "Brazil",
            "connectivity": true
        },
        {
            "lon": -53.062,
            "lat": -26.611,
            "school_name": "PE ESTRELINHA VIVA",
            "country_name": "Brazil",
            "connectivity": true
        },
        {
            "lon": -52.6183,
            "lat": -29.238,
            "school_name": "EMEF JULIO DE CASTILHOS",
            "country_name": "Brazil",
            "connectivity": false
        },
        {
            "lon": -53.1351,
            "lat": -27.6676,
            "school_name": "ESC MUN ENS FUN CARLOS GOMES",
            "country_name": "Brazil",
            "connectivity": false
        },
        {
            "lon": -52.3439,
            "lat": -31.7779,
            "school_name": "EEEF SAGRADO CORACAO DE JESUS",
            "country_name": "Brazil",
            "connectivity": false
        },
        {
            "lon": -52.2419,
            "lat": -29.9178,
            "school_name": "EMEF SANTA TEREZINHA",
            "country_name": "Brazil",
            "connectivity": false
        },
        {
            "lon": -52.4372,
            "lat": -28.2498,
            "school_name": "EMEI OSORIO CARDOSO TEIXEIRA",
            "country_name": "Brazil",
            "connectivity": true
        },
        {
            "lon": -56.1329,
            "lat": -15.5988,
            "school_name": "EMEB MARIA EUNICE DUARTE BARROS",
            "country_name": "Brazil",
            "connectivity": true
        },
        {
            "lon": -42.5358,
            "lat": -22.2386,
            "school_name": "C M E I MENINO JESUS",
            "country_name": "Brazil",
            "connectivity": true
        },
        {
            "lon": -49.6559,
            "lat": -14.2744,
            "school_name": "ESC MUL FRANCISCO RAMOS DE MENEZES",
            "country_name": "Brazil",
            "connectivity": true
        },
        {
            "lon": -42.7773,
            "lat": -20.3448,
            "school_name": "EE HELDER DE AQUINO",
            "country_name": "Brazil",
            "connectivity": true
        },
        {
            "lon": -47.9511,
            "lat": -16.1145,
            "school_name": "ESCOLA MUNICIPAL HELIO JONES BRANQUINHO",
            "country_name": "Brazil",
            "connectivity": true
        },
        {
            "lon": -45.9018,
            "lat": -23.1407,
            "school_name": "JORGE BARBOSA MOREIRA PROFESSOR",
            "country_name": "Brazil",
            "connectivity": true
        },
        {
            "lon": -50.4465,
            "lat": -18.4465,
            "school_name": "CENTRO DE ENSINO EM PERIODO INTEGRAL JOAO XXIII",
            "country_name": "Brazil",
            "connectivity": true
        },
        {
            "lon": -46.6843,
            "lat": -23.7738,
            "school_name": "ADA PELLEGRINI GRINOVER",
            "country_name": "Brazil",
            "connectivity": true
        },
        {
            "lon": -55.7079,
            "lat": -22.5551,
            "school_name": "CENTRO DE EDUCACAO INFANTIL ANSELMO SOARES DE FRANCA",
            "country_name": "Brazil",
            "connectivity": true
        },
        {
            "lon": -46.5102,
            "lat": -23.6058,
            "school_name": "AROLDO DE AZEVEDO PROF",
            "country_name": "Brazil",
            "connectivity": true
        },
        {
            "lon": -44.8208,
            "lat": -22.9226,
            "school_name": "GERALDO COSTA",
            "country_name": "Brazil",
            "connectivity": true
        },
        {
            "lon": -45.6637,
            "lat": -23.3852,
            "school_name": "CERQUEIRA CESAR DOUTOR",
            "country_name": "Brazil",
            "connectivity": true
        },
        {
            "lon": -69.9881,
            "lat": -4.3817,
            "school_name": "ESC INDIGENA PORTO CRUZEIRINHO",
            "country_name": "Brazil",
            "connectivity": true
        },
        {
            "lon": -48.4115,
            "lat": -13.0442,
            "school_name": "COLEGIO ESTADUAL PROFESSORA ONEIDES ROSA DE MOURA",
            "country_name": "Brazil",
            "connectivity": true
        },
        {
            "lon": -52.4786,
            "lat": -23.0958,
            "school_name": "SILVIO VIDAL C E EF M",
            "country_name": "Brazil",
            "connectivity": true
        },
        {
            "lon": -51.9423,
            "lat": -23.4,
            "school_name": "JOSE DARCY DE CARVALHO E M PROF EI EF",
            "country_name": "Brazil",
            "connectivity": true
        },
        {
            "lon": -43.1936,
            "lat": -22.5204,
            "school_name": "CENTRO DE EDUCACAO INFANTIL SEBASTIAO DA ROCHA",
            "country_name": "Brazil",
            "connectivity": true
        },
        {
            "lon": -64.7225,
            "lat": -3.352,
            "school_name": "ESCOLA ESTADUAL EDUARDO SA",
            "country_name": "Brazil",
            "connectivity": true
        },
        {
            "lon": -46.7082,
            "lat": -23.286,
            "school_name": "JARDIM ALEGRIA II",
            "country_name": "Brazil",
            "connectivity": true
        },
        {
            "lon": -38.3629,
            "lat": -4.3056,
            "school_name": "MAXIMIANO FELIX EEF",
            "country_name": "Brazil",
            "connectivity": true
        },
        {
            "lon": -43.7748,
            "lat": -20.6639,
            "school_name": "EM DEP ELY FRANCO RIBEIRO",
            "country_name": "Brazil",
            "connectivity": true
        },
        {
            "lon": -38.7148,
            "lat": -6.7311,
            "school_name": "ANTONIO ALVES DE FARIAS EMEIF",
            "country_name": "Brazil",
            "connectivity": true
        },
        {
            "lon": -40.1434,
            "lat": -14.7911,
            "school_name": "ESC MUN EUJACIO SIMOES",
            "country_name": "Brazil",
            "connectivity": true
        },
        {
            "lon": -36.4754,
            "lat": -6.0932,
            "school_name": "ESCOLA ESTADUAL ANGELITA FELIX BEZERRA",
            "country_name": "Brazil",
            "connectivity": true
        },
        {
            "lon": -43.0489,
            "lat": -22.8754,
            "school_name": "E M DR ANTONIO COUTINHO DE AZEVEDO",
            "country_name": "Brazil",
            "connectivity": true
        }
    ],
    "num_countries": 14,
    "countries": [
        "Benin",
        "Brazil",
        "Colombia",
        "Costa Rica",
        "Grenada",
        "Honduras",
        "Kazakhstan",
        "Kyrgyzstan",
        "Palestine",
        "Philippines",
        "Rwanda",
        "Saint Lucia",
        "Sierra Leone",
        "Zimbabwe"
    ],
    "schools_no_data": [
        {
            "lon": 17.58134344,
            "lat": -0.704941994,
            "school_name": "INST  MALANGE",
            "country_name": "Democratic Republic of the Congo",
            "connectivity": false
        },
        {
            "lon": -0.4530724,
            "lat": 6.0353655,
            "school_name": "Name unknown",
            "country_name": "Ghana",
            "connectivity": false
        },
        {
            "lon": -2.3204287,
            "lat": 7.3426702,
            "school_name": "Name unknown",
            "country_name": "Ghana",
            "connectivity": false
        },
        {
            "lon": -0.8230537,
            "lat": 9.7470446,
            "school_name": "Name unknown",
            "country_name": "Ghana",
            "connectivity": false
        },
        {
            "lon": 0.9300735,
            "lat": 5.8060497,
            "school_name": "Name unknown",
            "country_name": "Ghana",
            "connectivity": false
        },
        {
            "lon": 33.3113188,
            "lat": 19.53953988,
            "school_name": "Name unknown",
            "country_name": "Sudan",
            "connectivity": false
        },
        {
            "lon": 33.9741308,
            "lat": 17.6043508,
            "school_name": "Name unknown",
            "country_name": "Sudan",
            "connectivity": false
        },
        {
            "lon": 22.3128891,
            "lat": 43.21934459,
            "school_name": "\u0409\u0443\u043f\u0447\u0435 \u0428\u043f\u0430\u043d\u0430\u0446",
            "country_name": "Serbia",
            "connectivity": false
        },
        {
            "lon": 25.71990097,
            "lat": 12.66381573,
            "school_name": "Name unknown",
            "country_name": "Sudan",
            "connectivity": false
        },
        {
            "lon": -1.5745373,
            "lat": 6.4602862,
            "school_name": "Name unknown",
            "country_name": "Ghana",
            "connectivity": false
        },
        {
            "lon": 0.0565839,
            "lat": 8.7574737,
            "school_name": "Name unknown",
            "country_name": "Ghana",
            "connectivity": false
        },
        {
            "lon": -0.8311307,
            "lat": 6.1244389,
            "school_name": "Name unknown",
            "country_name": "Ghana",
            "connectivity": false
        },
        {
            "lon": -1.8075782,
            "lat": 6.6602385,
            "school_name": "Name unknown",
            "country_name": "Ghana",
            "connectivity": false
        },
        {
            "lon": 34.0194,
            "lat": -2.63701,
            "school_name": "BUPANDAGILA ENGLISH MEDIUM",
            "country_name": "United Republic of Tanzania",
            "connectivity": false
        },
        {
            "lon": 32.74874,
            "lat": -4.73981,
            "school_name": "IGOMBE 'B'",
            "country_name": "United Republic of Tanzania",
            "connectivity": false
        },
        {
            "lon": 33.50456,
            "lat": -2.94842,
            "school_name": "KITUNGA",
            "country_name": "United Republic of Tanzania",
            "connectivity": false
        },
        {
            "lon": 36.00878,
            "lat": -10.53326,
            "school_name": "UHURU",
            "country_name": "United Republic of Tanzania",
            "connectivity": false
        },
        {
            "lon": 36.72375,
            "lat": -5.93091,
            "school_name": "DONGO",
            "country_name": "United Republic of Tanzania",
            "connectivity": false
        },
        {
            "lon": 31.61379,
            "lat": -1.69362,
            "school_name": "RUHIJA",
            "country_name": "United Republic of Tanzania",
            "connectivity": false
        },
        {
            "lon": 40.0309,
            "lat": -10.50743,
            "school_name": "MICHENJI",
            "country_name": "United Republic of Tanzania",
            "connectivity": false
        },
        {
            "lon": 37.19139,
            "lat": -3.41649,
            "school_name": "KAMBI YA CHOKAA",
            "country_name": "United Republic of Tanzania",
            "connectivity": false
        },
        {
            "lon": 39.33181,
            "lat": -10.64929,
            "school_name": "MUUNGANO",
            "country_name": "United Republic of Tanzania",
            "connectivity": false
        },
        {
            "lon": 33.62386,
            "lat": -4.2011,
            "school_name": "MWABALATULU",
            "country_name": "United Republic of Tanzania",
            "connectivity": false
        },
        {
            "lon": -1.3236903,
            "lat": 5.1133,
            "school_name": "Name unknown",
            "country_name": "Ghana",
            "connectivity": false
        },
        {
            "lon": 40.0564534,
            "lat": -3.2589481,
            "school_name": "Name unknown",
            "country_name": "Kenya",
            "connectivity": false
        },
        {
            "lon": 1.409288333,
            "lat": 6.365263333,
            "school_name": "JEE HAHOTOE G/A",
            "country_name": "Togo",
            "connectivity": false
        },
        {
            "lon": 0.612,
            "lat": 9.513189,
            "school_name": "JEP NANDJAL",
            "country_name": "Togo",
            "connectivity": false
        },
        {
            "lon": 1.22515,
            "lat": 6.22563,
            "school_name": "EPL KAMOS",
            "country_name": "Togo",
            "connectivity": false
        },
        {
            "lon": 1.254396,
            "lat": 6.22157,
            "school_name": "EPL BON DESTIN",
            "country_name": "Togo",
            "connectivity": false
        },
        {
            "lon": 1.265865,
            "lat": 6.19994729,
            "school_name": "EPL LE TE.RE.EC",
            "country_name": "Togo",
            "connectivity": false
        },
        {
            "lon": 0.539335,
            "lat": 7.585764,
            "school_name": "EPE ANANI KOPE",
            "country_name": "Togo",
            "connectivity": false
        },
        {
            "lon": 0.723559,
            "lat": 7.330869,
            "school_name": "EPP AMOUTA DZIDZOLE",
            "country_name": "Togo",
            "connectivity": false
        },
        {
            "lon": 1.135814,
            "lat": 8.226934,
            "school_name": "EPP AGBANDI G/B",
            "country_name": "Togo",
            "connectivity": false
        },
        {
            "lon": 30.55783,
            "lat": -3.62987,
            "school_name": "KIGOGO",
            "country_name": "United Republic of Tanzania",
            "connectivity": false
        },
        {
            "lon": 34.38827,
            "lat": -1.9154,
            "school_name": "WAGETE",
            "country_name": "United Republic of Tanzania",
            "connectivity": false
        },
        {
            "lon": 33.29649,
            "lat": -3.17227,
            "school_name": "HUNGUMALWA",
            "country_name": "United Republic of Tanzania",
            "connectivity": false
        },
        {
            "lon": 35.2697,
            "lat": -3.22097,
            "school_name": "ENDULEN",
            "country_name": "United Republic of Tanzania",
            "connectivity": false
        },
        {
            "lon": 34.16474659,
            "lat": -11.86438744,
            "school_name": "Chivumu II",
            "country_name": "Malawi",
            "connectivity": false
        },
        {
            "lon": 35.40249884,
            "lat": -15.4676372,
            "school_name": "Namisonga CDSS",
            "country_name": "Malawi",
            "connectivity": false
        },
        {
            "lon": 19.19455833,
            "lat": 2.822285,
            "school_name": "EP DINGO",
            "country_name": "Democratic Republic of the Congo",
            "connectivity": false
        },
        {
            "lon": 18.25582029,
            "lat": -4.492581692,
            "school_name": "INST KINGANGU",
            "country_name": "Democratic Republic of the Congo",
            "connectivity": false
        },
        {
            "lon": 21.73716287,
            "lat": -4.375099233,
            "school_name": "EP MOKANYINGA",
            "country_name": "Democratic Republic of the Congo",
            "connectivity": false
        },
        {
            "lon": 7.281175,
            "lat": 5.632166667,
            "school_name": "Name unknown",
            "country_name": "Nigeria",
            "connectivity": false
        },
        {
            "lon": 24.32659474,
            "lat": -3.385256274,
            "school_name": "INST DJOMBOSANGA",
            "country_name": "Democratic Republic of the Congo",
            "connectivity": false
        },
        {
            "lon": 24.81280591,
            "lat": -3.983828064,
            "school_name": "INST OWANGO",
            "country_name": "Democratic Republic of the Congo",
            "connectivity": false
        },
        {
            "lon": 22.17227024,
            "lat": -5.137009845,
            "school_name": "INST TSHISHIKA",
            "country_name": "Democratic Republic of the Congo",
            "connectivity": false
        },
        {
            "lon": 27.43963498,
            "lat": -11.69748489,
            "school_name": "CS GRACE A L'OUEST",
            "country_name": "Democratic Republic of the Congo",
            "connectivity": false
        },
        {
            "lon": 20.56407346,
            "lat": 1.77758496,
            "school_name": "EP LA  SAGESSE ENDONGELE",
            "country_name": "Democratic Republic of the Congo",
            "connectivity": false
        },
        {
            "lon": 28.877,
            "lat": -2.62,
            "school_name": "EP MUMOSHO",
            "country_name": "Democratic Republic of the Congo",
            "connectivity": false
        },
        {
            "lon": 12.87105437,
            "lat": -5.045181364,
            "school_name": "INST TSITU NZOBE",
            "country_name": "Democratic Republic of the Congo",
            "connectivity": false
        },
        {
            "lon": 12.69103198,
            "lat": -5.205647149,
            "school_name": "CS LAGRACE",
            "country_name": "Democratic Republic of the Congo",
            "connectivity": false
        },
        {
            "lon": -99.903,
            "lat": 19.036,
            "school_name": "TELEBACHILLERATO COMUNITARIO NUM. 447 LA GUACAMAYA TEMASCALTEPEC",
            "country_name": "Mexico",
            "connectivity": false
        },
        {
            "lon": -15.98769,
            "lat": 18.05485,
            "school_name": "ENERS PRIVE",
            "country_name": "Mauritania",
            "connectivity": false
        },
        {
            "lon": -15.91023,
            "lat": 18.0692,
            "school_name": "TAGHADOUM HEDEL",
            "country_name": "Mauritania",
            "connectivity": false
        },
        {
            "lon": 33.82834,
            "lat": 1.31725,
            "school_name": "OGOSOI PRIMARY SCHOOL",
            "country_name": "Uganda",
            "connectivity": false
        },
        {
            "lon": 34.37883,
            "lat": 1.20917,
            "school_name": "BUMASOBO SENIOR  SECONDARY SCHOOL",
            "country_name": "Uganda",
            "connectivity": false
        },
        {
            "lon": 34.38694,
            "lat": 1.45673,
            "school_name": "TABAGONYI P /SCH",
            "country_name": "Uganda",
            "connectivity": false
        },
        {
            "lon": 32.6891,
            "lat": 0.37361,
            "school_name": "MODEL S S",
            "country_name": "Uganda",
            "connectivity": false
        },
        {
            "lon": 32.29552,
            "lat": 2.7674,
            "school_name": "Gulu College",
            "country_name": "Uganda",
            "connectivity": false
        },
        {
            "lon": 32.28521,
            "lat": -0.32604,
            "school_name": "Bishop Dunstan Nsubuga S.S.S.",
            "country_name": "Uganda",
            "connectivity": false
        },
        {
            "lon": 29.90565,
            "lat": -1.21688,
            "school_name": "Rwakayundo P.S.",
            "country_name": "Uganda",
            "connectivity": false
        },
        {
            "lon": 29.80534,
            "lat": -0.78864,
            "school_name": "Nyakatunguru",
            "country_name": "Uganda",
            "connectivity": false
        },
        {
            "lon": 30.17056,
            "lat": 0.24011,
            "school_name": "Kibugha P.S.",
            "country_name": "Uganda",
            "connectivity": false
        },
        {
            "lon": 33.78282,
            "lat": 0.60308,
            "school_name": "Nambo P.S.",
            "country_name": "Uganda",
            "connectivity": false
        },
        {
            "lon": 30.99199,
            "lat": 3.15903,
            "school_name": "Katrini S.S.",
            "country_name": "Uganda",
            "connectivity": false
        },
        {
            "lon": 30.02477,
            "lat": -1.00876,
            "school_name": "Karukaata P.S.",
            "country_name": "Uganda",
            "connectivity": false
        },
        {
            "lon": 32.12316,
            "lat": 1.93163,
            "school_name": "Siriba P.S.",
            "country_name": "Uganda",
            "connectivity": false
        },
        {
            "lon": 32.23676,
            "lat": 2.20675,
            "school_name": "Gwara P.S.",
            "country_name": "Uganda",
            "connectivity": false
        },
        {
            "lon": 29.09854,
            "lat": -26.38821,
            "school_name": "Emdibini Primary School",
            "country_name": "South Africa",
            "connectivity": false
        },
        {
            "lon": 28.88765,
            "lat": -25.33345,
            "school_name": "Phumzile Secondary School",
            "country_name": "South Africa",
            "connectivity": false
        },
        {
            "lon": 24.67674,
            "lat": -27.60159,
            "school_name": "Reikagile Middle School",
            "country_name": "South Africa",
            "connectivity": false
        },
        {
            "lon": 26.55192,
            "lat": -25.45292,
            "school_name": "Reipuseng High School",
            "country_name": "South Africa",
            "connectivity": false
        },
        {
            "lon": 24.76727,
            "lat": -28.71682,
            "school_name": "RC Elliot College",
            "country_name": "South Africa",
            "connectivity": false
        },
        {
            "lon": 29.54704,
            "lat": -24.17791,
            "school_name": "Sophoniachuene Primary",
            "country_name": "South Africa",
            "connectivity": false
        },
        {
            "lon": 30.03269,
            "lat": -22.33095,
            "school_name": "Bonwa Udi Primary School",
            "country_name": "South Africa",
            "connectivity": false
        },
        {
            "lon": 19.88901,
            "lat": -33.79961,
            "school_name": "Mcgregor Waldorf School",
            "country_name": "South Africa",
            "connectivity": false
        },
        {
            "lon": 29.29721,
            "lat": -23.74234,
            "school_name": "Boetse Secondary School",
            "country_name": "South Africa",
            "connectivity": false
        },
        {
            "lon": 30.01418,
            "lat": -29.2197,
            "school_name": "Eminyezaneni Secondary School",
            "country_name": "South Africa",
            "connectivity": false
        },
        {
            "lon": 30.06421,
            "lat": -30.63058,
            "school_name": "Ekuzameni Primary School",
            "country_name": "South Africa",
            "connectivity": false
        },
        {
            "lon": 29.69913,
            "lat": -30.06411,
            "school_name": "Mkhazeni Primary School",
            "country_name": "South Africa",
            "connectivity": false
        },
        {
            "lon": 30.83606,
            "lat": -29.79378,
            "school_name": "Kloof Pre Primary School",
            "country_name": "South Africa",
            "connectivity": false
        },
        {
            "lon": 32.73234,
            "lat": -27.07358,
            "school_name": "Nsukumbili Primary School",
            "country_name": "South Africa",
            "connectivity": false
        },
        {
            "lon": 31.63068,
            "lat": -28.22371,
            "school_name": "Mhawukelwa Primary School",
            "country_name": "South Africa",
            "connectivity": false
        },
        {
            "lon": 33.0981,
            "lat": 0.37302,
            "school_name": "Kidusu Muslim P/S",
            "country_name": "Uganda",
            "connectivity": false
        },
        {
            "lon": 28.03442,
            "lat": -26.18488,
            "school_name": "Parktown Boys' High School",
            "country_name": "South Africa",
            "connectivity": false
        },
        {
            "lon": 27.94211,
            "lat": -26.23944,
            "school_name": "Seipateng Primary School",
            "country_name": "South Africa",
            "connectivity": false
        },
        {
            "lon": 28.392,
            "lat": -26.30455,
            "school_name": "Zamani Primary School",
            "country_name": "South Africa",
            "connectivity": false
        },
        {
            "lon": 27.70193,
            "lat": -31.7916,
            "school_name": "Mbaxa Combined School",
            "country_name": "South Africa",
            "connectivity": false
        },
        {
            "lon": 28.2196,
            "lat": -25.9923,
            "school_name": "Entshonalanga Primary School",
            "country_name": "South Africa",
            "connectivity": false
        },
        {
            "lon": 28.23181,
            "lat": -25.74506,
            "school_name": "Emendy Sound & Music College",
            "country_name": "South Africa",
            "connectivity": false
        },
        {
            "lon": 27.92047,
            "lat": -26.12039,
            "school_name": "Allen Glen High School",
            "country_name": "South Africa",
            "connectivity": false
        },
        {
            "lon": 28.71067,
            "lat": -30.46598,
            "school_name": "Mputekane Combined School",
            "country_name": "South Africa",
            "connectivity": false
        },
        {
            "lon": 29.67533,
            "lat": -30.98063,
            "school_name": "Lucwaba Junior Secondary School",
            "country_name": "South Africa",
            "connectivity": false
        },
        {
            "lon": 26.02143,
            "lat": -31.83252,
            "school_name": "Waayplaatz Primary School",
            "country_name": "South Africa",
            "connectivity": false
        },
        {
            "lon": 28.60494,
            "lat": -31.60473,
            "school_name": "Jongingwe Senior Primary School",
            "country_name": "South Africa",
            "connectivity": false
        },
        {
            "lon": -58.61914755,
            "lat": -34.64715612,
            "school_name": "ESCUELA PRIMARIA N\u00ba3 JUAN BAUTISTA ALBERDI",
            "country_name": "Argentina",
            "connectivity": false
        },
        {
            "lon": -61.4911335,
            "lat": -36.8810737,
            "school_name": "JARDIN DE INFANTES N\u00ba904",
            "country_name": "Argentina",
            "connectivity": false
        },
        {
            "lon": -59.14727334,
            "lat": -35.10659963,
            "school_name": "ANEXO A MEDIA AGRARIA N\u00ba1",
            "country_name": "Argentina",
            "connectivity": false
        },
        {
            "lon": -59.3298102,
            "lat": -35.4300916,
            "school_name": "ESCUELA PRIMARIA N\u00ba21 JUSTO JOSE DE URQUIZA",
            "country_name": "Argentina",
            "connectivity": false
        },
        {
            "lon": -60.58498391,
            "lat": -33.89683627,
            "school_name": "ESCUELA PRIMARIA N\u00ba17 HIPOLITO YRIGOYEN",
            "country_name": "Argentina",
            "connectivity": false
        },
        {
            "lon": -58.71690062,
            "lat": -34.71815294,
            "school_name": "ESCUELA PRIMARIA N\u00ba55 PROVINCIA DE RIO NEGRO",
            "country_name": "Argentina",
            "connectivity": false
        },
        {
            "lon": -58.56459125,
            "lat": -34.69868827,
            "school_name": "JORGE LUIS BORGES",
            "country_name": "Argentina",
            "connectivity": false
        },
        {
            "lon": -62.22020708,
            "lat": -38.69815337,
            "school_name": "ESCUELA PRIMARIA N\u00ba69 CAMPA\u00d1A AL DESIERTO",
            "country_name": "Argentina",
            "connectivity": false
        },
        {
            "lon": -58.58617542,
            "lat": -34.44219636,
            "school_name": "ESCUELA PRIMARIA N\u00ba25 PAULA ALBARRACIN",
            "country_name": "Argentina",
            "connectivity": false
        },
        {
            "lon": -60.94023644,
            "lat": -34.59457124,
            "school_name": "ESCUELA PRIMARIA N\u00ba24 JUSTO JOSE DE URQUIZA",
            "country_name": "Argentina",
            "connectivity": false
        },
        {
            "lon": -58.3645527,
            "lat": -34.66232443,
            "school_name": "ESCUELA PRIMARIA N\u00ba1 NICOLAS AVELLANEDA",
            "country_name": "Argentina",
            "connectivity": false
        },
        {
            "lon": -61.17437508,
            "lat": -33.04362724,
            "school_name": "JARDIN DE INFANTES NRO 6 GABRIELA MISTRAL",
            "country_name": "Argentina",
            "connectivity": false
        },
        {
            "lon": -58.6205769,
            "lat": -34.78154959,
            "school_name": "CENTRO DE ALFABETIZACION N\u00ba74",
            "country_name": "Argentina",
            "connectivity": false
        },
        {
            "lon": -58.24575927,
            "lat": -37.84670683,
            "school_name": "ESC. SECUNDARIA BASICA N\u00ba6",
            "country_name": "Argentina",
            "connectivity": false
        },
        {
            "lon": -58.50855724,
            "lat": -34.46877982,
            "school_name": "JARDIN DE INFANTES NUESTRA SE\u00d1ORA DE LA UNIDAD",
            "country_name": "Argentina",
            "connectivity": false
        },
        {
            "lon": -61.69925043,
            "lat": -27.4992631,
            "school_name": "PRIM.ADULTOS N\u00ba 20-MANUEL BELGRANO",
            "country_name": "Argentina",
            "connectivity": false
        },
        {
            "lon": -58.4077958,
            "lat": -34.60375703,
            "school_name": "INST. BETH RAJEL",
            "country_name": "Argentina",
            "connectivity": false
        },
        {
            "lon": -64.1643069,
            "lat": -31.38147124,
            "school_name": "COLEGIO PARROQUIAL LETTY STUCCHI BAUDON",
            "country_name": "Argentina",
            "connectivity": false
        },
        {
            "lon": -57.50589002,
            "lat": -29.29867,
            "school_name": "ESCUELA PRIMARIA N\u00ba 281 SOFIA CHALUB",
            "country_name": "Argentina",
            "connectivity": false
        },
        {
            "lon": -65.39005281,
            "lat": -23.5774141,
            "school_name": "ESCUELA NORMAL SUPERIOR DR EDUARDO CASANOVA",
            "country_name": "Argentina",
            "connectivity": false
        },
        {
            "lon": -65.30620451,
            "lat": -24.18681243,
            "school_name": "JARDIN DE INFANTES MIRANDA Y MIRON",
            "country_name": "Argentina",
            "connectivity": false
        },
        {
            "lon": -66.85459761,
            "lat": -29.42007449,
            "school_name": "ESCUELA ESPECIAL N\u00b0375 SOY FELIZ",
            "country_name": "Argentina",
            "connectivity": false
        },
        {
            "lon": -71.0457411,
            "lat": -38.96990437,
            "school_name": "C.P.E.M. 79",
            "country_name": "Argentina",
            "connectivity": false
        },
        {
            "lon": -67.79447,
            "lat": -39.02491,
            "school_name": "CENTRO DE EDUCACION BASICA PARA ADULTOS NRO. 1",
            "country_name": "Argentina",
            "connectivity": false
        },
        {
            "lon": -62.9962044,
            "lat": -40.8119087,
            "school_name": "CEM RURAL ANEXO 29",
            "country_name": "Argentina",
            "connectivity": false
        },
        {
            "lon": -65.40833958,
            "lat": -24.77735981,
            "school_name": "CENS N\u00ba 7096 EX N\u00b03 -ESCUELA SAN MARTIN-",
            "country_name": "Argentina",
            "connectivity": false
        },
        {
            "lon": -65.4114313,
            "lat": -24.78757257,
            "school_name": "GENERAL MARTIN MIGUEL DE GUEMES EX N\u00b016",
            "country_name": "Argentina",
            "connectivity": false
        },
        {
            "lon": -74.5722,
            "lat": -8.38043,
            "school_name": "398 CORAZON DE JESUS",
            "country_name": "Peru",
            "connectivity": false
        },
        {
            "lon": -61.50557952,
            "lat": -31.27098744,
            "school_name": "ESCUELA NRO 1287 JUAN DOMINGO PERON",
            "country_name": "Argentina",
            "connectivity": false
        },
        {
            "lon": -64.25953096,
            "lat": -27.80012352,
            "school_name": "JARDIN DE INFANTES N\u00ba8 NICOLAS AVELLANEDA",
            "country_name": "Argentina",
            "connectivity": false
        },
        {
            "lon": -63.41838485,
            "lat": -28.98085703,
            "school_name": "ESCUELA N\u00ba734",
            "country_name": "Argentina",
            "connectivity": false
        },
        {
            "lon": -65.08413328,
            "lat": -26.93948983,
            "school_name": "ESCUELA SECUNDARIA DE SAN MIGUELITO",
            "country_name": "Argentina",
            "connectivity": false
        },
        {
            "lon": 5.673745,
            "lat": 5.880641,
            "school_name": "Name unknown",
            "country_name": "Nigeria",
            "connectivity": false
        },
        {
            "lon": 5.775691807,
            "lat": 5.548066732,
            "school_name": "Name unknown",
            "country_name": "Nigeria",
            "connectivity": false
        },
        {
            "lon": 7.377856667,
            "lat": 5.958953333,
            "school_name": "Name unknown",
            "country_name": "Nigeria",
            "connectivity": false
        },
        {
            "lon": 7.389318,
            "lat": 5.468194,
            "school_name": "Name unknown",
            "country_name": "Nigeria",
            "connectivity": false
        },
        {
            "lon": 8.10744,
            "lat": 6.314016667,
            "school_name": "Name unknown",
            "country_name": "Nigeria",
            "connectivity": false
        },
        {
            "lon": 7.832426667,
            "lat": 5.798431667,
            "school_name": "Name unknown",
            "country_name": "Nigeria",
            "connectivity": false
        },
        {
            "lon": 14.59926823,
            "lat": 12.19229174,
            "school_name": "Name unknown",
            "country_name": "Nigeria",
            "connectivity": false
        },
        {
            "lon": 6.234612,
            "lat": 6.478876,
            "school_name": "Name unknown",
            "country_name": "Nigeria",
            "connectivity": false
        },
        {
            "lon": 5.209849,
            "lat": 6.636628,
            "school_name": "Name unknown",
            "country_name": "Nigeria",
            "connectivity": false
        },
        {
            "lon": 5.718658333,
            "lat": 7.741795,
            "school_name": "Name unknown",
            "country_name": "Nigeria",
            "connectivity": false
        },
        {
            "lon": 4.923465,
            "lat": 7.824269,
            "school_name": "Name unknown",
            "country_name": "Nigeria",
            "connectivity": false
        },
        {
            "lon": 5.52445,
            "lat": 7.580085,
            "school_name": "Name unknown",
            "country_name": "Nigeria",
            "connectivity": false
        },
        {
            "lon": 7.363825,
            "lat": 6.736867,
            "school_name": "Name unknown",
            "country_name": "Nigeria",
            "connectivity": false
        },
        {
            "lon": 7.363248,
            "lat": 9.276935,
            "school_name": "Name unknown",
            "country_name": "Nigeria",
            "connectivity": false
        },
        {
            "lon": 6.83991,
            "lat": 8.711144,
            "school_name": "Name unknown",
            "country_name": "Nigeria",
            "connectivity": false
        },
        {
            "lon": 7.33283,
            "lat": 8.945728,
            "school_name": "Name unknown",
            "country_name": "Nigeria",
            "connectivity": false
        },
        {
            "lon": 11.156204,
            "lat": 10.272047,
            "school_name": "Name unknown",
            "country_name": "Nigeria",
            "connectivity": false
        },
        {
            "lon": 10.77618833,
            "lat": 10.55059333,
            "school_name": "Name unknown",
            "country_name": "Nigeria",
            "connectivity": false
        },
        {
            "lon": 7.10091,
            "lat": 5.759642,
            "school_name": "Name unknown",
            "country_name": "Nigeria",
            "connectivity": false
        },
        {
            "lon": -77.0499,
            "lat": -11.9999,
            "school_name": "0007 EL ERMITA\u00d1O",
            "country_name": "Peru",
            "connectivity": false
        },
        {
            "lon": -76.6222,
            "lat": -8.14661,
            "school_name": "38",
            "country_name": "Peru",
            "connectivity": false
        },
        {
            "lon": -77.3098,
            "lat": -5.93989,
            "school_name": "614",
            "country_name": "Peru",
            "connectivity": false
        },
        {
            "lon": -76.8082,
            "lat": -6.89567,
            "school_name": "0178 MERCEDES CH. CARDENAS",
            "country_name": "Peru",
            "connectivity": false
        },
        {
            "lon": -76.6067,
            "lat": -6.3582,
            "school_name": "0386 BILINGUE",
            "country_name": "Peru",
            "connectivity": false
        },
        {
            "lon": -80.4339,
            "lat": -3.6274,
            "school_name": "052 ISMAEL LUEY PE\u00d1A",
            "country_name": "Peru",
            "connectivity": false
        },
        {
            "lon": -76.9979,
            "lat": -12.0426,
            "school_name": "084 COQUITO",
            "country_name": "Peru",
            "connectivity": false
        },
        {
            "lon": -75.2295,
            "lat": -12.1587,
            "school_name": "1102",
            "country_name": "Peru",
            "connectivity": false
        },
        {
            "lon": -79.4345,
            "lat": -6.2596,
            "school_name": "11272",
            "country_name": "Peru",
            "connectivity": false
        },
        {
            "lon": -73.3655,
            "lat": -13.6559,
            "school_name": "1131",
            "country_name": "Peru",
            "connectivity": false
        },
        {
            "lon": -75.9203,
            "lat": -6.15267,
            "school_name": "1139",
            "country_name": "Peru",
            "connectivity": false
        },
        {
            "lon": -71.2961,
            "lat": -13.6924,
            "school_name": "1374",
            "country_name": "Peru",
            "connectivity": false
        },
        {
            "lon": -80.6498,
            "lat": -5.24413,
            "school_name": "14031",
            "country_name": "Peru",
            "connectivity": false
        },
        {
            "lon": -80.0901,
            "lat": -5.21668,
            "school_name": "14643 SANTA ROSA DE LIMA",
            "country_name": "Peru",
            "connectivity": false
        },
        {
            "lon": -79.8931,
            "lat": -4.61795,
            "school_name": "15184",
            "country_name": "Peru",
            "connectivity": false
        },
        {
            "lon": -70.5317,
            "lat": -14.7486,
            "school_name": "1522",
            "country_name": "Peru",
            "connectivity": false
        },
        {
            "lon": -78.4942,
            "lat": -5.97862,
            "school_name": "16653",
            "country_name": "Peru",
            "connectivity": false
        },
        {
            "lon": -79.0687,
            "lat": -5.00073,
            "school_name": "17361",
            "country_name": "Peru",
            "connectivity": false
        },
        {
            "lon": -79.3924,
            "lat": -5.5498,
            "school_name": "17439",
            "country_name": "Peru",
            "connectivity": false
        },
        {
            "lon": -76.8161,
            "lat": -12.0094,
            "school_name": "193",
            "country_name": "Peru",
            "connectivity": false
        },
        {
            "lon": -72.6728,
            "lat": -12.9017,
            "school_name": "220 SANTA ROSA DE LIMA",
            "country_name": "Peru",
            "connectivity": false
        },
        {
            "lon": -75.6622,
            "lat": -13.3272,
            "school_name": "22134",
            "country_name": "Peru",
            "connectivity": false
        },
        {
            "lon": -73.8957,
            "lat": -11.9154,
            "school_name": "2217",
            "country_name": "Peru",
            "connectivity": false
        },
        {
            "lon": -73.8863,
            "lat": -11.8644,
            "school_name": "2406",
            "country_name": "Peru",
            "connectivity": false
        },
        {
            "lon": -72.1358,
            "lat": -12.8466,
            "school_name": "272",
            "country_name": "Peru",
            "connectivity": false
        },
        {
            "lon": -75.7214,
            "lat": -11.4193,
            "school_name": "30778",
            "country_name": "Peru",
            "connectivity": false
        },
        {
            "lon": -75.685,
            "lat": -11.4002,
            "school_name": "30785",
            "country_name": "Peru",
            "connectivity": false
        },
        {
            "lon": -73.1726,
            "lat": -13.632,
            "school_name": "325 INCA GARCILASO DE LA VEGA",
            "country_name": "Peru",
            "connectivity": false
        },
        {
            "lon": -74.9013,
            "lat": -12.6129,
            "school_name": "326 LAS CHAPOSITAS",
            "country_name": "Peru",
            "connectivity": false
        },
        {
            "lon": -76.9286,
            "lat": -9.43866,
            "school_name": "32869",
            "country_name": "Peru",
            "connectivity": false
        },
        {
            "lon": -74.5314,
            "lat": -12.5342,
            "school_name": "329 LOS ZORRITOS",
            "country_name": "Peru",
            "connectivity": false
        },
        {
            "lon": -76.0749,
            "lat": -10.7645,
            "school_name": "34409 SAN PEDRO DE HUAY",
            "country_name": "Peru",
            "connectivity": false
        },
        {
            "lon": -74.8999,
            "lat": -12.2936,
            "school_name": "36666",
            "country_name": "Peru",
            "connectivity": false
        },
        {
            "lon": -74.7091,
            "lat": -12.3764,
            "school_name": "36668",
            "country_name": "Peru",
            "connectivity": false
        },
        {
            "lon": -74.2542,
            "lat": -12.9294,
            "school_name": "38392",
            "country_name": "Peru",
            "connectivity": false
        },
        {
            "lon": -74.6776,
            "lat": -13.3705,
            "school_name": "38986-4 SANTA FE- PARAS",
            "country_name": "Peru",
            "connectivity": false
        },
        {
            "lon": -73.9505,
            "lat": -12.4726,
            "school_name": "38990-15",
            "country_name": "Peru",
            "connectivity": false
        },
        {
            "lon": 33.79411729,
            "lat": -13.52039416,
            "school_name": "Mtandawagalu Primary School",
            "country_name": "Malawi",
            "connectivity": false
        },
        {
            "lon": -72.7119,
            "lat": -16.6232,
            "school_name": "41040 JOSE CARLOS MARIATEGUI",
            "country_name": "Peru",
            "connectivity": false
        },
        {
            "lon": -75.4725,
            "lat": -11.7304,
            "school_name": "422 BARCIA BONIFFATTI",
            "country_name": "Peru",
            "connectivity": false
        },
        {
            "lon": -73.9053,
            "lat": -13.0261,
            "school_name": "425-124",
            "country_name": "Peru",
            "connectivity": false
        },
        {
            "lon": -75.1265,
            "lat": -12.2002,
            "school_name": "496",
            "country_name": "Peru",
            "connectivity": false
        },
        {
            "lon": -77.0953,
            "lat": -12.0507,
            "school_name": "5049 EMMA DETTMANN DE GUTIERREZ",
            "country_name": "Peru",
            "connectivity": false
        },
        {
            "lon": -71.9773,
            "lat": -13.5234,
            "school_name": "51003 ROSARIO",
            "country_name": "Peru",
            "connectivity": false
        },
        {
            "lon": -78.0507,
            "lat": -9.32746,
            "school_name": "527",
            "country_name": "Peru",
            "connectivity": false
        },
        {
            "lon": -73.1176,
            "lat": -13.9996,
            "school_name": "54353",
            "country_name": "Peru",
            "connectivity": false
        },
        {
            "lon": -72.7877,
            "lat": -13.5718,
            "school_name": "54606",
            "country_name": "Peru",
            "connectivity": false
        },
        {
            "lon": -78.846,
            "lat": -6.16623,
            "school_name": "552",
            "country_name": "Peru",
            "connectivity": false
        },
        {
            "lon": -72.2503,
            "lat": -3.57846,
            "school_name": "60066 VIRGEN DE LOURDES",
            "country_name": "Peru",
            "connectivity": false
        },
        {
            "lon": -74.0255,
            "lat": -4.99634,
            "school_name": "60648",
            "country_name": "Peru",
            "connectivity": false
        },
        {
            "lon": -77.2307,
            "lat": -5.10668,
            "school_name": "62145",
            "country_name": "Peru",
            "connectivity": false
        },
        {
            "lon": -77.4739,
            "lat": -4.55482,
            "school_name": "62167",
            "country_name": "Peru",
            "connectivity": false
        },
        {
            "lon": -75.6473,
            "lat": -5.03812,
            "school_name": "62594",
            "country_name": "Peru",
            "connectivity": false
        },
        {
            "lon": -70.5396,
            "lat": -15.6402,
            "school_name": "70697",
            "country_name": "Peru",
            "connectivity": false
        },
        {
            "lon": -70.5872,
            "lat": -14.8844,
            "school_name": "71012",
            "country_name": "Peru",
            "connectivity": false
        },
        {
            "lon": -79.0213,
            "lat": -8.10104,
            "school_name": "80010 RICARDO PALMA",
            "country_name": "Peru",
            "connectivity": false
        },
        {
            "lon": -78.7813,
            "lat": -7.08389,
            "school_name": "821015",
            "country_name": "Peru",
            "connectivity": false
        },
        {
            "lon": -77.7429,
            "lat": -9.15033,
            "school_name": "86648 SANTO DOMINGO DE GUZMAN",
            "country_name": "Peru",
            "connectivity": false
        },
        {
            "lon": -74.514,
            "lat": -13.0561,
            "school_name": "883",
            "country_name": "Peru",
            "connectivity": false
        },
        {
            "lon": -78.5841,
            "lat": -6.25745,
            "school_name": "959",
            "country_name": "Peru",
            "connectivity": false
        },
        {
            "lon": -69.4552,
            "lat": -16.2146,
            "school_name": "ALTO ASUNCION",
            "country_name": "Peru",
            "connectivity": false
        },
        {
            "lon": 3.17575,
            "lat": 6.50366,
            "school_name": "Name unknown",
            "country_name": "Nigeria",
            "connectivity": false
        },
        {
            "lon": -76.8343,
            "lat": -12.0076,
            "school_name": "BOSTON HIGH SCHOOL",
            "country_name": "Peru",
            "connectivity": false
        },
        {
            "lon": -75.2704,
            "lat": -10.7497,
            "school_name": "BURBUJITAS DE AMOR",
            "country_name": "Peru",
            "connectivity": false
        },
        {
            "lon": -77.0299,
            "lat": -12.2014,
            "school_name": "CANTEMOS A LUPITA",
            "country_name": "Peru",
            "connectivity": false
        },
        {
            "lon": -70.0059,
            "lat": -15.2979,
            "school_name": "CCORPA",
            "country_name": "Peru",
            "connectivity": false
        },
        {
            "lon": -74.8775,
            "lat": -10.9265,
            "school_name": "CEBA - MANUEL GONZALES PRADA",
            "country_name": "Peru",
            "connectivity": false
        },
        {
            "lon": -77.0175,
            "lat": -12.0689,
            "school_name": "CEBA - SAN JOSE Y EL REDENTOR",
            "country_name": "Peru",
            "connectivity": false
        },
        {
            "lon": -71.8977,
            "lat": -13.5422,
            "school_name": "CEBA - SAN MARTIN DE PORRES",
            "country_name": "Peru",
            "connectivity": false
        },
        {
            "lon": -77.7791,
            "lat": -10.6978,
            "school_name": "CHANANA",
            "country_name": "Peru",
            "connectivity": false
        },
        {
            "lon": -71.5298,
            "lat": -16.3972,
            "school_name": "CHAVES SCHOOL",
            "country_name": "Peru",
            "connectivity": false
        },
        {
            "lon": -69.9495,
            "lat": -15.0855,
            "school_name": "CHIJURAYA",
            "country_name": "Peru",
            "connectivity": false
        },
        {
            "lon": -80.7177,
            "lat": -4.86914,
            "school_name": "CRAYOLITAS",
            "country_name": "Peru",
            "connectivity": false
        },
        {
            "lon": -75.2549,
            "lat": -10.7961,
            "school_name": "CRISTO REDENTOR",
            "country_name": "Peru",
            "connectivity": false
        },
        {
            "lon": -79.6301,
            "lat": -4.93194,
            "school_name": "CRISTO REY",
            "country_name": "Peru",
            "connectivity": false
        },
        {
            "lon": -76.1335,
            "lat": -13.404,
            "school_name": "DOS DE MAYO",
            "country_name": "Peru",
            "connectivity": false
        },
        {
            "lon": -75.2464,
            "lat": -12.0465,
            "school_name": "ESCUELA DE EDUCACION SUPERIOR TECNICO PROFESIONAL PNP HUANCAYO",
            "country_name": "Peru",
            "connectivity": false
        },
        {
            "lon": -80.7263,
            "lat": -5.31641,
            "school_name": "ESTRELLITAS DE DORALINAS",
            "country_name": "Peru",
            "connectivity": false
        },
        {
            "lon": 8.156658333,
            "lat": 6.471123333,
            "school_name": "Name unknown",
            "country_name": "Nigeria",
            "connectivity": false
        },
        {
            "lon": -77.5947,
            "lat": -11.0644,
            "school_name": "GOTITAS DEL FUTURO",
            "country_name": "Peru",
            "connectivity": false
        },
        {
            "lon": -80.639,
            "lat": -5.191,
            "school_name": "GOURMET DU NORD",
            "country_name": "Peru",
            "connectivity": false
        },
        {
            "lon": -75.5449,
            "lat": -11.7279,
            "school_name": "INCA GARCILASO",
            "country_name": "Peru",
            "connectivity": false
        },
        {
            "lon": -77.088,
            "lat": -11.978,
            "school_name": "JUAN PABLO PEREGRINO DE LA PAZ",
            "country_name": "Peru",
            "connectivity": false
        },
        {
            "lon": -71.8718,
            "lat": -16.6969,
            "school_name": "LA CASA DE DIOS",
            "country_name": "Peru",
            "connectivity": false
        },
        {
            "lon": -70.2345,
            "lat": -18.003,
            "school_name": "MARISTA DE TACNA",
            "country_name": "Peru",
            "connectivity": false
        },
        {
            "lon": -76.9828,
            "lat": -12.0109,
            "school_name": "MARTIN ESQUICHA BERNEDO",
            "country_name": "Peru",
            "connectivity": false
        },
        {
            "lon": -74.264,
            "lat": -8.53363,
            "school_name": "MI MUNDO MARAVILLOSO -04",
            "country_name": "Peru",
            "connectivity": false
        },
        {
            "lon": -71.6047,
            "lat": -13.9469,
            "school_name": "PICAFLORCITOS",
            "country_name": "Peru",
            "connectivity": false
        },
        {
            "lon": -73.2487,
            "lat": -3.74878,
            "school_name": "REMANENTE DE DIOS",
            "country_name": "Peru",
            "connectivity": false
        },
        {
            "lon": -71.8859,
            "lat": -16.686,
            "school_name": "SAN CAMILO A-6",
            "country_name": "Peru",
            "connectivity": false
        },
        {
            "lon": -74.2257,
            "lat": -13.1499,
            "school_name": "SAN ISIDRO",
            "country_name": "Peru",
            "connectivity": false
        },
        {
            "lon": -69.7699,
            "lat": -15.9757,
            "school_name": "SILLUYAMAYA",
            "country_name": "Peru",
            "connectivity": false
        },
        {
            "lon": -75.2168,
            "lat": -12.1063,
            "school_name": "SILOE",
            "country_name": "Peru",
            "connectivity": false
        },
        {
            "lon": 7.52996577,
            "lat": 10.42983634,
            "school_name": "Name unknown",
            "country_name": "Nigeria",
            "connectivity": false
        },
        {
            "lon": 7.467215257,
            "lat": 11.25796656,
            "school_name": "Name unknown",
            "country_name": "Nigeria",
            "connectivity": false
        },
        {
            "lon": 12.286939,
            "lat": 9.449365,
            "school_name": "Name unknown",
            "country_name": "Nigeria",
            "connectivity": false
        },
        {
            "lon": 8.799417,
            "lat": 11.98835,
            "school_name": "Name unknown",
            "country_name": "Nigeria",
            "connectivity": false
        },
        {
            "lon": 8.842666,
            "lat": 11.72424,
            "school_name": "Name unknown",
            "country_name": "Nigeria",
            "connectivity": false
        },
        {
            "lon": 8.610631,
            "lat": 11.64651,
            "school_name": "Name unknown",
            "country_name": "Nigeria",
            "connectivity": false
        },
        {
            "lon": 8.440858,
            "lat": 11.86147,
            "school_name": "Name unknown",
            "country_name": "Nigeria",
            "connectivity": false
        },
        {
            "lon": 7.225293,
            "lat": 7.617122,
            "school_name": "Name unknown",
            "country_name": "Nigeria",
            "connectivity": false
        },
        {
            "lon": 6.836088,
            "lat": 7.21858,
            "school_name": "Name unknown",
            "country_name": "Nigeria",
            "connectivity": false
        },
        {
            "lon": 7.524389,
            "lat": 7.125284,
            "school_name": "Name unknown",
            "country_name": "Nigeria",
            "connectivity": false
        },
        {
            "lon": 4.892558,
            "lat": 8.835155,
            "school_name": "Name unknown",
            "country_name": "Nigeria",
            "connectivity": false
        },
        {
            "lon": 4.513419,
            "lat": 8.495828,
            "school_name": "Name unknown",
            "country_name": "Nigeria",
            "connectivity": false
        },
        {
            "lon": 3.35037,
            "lat": 6.64882,
            "school_name": "Name unknown",
            "country_name": "Nigeria",
            "connectivity": false
        },
        {
            "lon": 3.51886,
            "lat": 6.53847,
            "school_name": "Name unknown",
            "country_name": "Nigeria",
            "connectivity": false
        },
        {
            "lon": 3.327450847,
            "lat": 6.516757572,
            "school_name": "Name unknown",
            "country_name": "Nigeria",
            "connectivity": false
        },
        {
            "lon": 3.334771,
            "lat": 6.558607,
            "school_name": "Name unknown",
            "country_name": "Nigeria",
            "connectivity": false
        },
        {
            "lon": 3.380616,
            "lat": 6.4791,
            "school_name": "Name unknown",
            "country_name": "Nigeria",
            "connectivity": false
        },
        {
            "lon": 6.009061667,
            "lat": 9.072193333,
            "school_name": "Name unknown",
            "country_name": "Nigeria",
            "connectivity": false
        },
        {
            "lon": 5.2442,
            "lat": 10.45104,
            "school_name": "Name unknown",
            "country_name": "Nigeria",
            "connectivity": false
        },
        {
            "lon": 4.702266023,
            "lat": 9.65092533,
            "school_name": "Name unknown",
            "country_name": "Nigeria",
            "connectivity": false
        },
        {
            "lon": 5.19933,
            "lat": 9.76443,
            "school_name": "Name unknown",
            "country_name": "Nigeria",
            "connectivity": false
        },
        {
            "lon": 3.2643102,
            "lat": 6.7311308,
            "school_name": "Name unknown",
            "country_name": "Nigeria",
            "connectivity": false
        },
        {
            "lon": 3.34838,
            "lat": 6.671955,
            "school_name": "Name unknown",
            "country_name": "Nigeria",
            "connectivity": false
        },
        {
            "lon": 3.195556667,
            "lat": 6.809618333,
            "school_name": "Name unknown",
            "country_name": "Nigeria",
            "connectivity": false
        },
        {
            "lon": 3.35683,
            "lat": 6.6635183,
            "school_name": "Name unknown",
            "country_name": "Nigeria",
            "connectivity": false
        },
        {
            "lon": 3.94045571,
            "lat": 6.71807772,
            "school_name": "Name unknown",
            "country_name": "Nigeria",
            "connectivity": false
        },
        {
            "lon": 3.41323,
            "lat": 7.16004,
            "school_name": "Name unknown",
            "country_name": "Nigeria",
            "connectivity": false
        },