{
    "name": "Patchwork Kingdom #881 | Siryallo",
    "description": "The twin kingdoms of Siryallo, separated by a digital divide. A bustling kingdom of 128 schools on top that are all connected to the internet, and 103 schools, not connected, hidden in the upside down kingdom | Created for Giga (GigaConnect.org) \u2014 connecting every school in the world \u2014 in celebration of UNICEF's 75th birthday, by Nadieh Bremer",
    "external_url": "https://dummyURL.com/patchwork_kingdoms_881",
    "image": "https://dummy-storage-url.com/patchwork_kingdoms_881.png",
    "attributes": [
        {
            "trait_type": "Color palette",
            "value": "broomsticks"
        },
        {
            "display_type": "number",
            "trait_type": "Schools",
            "value": 247,
            "max_value": 460
        },
        {
            "display_type": "number",
            "trait_type": "Ratio - Connected",
            "value": 0.52,
            "max_value": 1
        },
        {
            "display_type": "number",
            "trait_type": "Ratio - Unconnected",
            "value": 0.42,
            "max_value": 1
        },
        {
            "display_type": "number",
            "trait_type": "Ratio - Data unavailable",
            "value": 0.06,
            "max_value": 1
        },
        {
            "trait_type": "Countries",
            "value": "BJ-BR-CO-CR-HN-KG-KZ-NA-PH-PS-SL-VC-ZW"
        },
        {
            "display_type": "number",
            "trait_type": "Symbols",
            "value": 46,
            "max_value": 51
        }
    ],
    "cluster_id": 881,
    "num_schools": 247,
    "num_schools_connected": 128,
    "num_schools_unconnected": 103,
    "num_schools_unknown": 16,
    "schools": [
        {
            "lon": -87.25065,
            "lat": 15.62448,
            "school_name": "GREGORIO IRIAS ARIAS",
            "country_name": "Honduras",
            "connectivity": true
        },
        {
            "lon": -87.48967,
            "lat": 15.75776,
            "school_name": "GREVIL AVELAR CHAVEZ",
            "country_name": "Honduras",
            "connectivity": true
        },
        {
            "lon": -87.48815,
            "lat": 15.62971,
            "school_name": "JOSE ENRIQUE OLIVA",
            "country_name": "Honduras",
            "connectivity": true
        },
        {
            "lon": -88.85923,
            "lat": 14.2564,
            "school_name": "MARTIN NAVARRO",
            "country_name": "Honduras",
            "connectivity": true
        },
        {
            "lon": -88.71675,
            "lat": 14.64215,
            "school_name": "LUZ Y VERDAD",
            "country_name": "Honduras",
            "connectivity": true
        },
        {
            "lon": -86.55626,
            "lat": 15.3181,
            "school_name": "J.N.CORAZON FELIZ",
            "country_name": "Honduras",
            "connectivity": true
        },
        {
            "lon": -86.42219,
            "lat": 15.07924,
            "school_name": "ELA PAGOADA",
            "country_name": "Honduras",
            "connectivity": true
        },
        {
            "lon": -86.79603,
            "lat": 13.49159,
            "school_name": "07 DE ABRIL",
            "country_name": "Honduras",
            "connectivity": true
        },
        {
            "lon": -88.38315,
            "lat": 14.96808,
            "school_name": "MARIANO LEIVA",
            "country_name": "Honduras",
            "connectivity": true
        },
        {
            "lon": -46.8092,
            "lat": -22.4484,
            "school_name": "CAETANO MUNHOZ PREFEITO",
            "country_name": "Brazil",
            "connectivity": true
        },
        {
            "lon": -86.40201,
            "lat": 15.46597,
            "school_name": "AUDATO PEREZ",
            "country_name": "Honduras",
            "connectivity": true
        },
        {
            "lon": -48.9709,
            "lat": -16.3023,
            "school_name": "ESCOLA MUNICIPAL PASTOR MIGUEL MOREIRA BRAGA",
            "country_name": "Brazil",
            "connectivity": true
        },
        {
            "lon": -88.91017,
            "lat": 14.89886,
            "school_name": "LA INDEPENDENCIA",
            "country_name": "Honduras",
            "connectivity": true
        },
        {
            "lon": -88.86428,
            "lat": 14.85844,
            "school_name": "MIS PEQUE\u00c3\u2018OS CORAZONES",
            "country_name": "Honduras",
            "connectivity": true
        },
        {
            "lon": -54.6192,
            "lat": -20.5495,
            "school_name": "EM DR PLINIO BARBOSA MARTINS",
            "country_name": "Brazil",
            "connectivity": true
        },
        {
            "lon": -87.35945,
            "lat": 14.14248,
            "school_name": "VICENTE CACERES",
            "country_name": "Honduras",
            "connectivity": true
        },
        {
            "lon": -87.03445,
            "lat": 13.87106,
            "school_name": "JOSE TRINIDAD REYES",
            "country_name": "Honduras",
            "connectivity": true
        },
        {
            "lon": -84.29301,
            "lat": 15.80218,
            "school_name": "EL FARO",
            "country_name": "Honduras",
            "connectivity": true
        },
        {
            "lon": -49.2701,
            "lat": -16.8155,
            "school_name": "ESCOLA MUNICIPAL DE TEMPO INTEGRAL PROFESSORA VINOVITA GUIMARAES DA SILVA",
            "country_name": "Brazil",
            "connectivity": true
        },
        {
            "lon": -40.3023,
            "lat": -20.3328,
            "school_name": "UMEF PROFESSOR ELSON JOSE DE SOUZA",
            "country_name": "Brazil",
            "connectivity": true
        },
        {
            "lon": -53.2414,
            "lat": -27.2491,
            "school_name": "E M E F DR GASPAR SILVEIRA MARTINS",
            "country_name": "Brazil",
            "connectivity": true
        },
        {
            "lon": -38.5979,
            "lat": -3.8795,
            "school_name": "ADAUTO FERREIRA LIMA EMEIEF",
            "country_name": "Brazil",
            "connectivity": true
        },
        {
            "lon": -84.99732303,
            "lat": 10.10215874,
            "school_name": "BRISAS DEL GOLFO",
            "country_name": "Costa Rica",
            "connectivity": true
        },
        {
            "lon": -82.8565457,
            "lat": 8.63349207,
            "school_name": "MIRAMAR",
            "country_name": "Costa Rica",
            "connectivity": true
        },
        {
            "lon": -83.50824878,
            "lat": 9.85692869,
            "school_name": "DORBATA",
            "country_name": "Costa Rica",
            "connectivity": true
        },
        {
            "lon": -51.4537,
            "lat": -27.6793,
            "school_name": "EMEF CONSTANTINO MACHADO PEREIRA",
            "country_name": "Brazil",
            "connectivity": true
        },
        {
            "lon": -49.60203,
            "lat": -15.309451,
            "school_name": "COLEGIO ESTADUAL HELIO VELOSO",
            "country_name": "Brazil",
            "connectivity": true
        },
        {
            "lon": 31.16442,
            "lat": -19.61299,
            "school_name": "GONA",
            "country_name": "Zimbabwe",
            "connectivity": true
        },
        {
            "lon": 30.64582,
            "lat": -20.24203,
            "school_name": "MHUNGUDZA PRIMARY",
            "country_name": "Zimbabwe",
            "connectivity": true
        },
        {
            "lon": -47.4164,
            "lat": -6.3289,
            "school_name": "ESCOLA ESTADUAL GIRASSOL DE TEMPO INTEGRAL XV DE NOVEMBRO",
            "country_name": "Brazil",
            "connectivity": true
        },
        {
            "lon": -74.11176608,
            "lat": 4.509875238,
            "school_name": "Name unknown",
            "country_name": "Colombia",
            "connectivity": false
        },
        {
            "lon": -74.11751128,
            "lat": 4.723112838,
            "school_name": "Name unknown",
            "country_name": "Colombia",
            "connectivity": false
        },
        {
            "lon": 19.399167,
            "lat": -22.374167,
            "school_name": "Ernst Meyer PS",
            "country_name": "Namibia",
            "connectivity": true
        },
        {
            "lon": 121.0252778,
            "lat": 13.88444444,
            "school_name": "Ping-As Coral ES",
            "country_name": "Philippines",
            "connectivity": true
        },
        {
            "lon": 118.005462,
            "lat": 9.218543,
            "school_name": "Tagbae ES",
            "country_name": "Philippines",
            "connectivity": true
        },
        {
            "lon": 122.971846,
            "lat": 13.793156,
            "school_name": "Alteza ES",
            "country_name": "Philippines",
            "connectivity": true
        },
        {
            "lon": 123.117812,
            "lat": 13.634362,
            "school_name": "San Jose West PS",
            "country_name": "Philippines",
            "connectivity": true
        },
        {
            "lon": 122.881294,
            "lat": 9.819864,
            "school_name": "Mansumbil PS",
            "country_name": "Philippines",
            "connectivity": true
        },
        {
            "lon": 124.972801,
            "lat": 10.467556,
            "school_name": "Cabadbaran PS",
            "country_name": "Philippines",
            "connectivity": true
        },
        {
            "lon": 124.741409,
            "lat": 12.20111445,
            "school_name": "Himalandrog Elementary School",
            "country_name": "Philippines",
            "connectivity": true
        },
        {
            "lon": 124.8308465,
            "lat": 11.23176199,
            "school_name": "Lukay ES",
            "country_name": "Philippines",
            "connectivity": true
        },
        {
            "lon": 125.3038889,
            "lat": 6.289166667,
            "school_name": "Malinis ES",
            "country_name": "Philippines",
            "connectivity": true
        },
        {
            "lon": 126.027939,
            "lat": 9.736142,
            "school_name": "San Miguel ES",
            "country_name": "Philippines",
            "connectivity": true
        },
        {
            "lon": -43.410084,
            "lat": -21.717943,
            "school_name": "EM HENRIQUE JOSE DE SOUZA",
            "country_name": "Brazil",
            "connectivity": true
        },
        {
            "lon": -41.776573,
            "lat": -22.388935,
            "school_name": "EM PROF JOAQUIM LUIZ FREIRE PINHEIRO",
            "country_name": "Brazil",
            "connectivity": true
        },
        {
            "lon": 120.706402,
            "lat": 14.86935399,
            "school_name": "Bebe Matua ES",
            "country_name": "Philippines",
            "connectivity": true
        },
        {
            "lon": -72.87566796,
            "lat": 8.709693128,
            "school_name": "PUERTO PALMAS",
            "country_name": "Colombia",
            "connectivity": true
        },
        {
            "lon": -73.36064422,
            "lat": 4.857521052,
            "school_name": "ESC EL SINAI",
            "country_name": "Colombia",
            "connectivity": true
        },
        {
            "lon": -74.1592602,
            "lat": 8.822669016,
            "school_name": "MORROCOYAL",
            "country_name": "Colombia",
            "connectivity": true
        },
        {
            "lon": -74.748056,
            "lat": 8.113056,
            "school_name": "C. E. R. MADRE DE DIOS",
            "country_name": "Colombia",
            "connectivity": true
        },
        {
            "lon": -75.07751835,
            "lat": 5.94822595,
            "school_name": "C. E. R. LA LORA",
            "country_name": "Colombia",
            "connectivity": true
        },
        {
            "lon": -75.25835853,
            "lat": 2.924877197,
            "school_name": "LA PAZ",
            "country_name": "Colombia",
            "connectivity": true
        },
        {
            "lon": -75.551908,
            "lat": 5.303039,
            "school_name": "ESCUELA RURAL SAN CAYETANO",
            "country_name": "Colombia",
            "connectivity": true
        },
        {
            "lon": -75.59245335,
            "lat": 6.1701533,
            "school_name": "INSTITUCION EDUCATIVA ALEJANDRO VELEZ BARRIENTOS",
            "country_name": "Colombia",
            "connectivity": true
        },
        {
            "lon": -75.853889,
            "lat": 5.617778,
            "school_name": "C. E. R.  DAVID L CROZZIER",
            "country_name": "Colombia",
            "connectivity": true
        },
        {
            "lon": -75.7542,
            "lat": 8.79287,
            "school_name": "GUAYABAL",
            "country_name": "Colombia",
            "connectivity": true
        },
        {
            "lon": -75.97222222,
            "lat": 5.090555556,
            "school_name": "SE BUENOS AIRES",
            "country_name": "Colombia",
            "connectivity": true
        },
        {
            "lon": -76.19025727,
            "lat": 3.25766909,
            "school_name": "MARIA AUXILIADORA",
            "country_name": "Colombia",
            "connectivity": true
        },
        {
            "lon": -76.2,
            "lat": 3.4,
            "school_name": "FRANCISCO ANTONIO ZEA",
            "country_name": "Colombia",
            "connectivity": true
        },
        {
            "lon": -76.292493,
            "lat": 2.975535,
            "school_name": "ESCUELA RURAL BILINGUE EL BERLIN",
            "country_name": "Colombia",
            "connectivity": true
        },
        {
            "lon": -76.25,
            "lat": 4.16,
            "school_name": "ANTONIO JOSE DE SUCRE",
            "country_name": "Colombia",
            "connectivity": true
        },
        {
            "lon": -76.64,
            "lat": 5.22,
            "school_name": "SEDE SALOMON SALAZAR",
            "country_name": "Colombia",
            "connectivity": true
        },
        {
            "lon": -78.96565886,
            "lat": 1.612025181,
            "school_name": "SEDE # 4 BAJO PUSBI",
            "country_name": "Colombia",
            "connectivity": true
        },
        {
            "lon": -78.44556238,
            "lat": 1.632798507,
            "school_name": "SEDE # 8 SALISBI",
            "country_name": "Colombia",
            "connectivity": true
        },
        {
            "lon": -72.6595,
            "lat": -7.6197,
            "school_name": "ESC PADRE DAMIAO",
            "country_name": "Brazil",
            "connectivity": true
        },
        {
            "lon": -50.3264,
            "lat": -1.7799,
            "school_name": "E M E F SAO DOMINGOS - FURO DO ABACATE",
            "country_name": "Brazil",
            "connectivity": false
        },
        {
            "lon": -47.2391,
            "lat": -1.777,
            "school_name": "E M E F RUI BARBOSA",
            "country_name": "Brazil",
            "connectivity": false
        },
        {
            "lon": -52.7918,
            "lat": -27.7872,
            "school_name": "EMEF PROFESSORA ALDERI FACCHI",
            "country_name": "Brazil",
            "connectivity": true
        },
        {
            "lon": -48.3194,
            "lat": -4.7267,
            "school_name": "E M E F DEUS TE AMA",
            "country_name": "Brazil",
            "connectivity": false
        },
        {
            "lon": -46.8184,
            "lat": -11.6274,
            "school_name": "ESCOLA MUNICIPAL BATISTA BLONNYE HOLMES FOREMAN",
            "country_name": "Brazil",
            "connectivity": true
        },
        {
            "lon": -43.357,
            "lat": -3.7491,
            "school_name": "UI ISAIAS FORTES DE MENESES",
            "country_name": "Brazil",
            "connectivity": true
        },
        {
            "lon": -44.7403,
            "lat": -3.9219,
            "school_name": "UE BOA VISTA",
            "country_name": "Brazil",
            "connectivity": true
        },
        {
            "lon": -44.2717,
            "lat": -5.0249,
            "school_name": "UE ALDENORA BELLO",
            "country_name": "Brazil",
            "connectivity": true
        },
        {
            "lon": -54.9072,
            "lat": -28.449,
            "school_name": "NUCL E EJA E CP JORGE VICENTE PACHECO PRESIDIO",
            "country_name": "Brazil",
            "connectivity": true
        },
        {
            "lon": -45.0153,
            "lat": -1.6273,
            "school_name": "UI PROFESSORA NAZARE CAVALCANTE",
            "country_name": "Brazil",
            "connectivity": true
        },
        {
            "lon": -43.9387,
            "lat": -4.2566,
            "school_name": "CEF LAURO PEREIRA",
            "country_name": "Brazil",
            "connectivity": true
        },
        {
            "lon": -42.7271,
            "lat": -3.9255,
            "school_name": "UNID ESC NILO SOARES DO REGO",
            "country_name": "Brazil",
            "connectivity": false
        },
        {
            "lon": -42.7474,
            "lat": -4.9664,
            "school_name": "ESCOLA MUNICIPAL BAIXAO DO CARLOS",
            "country_name": "Brazil",
            "connectivity": false
        },
        {
            "lon": -41.8527,
            "lat": -5.8241,
            "school_name": "ESCOLA MUNICIPAL RURAL ANTONIO TOME SOARES DE CARVALHO",
            "country_name": "Brazil",
            "connectivity": true
        },
        {
            "lon": -41.4737,
            "lat": -7.0946,
            "school_name": "UNID ESC TIMOTEO BORGES AGUIAR",
            "country_name": "Brazil",
            "connectivity": false
        },
        {
            "lon": -42.7113,
            "lat": -6.5651,
            "school_name": "ESCOLA MUL FRANCISCO ALEXANDRE",
            "country_name": "Brazil",
            "connectivity": false
        },
        {
            "lon": -38.4702,
            "lat": -3.8606,
            "school_name": "VALDEMAR PEREIRA DE QUEIROZ CRECHE",
            "country_name": "Brazil",
            "connectivity": true
        },
        {
            "lon": -38.2417,
            "lat": -5.1347,
            "school_name": "ANA NOGUEIRA MAIA",
            "country_name": "Brazil",
            "connectivity": false
        },
        {
            "lon": -41.0018,
            "lat": -3.7432,
            "school_name": "FREI FONTANELA EEIF",
            "country_name": "Brazil",
            "connectivity": true
        },
        {
            "lon": -37.6559,
            "lat": -5.5398,
            "school_name": "UNIDADE ESCOLAR III JOSE GURGEL GUERRA",
            "country_name": "Brazil",
            "connectivity": false
        },
        {
            "lon": -42.8186,
            "lat": -5.0775,
            "school_name": "U E DOM SEVERINO",
            "country_name": "Brazil",
            "connectivity": true
        },
        {
            "lon": -35.486,
            "lat": -8.0142,
            "school_name": "ESCOLINHA RECANTO INOCENTE",
            "country_name": "Brazil",
            "connectivity": false
        },
        {
            "lon": -45.948,
            "lat": -12.7642,
            "school_name": "ESCOLA MUNICIPAL WALDECK ORNELAS",
            "country_name": "Brazil",
            "connectivity": false
        },
        {
            "lon": -39.8247,
            "lat": -13.8624,
            "school_name": "ESCOLA MUNICIPAL HILDENFOR DOS REIS RODRIGUES",
            "country_name": "Brazil",
            "connectivity": true
        },
        {
            "lon": -46.586,
            "lat": -23.4923,
            "school_name": "SEBASTIAO DE SOUZA BUENO PROF",
            "country_name": "Brazil",
            "connectivity": true
        },
        {
            "lon": -39.0688,
            "lat": -13.3808,
            "school_name": "CRECHE CASINHA FELIZ",
            "country_name": "Brazil",
            "connectivity": true
        },
        {
            "lon": -39.4856,
            "lat": -9.8385,
            "school_name": "ESCOLA MUNICIPAL RECANTO DA CRIANCA",
            "country_name": "Brazil",
            "connectivity": true
        },
        {
            "lon": -35.0934,
            "lat": -7.786,
            "school_name": "ESCOLA MUNICIPAL HILDEBRANDO CARNEIRO DE SOUZA",
            "country_name": "Brazil",
            "connectivity": true
        },
        {
            "lon": -42.4337,
            "lat": -9.9658,
            "school_name": "ESCOLA MUNICIPAL MIGUEL LOPES DOS SANTOS",
            "country_name": "Brazil",
            "connectivity": false
        },
        {
            "lon": -42.2254,
            "lat": -20.4501,
            "school_name": "EM SAO PAULO",
            "country_name": "Brazil",
            "connectivity": false
        },
        {
            "lon": -44.9124,
            "lat": -21.141,
            "school_name": "EM DE MACAIA",
            "country_name": "Brazil",
            "connectivity": true
        },
        {
            "lon": -44.4386,
            "lat": -18.773,
            "school_name": "EE IRMA CLARENTINA",
            "country_name": "Brazil",
            "connectivity": true
        },
        {
            "lon": -50.1972,
            "lat": -19.7323,
            "school_name": "EE NOSSA SENHORA DE LOURDES",
            "country_name": "Brazil",
            "connectivity": true
        },
        {
            "lon": -36.7579,
            "lat": -9.6538,
            "school_name": "ESCOLA MUNICIPAL DELMIRO SOARES DA SILVA",
            "country_name": "Brazil",
            "connectivity": true
        },
        {
            "lon": -47.6654,
            "lat": -22.7548,
            "school_name": "JETHRO VAZ DE TOLEDO PROFESSOR",
            "country_name": "Brazil",
            "connectivity": true
        },
        {
            "lon": -51.5494,
            "lat": -24.0411,
            "school_name": "JOSE FERREIRA DINIZ E E C EF",
            "country_name": "Brazil",
            "connectivity": true
        },
        {
            "lon": -42.2424,
            "lat": -20.4109,
            "school_name": "EM AGROPEC MAJOLO COSTA MACHADO",
            "country_name": "Brazil",
            "connectivity": true
        },
        {
            "lon": -50.2633,
            "lat": -25.0451,
            "school_name": "IDALIA GOES E M PROFA EI EF",
            "country_name": "Brazil",
            "connectivity": true
        },
        {
            "lon": -41.9922,
            "lat": -18.8947,
            "school_name": "EE PROFESSORA MARIA DAMAZIO DE BARROS MENEZES",
            "country_name": "Brazil",
            "connectivity": true
        },
        {
            "lon": -40.6358,
            "lat": -20.8054,
            "school_name": "CEEMTI ANCHIETA",
            "country_name": "Brazil",
            "connectivity": true
        },
        {
            "lon": -43.7705,
            "lat": -22.875,
            "school_name": "CIEP 496 - MUNICIPALIZADO MAESTRO FRANCISCO MIGNONE",
            "country_name": "Brazil",
            "connectivity": true
        },
        {
            "lon": -35.3108,
            "lat": -7.5158,
            "school_name": "ESCOLA ANA EUFRASIA CABRAL DE MOURA",
            "country_name": "Brazil",
            "connectivity": true
        },
        {
            "lon": -51.2185,
            "lat": -29.152,
            "school_name": "ESC MUN ENS FUN ARNALDO BALLVE",
            "country_name": "Brazil",
            "connectivity": true
        },
        {
            "lon": -40.6048,
            "lat": -12.6608,
            "school_name": "ESCOLA ABRAHAM LINCOLN",
            "country_name": "Brazil",
            "connectivity": true
        },
        {
            "lon": -38.926,
            "lat": -12.7848,
            "school_name": "EE - COLEGIO ESTADUAL KLEBER PACHECO - DISTRITO SAO ROQUE DO PARAGUACU",
            "country_name": "Brazil",
            "connectivity": true
        },
        {
            "lon": -46.453,
            "lat": -23.4046,
            "school_name": "CYRO BARREIROS PROFESSOR",
            "country_name": "Brazil",
            "connectivity": true
        },
        {
            "lon": -45.7968,
            "lat": -23.1469,
            "school_name": "NORMA LUCIA RODRIGUES DE ALMEIDA PROFA EMEI",
            "country_name": "Brazil",
            "connectivity": true
        },
        {
            "lon": -46.8618,
            "lat": -23.1778,
            "school_name": "JUDITH ARRUDA CARRETA PROFA EMEB",
            "country_name": "Brazil",
            "connectivity": true
        },
        {
            "lon": -47.1585,
            "lat": -22.8963,
            "school_name": "PINOQUIO CEI",
            "country_name": "Brazil",
            "connectivity": true
        },
        {
            "lon": -50.7975,
            "lat": -20.251,
            "school_name": "PINGO DE GENTE EM",
            "country_name": "Brazil",
            "connectivity": true
        },
        {
            "lon": -46.8175,
            "lat": -22.4421,
            "school_name": "MARIA DAS MERCES IRMA CENTRO DE EDUCACAO INFANTIL",
            "country_name": "Brazil",
            "connectivity": true
        },
        {
            "lon": -46.7768,
            "lat": -23.7505,
            "school_name": "EMEF JOSE BLOTA JUNIOR DEP",
            "country_name": "Brazil",
            "connectivity": true
        },
        {
            "lon": -49.38,
            "lat": -23.1818,
            "school_name": "GILBERTO BONAFE PROFESSOR EMEIEF",
            "country_name": "Brazil",
            "connectivity": true
        },
        {
            "lon": -46.4189,
            "lat": -23.4765,
            "school_name": "EMEF MURURES",
            "country_name": "Brazil",
            "connectivity": true
        },
        {
            "lon": -48.769,
            "lat": -23.4725,
            "school_name": "MIGUEL AMARO BATISTA CENTRO DE EDUC INFANTIL",
            "country_name": "Brazil",
            "connectivity": false
        },
        {
            "lon": -46.5475,
            "lat": -23.6611,
            "school_name": "CENTRO DE ATEND SOCIO EDUC AO ADOLESC SANTO ANDRE I CI",
            "country_name": "Brazil",
            "connectivity": false
        },
        {
            "lon": -43.652,
            "lat": -13.5888,
            "school_name": "ESCOLA SAGRADO CORACAO DE JESUS",
            "country_name": "Brazil",
            "connectivity": true
        },
        {
            "lon": -50.5703,
            "lat": -29.6525,
            "school_name": "EMEF FARROUPILHA",
            "country_name": "Brazil",
            "connectivity": true
        },
        {
            "lon": -51.0733,
            "lat": -23.2808,
            "school_name": "BARBARA M DE OLIVEIRA C M E I PROFA",
            "country_name": "Brazil",
            "connectivity": true
        },
        {
            "lon": -53.502,
            "lat": -26.4561,
            "school_name": "UD DE SAO JOSE DO CEDRO",
            "country_name": "Brazil",
            "connectivity": true
        },
        {
            "lon": -51.4274,
            "lat": -29.5503,
            "school_name": "EMEI ANJO DA GUARDA",
            "country_name": "Brazil",
            "connectivity": true
        },
        {
            "lon": -52.5392,
            "lat": -27.6413,
            "school_name": "ESCOLA MUNICIPAL DE ENSINO FUNDAMENTAL JOSE DA SILVA LISBOA",
            "country_name": "Brazil",
            "connectivity": false
        },
        {
            "lon": -52.0382,
            "lat": -29.6972,
            "school_name": "EEEF ONDINA DOS SANTOS MARTINS",
            "country_name": "Brazil",
            "connectivity": false
        },
        {
            "lon": -54.6129,
            "lat": -28.2566,
            "school_name": "EMEI DESPERTAR",
            "country_name": "Brazil",
            "connectivity": true
        },
        {
            "lon": -53.0472,
            "lat": -20.7086,
            "school_name": "ESCOLA MUNICIPAL ASSENTAMENTO MUTUM",
            "country_name": "Brazil",
            "connectivity": true
        },
        {
            "lon": -55.4635,
            "lat": -14.5263,
            "school_name": "EMEF NOVA ESPERANCA",
            "country_name": "Brazil",
            "connectivity": false
        },
        {
            "lon": -51.9876,
            "lat": -29.451,
            "school_name": "EMEI PEQUENO CIDADAO",
            "country_name": "Brazil",
            "connectivity": true
        },
        {
            "lon": -47.4795,
            "lat": -1.6061,
            "school_name": "E M E F PROF RAIMUNDA CARVALHO DE MELO PINHO",
            "country_name": "Brazil",
            "connectivity": true
        },
        {
            "lon": -45.3934,
            "lat": -3.6644,
            "school_name": "CENTRO DE ENSINO BANDEIRA TRIBUZZI CAIC",
            "country_name": "Brazil",
            "connectivity": true
        },
        {
            "lon": -51.6724,
            "lat": -23.5253,
            "school_name": "RENATA Y T HERNANDES C M E I DRA",
            "country_name": "Brazil",
            "connectivity": true
        },
        {
            "lon": -47.9987,
            "lat": -15.7825,
            "school_name": "EC 02 DA ESTRUTURAL",
            "country_name": "Brazil",
            "connectivity": true
        },
        {
            "lon": -51.4264,
            "lat": -23.4287,
            "school_name": "IVANILDE DE NORONHA C E EF M",
            "country_name": "Brazil",
            "connectivity": true
        },
        {
            "lon": -61.9893,
            "lat": -11.9246,
            "school_name": "EEEMTI JUSCELINO KUBITSCHEK DE OLIVEIRA",
            "country_name": "Brazil",
            "connectivity": true
        },
        {
            "lon": -50.2473,
            "lat": -23.4355,
            "school_name": "LUIZ PETRINI E E PROF EF",
            "country_name": "Brazil",
            "connectivity": true
        },
        {
            "lon": -37.8194,
            "lat": -5.9935,
            "school_name": "ESC MUL STA FILOMENA",
            "country_name": "Brazil",
            "connectivity": true
        },
        {
            "lon": -49.3694,
            "lat": -16.7871,
            "school_name": "CMEI RESIDENCIAL ITAIPU",
            "country_name": "Brazil",
            "connectivity": true
        },
        {
            "lon": -41.4929,
            "lat": -17.8742,
            "school_name": "EM TEODOLINDO PEREIRA",
            "country_name": "Brazil",
            "connectivity": true
        },
        {
            "lon": -35.7071,
            "lat": -8.3307,
            "school_name": "COLEGIO MUNICIPAL SAO MIGUEL",
            "country_name": "Brazil",
            "connectivity": true
        }
    ],
    "num_countries": 13,
    "countries": [
        "Benin",
        "Brazil",
        "Colombia",
        "Costa Rica",
        "Honduras",
        "Kazakhstan",
        "Kyrgyzstan",
        "Namibia",
        "Palestine",
        "Philippines",
        "Saint Vincent and the Grenadines",
        "Sierra Leone",
        "Zimbabwe"
    ],
    "schools_no_data": [
        {
            "lon": -10.168869,
            "lat": 6.116462,
            "school_name": "Vahn Town Public",
            "country_name": "Liberia",
            "connectivity": false
        },
        {
            "lon": -10.07897,
            "lat": 8.287691,
            "school_name": "Musa Konneh Public",
            "country_name": "Liberia",
            "connectivity": false
        },
        {
            "lon": -58.57976619,
            "lat": -34.89409673,
            "school_name": "JARDIN DE INFANTES N\u00ba910",
            "country_name": "Argentina",
            "connectivity": false
        },
        {
            "lon": 30.47769038,
            "lat": 18.92261452,
            "school_name": "Name unknown",
            "country_name": "Sudan",
            "connectivity": false
        },
        {
            "lon": -62.2577359,
            "lat": -38.72561235,
            "school_name": "ESCUELA DE ADULTOS N\u00ba702 MARIANO MORENO",
            "country_name": "Argentina",
            "connectivity": false
        },
        {
            "lon": 34.26573125,
            "lat": 11.16418018,
            "school_name": "Name unknown",
            "country_name": "Sudan",
            "connectivity": false
        },
        {
            "lon": 33.6491095,
            "lat": 11.89310548,
            "school_name": "Name unknown",
            "country_name": "Sudan",
            "connectivity": false
        },
        {
            "lon": 22.98757132,
            "lat": 13.11392868,
            "school_name": "Name unknown",
            "country_name": "Sudan",
            "connectivity": false
        },
        {
            "lon": -0.102342,
            "lat": 5.694017,
            "school_name": "Name unknown",
            "country_name": "Ghana",
            "connectivity": false
        },
        {
            "lon": 1.1269033,
            "lat": 6.1242789,
            "school_name": "Name unknown",
            "country_name": "Ghana",
            "connectivity": false
        },
        {
            "lon": -1.4926708,
            "lat": 6.9341963,
            "school_name": "Name unknown",
            "country_name": "Ghana",
            "connectivity": false
        },
        {
            "lon": 35.3908,
            "lat": -3.1934,
            "school_name": "BLACK RHINO ACADEMY",
            "country_name": "United Republic of Tanzania",
            "connectivity": false
        },
        {
            "lon": 36.96695,
            "lat": -3.32755,
            "school_name": "MVANGO",
            "country_name": "United Republic of Tanzania",
            "connectivity": false
        },
        {
            "lon": 33.27119,
            "lat": -9.12556,
            "school_name": "MLOWO",
            "country_name": "United Republic of Tanzania",
            "connectivity": false
        },
        {
            "lon": 38.98286,
            "lat": -10.05327,
            "school_name": "MANDARAWE",
            "country_name": "United Republic of Tanzania",
            "connectivity": false
        },
        {
            "lon": 32.93078,
            "lat": -2.61932,
            "school_name": "REHOBOTH ENGLISH MEDIUM",
            "country_name": "United Republic of Tanzania",
            "connectivity": false
        },
        {
            "lon": 33.36904,
            "lat": -4.59566,
            "school_name": "NKINGA",
            "country_name": "United Republic of Tanzania",
            "connectivity": false
        },
        {
            "lon": 35.99353,
            "lat": -10.72389,
            "school_name": "MWINUKO",
            "country_name": "United Republic of Tanzania",
            "connectivity": false
        },
        {
            "lon": 34.91356,
            "lat": -4.42076,
            "school_name": "MALIWA",
            "country_name": "United Republic of Tanzania",
            "connectivity": false
        },
        {
            "lon": 38.3581,
            "lat": -4.72989,
            "school_name": "KWAI",
            "country_name": "United Republic of Tanzania",
            "connectivity": false
        },
        {
            "lon": 31.00249,
            "lat": -2.77164,
            "school_name": "NYAKAHURA",
            "country_name": "United Republic of Tanzania",
            "connectivity": false
        },
        {
            "lon": 38.07672,
            "lat": -4.95915,
            "school_name": "MPASILASI",
            "country_name": "United Republic of Tanzania",
            "connectivity": false
        },
        {
            "lon": 38.86922,
            "lat": -5.38425,
            "school_name": "KIGURUSIMBA",
            "country_name": "United Republic of Tanzania",
            "connectivity": false
        },
        {
            "lon": 33.49342,
            "lat": -1.84615,
            "school_name": "MURANGI",
            "country_name": "United Republic of Tanzania",
            "connectivity": false
        },
        {
            "lon": 31.65374,
            "lat": -2.79105,
            "school_name": "NYAMIGOGO - B",
            "country_name": "United Republic of Tanzania",
            "connectivity": false
        },
        {
            "lon": 36.48262,
            "lat": -5.72169,
            "school_name": "MAGESENI",
            "country_name": "United Republic of Tanzania",
            "connectivity": false
        },
        {
            "lon": 33.03206,
            "lat": -2.03531,
            "school_name": "MUKASIKA",
            "country_name": "United Republic of Tanzania",
            "connectivity": false
        },
        {
            "lon": -0.2933036,
            "lat": 5.5878103,
            "school_name": "Name unknown",
            "country_name": "Ghana",
            "connectivity": false
        },
        {
            "lon": -2.7902994,
            "lat": 7.5835103,
            "school_name": "Name unknown",
            "country_name": "Ghana",
            "connectivity": false
        },
        {
            "lon": 36.8755157,
            "lat": -1.256899,
            "school_name": "Liance Driving School",
            "country_name": "Kenya",
            "connectivity": false
        },
        {
            "lon": 1.219963333,
            "lat": 6.137208333,
            "school_name": "JEPL MON BONHEUR",
            "country_name": "Togo",
            "connectivity": false
        },
        {
            "lon": 1.23805,
            "lat": 6.130418333,
            "school_name": "JEPL AVENIR DOGBE T. EFOE",
            "country_name": "Togo",
            "connectivity": false
        },
        {
            "lon": 0.609854,
            "lat": 9.684682,
            "school_name": "JEP GUERIN KOUKA CENTRAL",
            "country_name": "Togo",
            "connectivity": false
        },
        {
            "lon": 1.175143,
            "lat": 6.264178,
            "school_name": "EPL PARC DES PRINCES",
            "country_name": "Togo",
            "connectivity": false
        },
        {
            "lon": 1.504376667,
            "lat": 6.671715,
            "school_name": "EPP GBOTO ASSIGAME 1",
            "country_name": "Togo",
            "connectivity": false
        },
        {
            "lon": 0.634851667,
            "lat": 7.634943333,
            "school_name": "EPP KESSIBO OUTIMA",
            "country_name": "Togo",
            "connectivity": false
        },
        {
            "lon": 0.824829,
            "lat": 7.269649,
            "school_name": "EPP KPELE TEGBLEVE",
            "country_name": "Togo",
            "connectivity": false
        },
        {
            "lon": 0.722667,
            "lat": 7.714948,
            "school_name": "EPP DJON ELAVAGNO",
            "country_name": "Togo",
            "connectivity": false
        },
        {
            "lon": 0.279592,
            "lat": 10.570233,
            "school_name": "EPP POUKPIELOKO",
            "country_name": "Togo",
            "connectivity": false
        },
        {
            "lon": 19.92782593,
            "lat": 44.18885115,
            "school_name": "\u0414\u0440\u0430\u0433\u043e\u0459\u0443\u0431 \u0418\u043b\u0438\u045b",
            "country_name": "Serbia",
            "connectivity": false
        },
        {
            "lon": 32.41189,
            "lat": -8.42644,
            "school_name": "MASANYINTA",
            "country_name": "United Republic of Tanzania",
            "connectivity": false
        },
        {
            "lon": 33.87146,
            "lat": -2.77364,
            "school_name": "MWANGIMU",
            "country_name": "United Republic of Tanzania",
            "connectivity": false
        },
        {
            "lon": 39.20336,
            "lat": -6.16542,
            "school_name": "MUEMBE SHAURI",
            "country_name": "United Republic of Tanzania",
            "connectivity": false
        },
        {
            "lon": 33.97699,
            "lat": -2.73403,
            "school_name": "NYAUMATA",
            "country_name": "United Republic of Tanzania",
            "connectivity": false
        },
        {
            "lon": 0.305985,
            "lat": 10.558155,
            "school_name": "LYCEE DE BARKOISSI",
            "country_name": "Togo",
            "connectivity": false
        },
        {
            "lon": 34.07496778,
            "lat": -14.17420709,
            "school_name": "Mkomera F. P.",
            "country_name": "Malawi",
            "connectivity": false
        },
        {
            "lon": 5.357648,
            "lat": 5.393429,
            "school_name": "Name unknown",
            "country_name": "Nigeria",
            "connectivity": false
        },
        {
            "lon": 33.43026621,
            "lat": -9.605087985,
            "school_name": "Songwe",
            "country_name": "Malawi",
            "connectivity": false
        },
        {
            "lon": 33.48653193,
            "lat": -10.1266223,
            "school_name": "Ukamba",
            "country_name": "Malawi",
            "connectivity": false
        },
        {
            "lon": 35.42815817,
            "lat": -14.96148378,
            "school_name": "Mwalasi",
            "country_name": "Malawi",
            "connectivity": false
        },
        {
            "lon": 33.37980522,
            "lat": -13.77624475,
            "school_name": "Kasiya Prim School",
            "country_name": "Malawi",
            "connectivity": false
        },
        {
            "lon": 33.7345724,
            "lat": -13.26986777,
            "school_name": "Chimbalu Full Primary",
            "country_name": "Malawi",
            "connectivity": false
        },
        {
            "lon": 33.98244579,
            "lat": -13.29712087,
            "school_name": "Vikula Full Primary",
            "country_name": "Malawi",
            "connectivity": false
        },
        {
            "lon": 30.94453462,
            "lat": 2.198371029,
            "school_name": "EP   UGONJO",
            "country_name": "Democratic Republic of the Congo",
            "connectivity": false
        },
        {
            "lon": 21.48111117,
            "lat": 0.180986281,
            "school_name": "INST  DJEFA",
            "country_name": "Democratic Republic of the Congo",
            "connectivity": false
        },
        {
            "lon": 23.56364156,
            "lat": -7.900940562,
            "school_name": "EP LUILU",
            "country_name": "Democratic Republic of the Congo",
            "connectivity": false
        },
        {
            "lon": 29.19331604,
            "lat": -1.635586851,
            "school_name": "CS LA PERFECTION",
            "country_name": "Democratic Republic of the Congo",
            "connectivity": false
        },
        {
            "lon": 21.8510808,
            "lat": 2.379963374,
            "school_name": "INST OJE / BILIA",
            "country_name": "Democratic Republic of the Congo",
            "connectivity": false
        },
        {
            "lon": 14.47750381,
            "lat": -5.824785871,
            "school_name": "INST NKANZA",
            "country_name": "Democratic Republic of the Congo",
            "connectivity": false
        },
        {
            "lon": -67.915534,
            "lat": -17.236716,
            "school_name": "NACIONAL DE PATACAMAYA",
            "country_name": "Bolivia (Plurinational State of)",
            "connectivity": false
        },
        {
            "lon": -100.13,
            "lat": 19.718,
            "school_name": "TELEBACHILLERATO COMUNITARIO NUM. 417 BARRIO CANOAS GUARDA LA LAGUNITA SAN JOSE DEL RINCON",
            "country_name": "Mexico",
            "connectivity": false
        },
        {
            "lon": -8.7397,
            "lat": 16.5946,
            "school_name": "ELMDHLOUM",
            "country_name": "Mauritania",
            "connectivity": false
        },
        {
            "lon": 34.04487,
            "lat": 2.07685,
            "school_name": "OKOCHO NURSERY SCHOOL",
            "country_name": "Uganda",
            "connectivity": false
        },
        {
            "lon": 32.8866,
            "lat": 0.21438,
            "school_name": "NSONGA NURSERY SCHOOL",
            "country_name": "Uganda",
            "connectivity": false
        },
        {
            "lon": 33.23682,
            "lat": 1.8446,
            "school_name": "Oriamo P.S.",
            "country_name": "Uganda",
            "connectivity": false
        },
        {
            "lon": 33.37065,
            "lat": 1.96691,
            "school_name": "Anyara Moru P.S.",
            "country_name": "Uganda",
            "connectivity": false
        },
        {
            "lon": 32.25674,
            "lat": 0.3756,
            "school_name": "St.Mary's Nursery Kamuli",
            "country_name": "Uganda",
            "connectivity": false
        },
        {
            "lon": 32.45558,
            "lat": 0.06275,
            "school_name": "Community Nursery Sch.",
            "country_name": "Uganda",
            "connectivity": false
        },
        {
            "lon": 33.80785,
            "lat": 0.32914,
            "school_name": "Syanyonja P.S.",
            "country_name": "Uganda",
            "connectivity": false
        },
        {
            "lon": 31.35236,
            "lat": 1.4435,
            "school_name": "St. Joseph P.S",
            "country_name": "Uganda",
            "connectivity": false
        },
        {
            "lon": 30.52486,
            "lat": -0.68635,
            "school_name": "Nyabikungu P.S.",
            "country_name": "Uganda",
            "connectivity": false
        },
        {
            "lon": 30.74785,
            "lat": -26.47265,
            "school_name": "Syde Primary School",
            "country_name": "South Africa",
            "connectivity": false
        },
        {
            "lon": 26.68271,
            "lat": -26.98814,
            "school_name": "Laerskool Noordvaal",
            "country_name": "South Africa",
            "connectivity": false
        },
        {
            "lon": 23.4322,
            "lat": -27.39561,
            "school_name": "Kudumane Primary School",
            "country_name": "South Africa",
            "connectivity": false
        },
        {
            "lon": 29.58875,
            "lat": -25.03682,
            "school_name": "Ikhutseng Primary School",
            "country_name": "South Africa",
            "connectivity": false
        },
        {
            "lon": 18.58746,
            "lat": -33.9491,
            "school_name": "John Ramsay High School",
            "country_name": "South Africa",
            "connectivity": false
        },
        {
            "lon": 18.70898,
            "lat": -34.00593,
            "school_name": "Forest Heights Primary School",
            "country_name": "South Africa",
            "connectivity": false
        },
        {
            "lon": 18.96411,
            "lat": -33.44023,
            "school_name": "Rondeheuwel Primary School",
            "country_name": "South Africa",
            "connectivity": false
        },
        {
            "lon": 30.14795,
            "lat": -28.184,
            "school_name": "Glencoe Primary School",
            "country_name": "South Africa",
            "connectivity": false
        },
        {
            "lon": 29.3821,
            "lat": -28.37541,
            "school_name": "Van Reenen Public Primary School",
            "country_name": "South Africa",
            "connectivity": false
        },
        {
            "lon": 29.69444,
            "lat": -30.21011,
            "school_name": "Saint Alois Junior Secondary School",
            "country_name": "South Africa",
            "connectivity": false
        },
        {
            "lon": 30.9479,
            "lat": -23.33558,
            "school_name": "Vusizi Primary",
            "country_name": "South Africa",
            "connectivity": false
        },
        {
            "lon": 30.54593,
            "lat": -24.61586,
            "school_name": "Legoleng Primary School",
            "country_name": "South Africa",
            "connectivity": false
        },
        {
            "lon": 30.83245,
            "lat": -29.79244,
            "school_name": "Kip McGrath Education Centre Kloof",
            "country_name": "South Africa",
            "connectivity": false
        },
        {
            "lon": 32.40965,
            "lat": -27.45637,
            "school_name": "Buyani Junior Primary School",
            "country_name": "South Africa",
            "connectivity": false
        },
        {
            "lon": 30.94082,
            "lat": -29.41206,
            "school_name": "Emsengeni Primary School",
            "country_name": "South Africa",
            "connectivity": false
        },
        {
            "lon": 31.64245,
            "lat": -28.95897,
            "school_name": "Uphindo Secondary School",
            "country_name": "South Africa",
            "connectivity": false
        },
        {
            "lon": 31.8571,
            "lat": -28.75319,
            "school_name": "Empangeni Christian High School",
            "country_name": "South Africa",
            "connectivity": false
        },
        {
            "lon": 28.17938,
            "lat": -25.67656,
            "school_name": "Laerskool Danie Malan",
            "country_name": "South Africa",
            "connectivity": false
        },
        {
            "lon": 30.98943,
            "lat": -29.74383,
            "school_name": "Thandukwazi Senior Primary School",
            "country_name": "South Africa",
            "connectivity": false
        },
        {
            "lon": 31.13613,
            "lat": -29.54328,
            "school_name": "Maidstone Primary School",
            "country_name": "South Africa",
            "connectivity": false
        },
        {
            "lon": 31.20132,
            "lat": -29.11053,
            "school_name": "Empungeni Primary School",
            "country_name": "South Africa",
            "connectivity": false
        },
        {
            "lon": 28.08771,
            "lat": -26.25408,
            "school_name": "Montanus Laerskool",
            "country_name": "South Africa",
            "connectivity": false
        },
        {
            "lon": 27.87613,
            "lat": -26.50656,
            "school_name": "Qhakazani Primary School",
            "country_name": "South Africa",
            "connectivity": false
        },
        {
            "lon": 27.96022,
            "lat": -26.13747,
            "school_name": "Northcliff Primary School",
            "country_name": "South Africa",
            "connectivity": false
        },
        {
            "lon": 28.12981,
            "lat": -26.01459,
            "school_name": "Nizamiye High School",
            "country_name": "South Africa",
            "connectivity": false
        },
        {
            "lon": 28.41237,
            "lat": -26.14779,
            "school_name": "Enkangala Primary School",
            "country_name": "South Africa",
            "connectivity": false
        },
        {
            "lon": 27.90356,
            "lat": -33.0059,
            "school_name": "Grens Voorbereidings Skool",
            "country_name": "South Africa",
            "connectivity": false
        },
        {
            "lon": 28.17588,
            "lat": -25.71143,
            "school_name": "Hillview High School",
            "country_name": "South Africa",
            "connectivity": false
        },
        {
            "lon": 28.0328,
            "lat": -26.1939,
            "school_name": "Language Lab The",
            "country_name": "South Africa",
            "connectivity": false
        },
        {
            "lon": 27.8339,
            "lat": -26.81104,
            "school_name": "Mik En Tref Skietopleiding",
            "country_name": "South Africa",
            "connectivity": false
        },
        {
            "lon": 25.97463,
            "lat": -33.43925,
            "school_name": "Moreson Primary School",
            "country_name": "South Africa",
            "connectivity": false
        },
        {
            "lon": 28.78214,
            "lat": -28.59357,
            "school_name": "Phahameng Combined School",
            "country_name": "South Africa",
            "connectivity": false
        },
        {
            "lon": 28.53628,
            "lat": -30.60411,
            "school_name": "Ezingonyameni Junior Secondary School",
            "country_name": "South Africa",
            "connectivity": false
        },
        {
            "lon": 29.60142,
            "lat": -30.74312,
            "school_name": "Laleni Junior Primary School",
            "country_name": "South Africa",
            "connectivity": false
        },
        {
            "lon": 29.0222,
            "lat": -30.90084,
            "school_name": "Cwalinkungu Junior Secondary School",
            "country_name": "South Africa",
            "connectivity": false
        },
        {
            "lon": 34.36934183,
            "lat": -13.85777018,
            "school_name": "Lungumadzi Primary School",
            "country_name": "Malawi",
            "connectivity": false
        },
        {
            "lon": -57.6076574,
            "lat": -38.1115063,
            "school_name": "JARDIN DE INFANTES N\u00ba920",
            "country_name": "Argentina",
            "connectivity": false
        },
        {
            "lon": -57.4533163,
            "lat": -35.3210584,
            "school_name": "ESCUELA PRIMARIA N\u00ba3 FLORENTINO AMEGHINO",
            "country_name": "Argentina",
            "connectivity": false
        },
        {
            "lon": -61.95644315,
            "lat": -37.05923274,
            "school_name": "ESCUELA PRIMARIA N\u00ba25 JUAN BAUTISTA CABRAL",
            "country_name": "Argentina",
            "connectivity": false
        },
        {
            "lon": -58.62228017,
            "lat": -34.47942003,
            "school_name": "COLEGIO DE LAS AMERICAS",
            "country_name": "Argentina",
            "connectivity": false
        },
        {
            "lon": -59.13444428,
            "lat": -36.53577659,
            "school_name": "CENTRO EDUCATIVO PARA LA PRODUCCION TOTAL N\u00ba5",
            "country_name": "Argentina",
            "connectivity": false
        },
        {
            "lon": -58.57821605,
            "lat": -34.7110117,
            "school_name": "JARDIN DE INFANTES N\u00ba930",
            "country_name": "Argentina",
            "connectivity": false
        },
        {
            "lon": -62.45,
            "lat": -34.8166667,
            "school_name": "EXTENSION I DE ESCUELA SECUNDARIA N\u00ba37",
            "country_name": "Argentina",
            "connectivity": false
        },
        {
            "lon": -58.57840533,
            "lat": -34.51269921,
            "school_name": "ESCUELA PRIMARIA N\u00ba65 REPUBLICA DE CHILE",
            "country_name": "Argentina",
            "connectivity": false
        },
        {
            "lon": -58.58485458,
            "lat": -34.54428238,
            "school_name": "JARDIN DE INFANTES N\u00ba927",
            "country_name": "Argentina",
            "connectivity": false
        },
        {
            "lon": -59.49835105,
            "lat": -33.80690135,
            "school_name": "ESCUELA TECNICA N\u00ba1 BATALLA DE LA VUELTA DE OBLIGADO",
            "country_name": "Argentina",
            "connectivity": false
        },
        {
            "lon": -58.1972699,
            "lat": -35.27732029,
            "school_name": "ESCUELA SECUNDARIA N\u00ba3 JORGE MACRI",
            "country_name": "Argentina",
            "connectivity": false
        },
        {
            "lon": -62.26623753,
            "lat": -38.78146892,
            "school_name": "COLEGIO PRESIDENTE SARMIENTO",
            "country_name": "Argentina",
            "connectivity": false
        },
        {
            "lon": -60.71761692,
            "lat": -32.82389208,
            "school_name": "ESCUELA ESPECIAL 2059 NTRA SE\u00d1ORA DE LA MEDALLA MILAGROSA",
            "country_name": "Argentina",
            "connectivity": false
        },
        {
            "lon": -68.83918267,
            "lat": -32.89828731,
            "school_name": "SAN GABRIEL",
            "country_name": "Argentina",
            "connectivity": false
        },
        {
            "lon": -60.24103199,
            "lat": -34.30260498,
            "school_name": "ESCUELA NUESTRA SE\u00d1ORA DEL ROSARIO",
            "country_name": "Argentina",
            "connectivity": false
        },
        {
            "lon": -61.74940264,
            "lat": -30.96704922,
            "school_name": "NUCLEO III - JARDIN DE INFANTES NRO 167",
            "country_name": "Argentina",
            "connectivity": false
        },
        {
            "lon": -59.10336345,
            "lat": -37.12498593,
            "school_name": "ESC. SECUNDARIA BASICA N\u00ba16",
            "country_name": "Argentina",
            "connectivity": false
        },
        {
            "lon": -60.949554,
            "lat": -34.5885499,
            "school_name": "ROQUE SAENZ PE\u00d1A",
            "country_name": "Argentina",
            "connectivity": false
        },
        {
            "lon": -59.44437772,
            "lat": -27.10659144,
            "school_name": "U.E.P. N\u00ba 56-CARLOS B. ENRIQUEZ",
            "country_name": "Argentina",
            "connectivity": false
        },
        {
            "lon": -65.31255854,
            "lat": -43.24744484,
            "school_name": "C.F.P. N\u00ba 653",
            "country_name": "Argentina",
            "connectivity": false
        },
        {
            "lon": -58.46795377,
            "lat": -34.62081612,
            "school_name": "REPUBLICA DE EL SALVADOR",
            "country_name": "Argentina",
            "connectivity": false
        },
        {
            "lon": -64.1836288,
            "lat": -31.44501769,
            "school_name": "COLEGIO PQUIAL. CRISTO REDENTOR",
            "country_name": "Argentina",
            "connectivity": false
        },
        {
            "lon": -58.83699131,
            "lat": -27.48140437,
            "school_name": "JARDIN MATERNAL N\u00ba 1 MAMITA",
            "country_name": "Argentina",
            "connectivity": false
        },
        {
            "lon": -57.09538782,
            "lat": -29.71375114,
            "school_name": "ESCUELA ISONDU I.P.P.20 - I.P.61",
            "country_name": "Argentina",
            "connectivity": false
        },
        {
            "lon": -58.25742106,
            "lat": -28.30432512,
            "school_name": "J.I.N. N\u00ba 29 - ESCUELA N\u00ba 211",
            "country_name": "Argentina",
            "connectivity": false
        },
        {
            "lon": -59.90029036,
            "lat": -31.66533917,
            "school_name": "CENTRO EDUCATIVO 58",
            "country_name": "Argentina",
            "connectivity": false
        },
        {
            "lon": -66.62814697,
            "lat": -22.4622144,
            "school_name": "COLEGIO DE NIVEL SECUNDARIO N 8 HEROES DE MALVINAS",
            "country_name": "Argentina",
            "connectivity": false
        },
        {
            "lon": -68.22250372,
            "lat": -34.72434638,
            "school_name": "CORA TEIJEIRO DE ACOSTA",
            "country_name": "Argentina",
            "connectivity": false
        },
        {
            "lon": -54.47351565,
            "lat": -26.99105627,
            "school_name": "INST. CEFERINO NAMUNCURA",
            "country_name": "Argentina",
            "connectivity": false
        },
        {
            "lon": -64.9750477,
            "lat": -25.79924714,
            "school_name": "ESCUELA DE EDUCACION TECNICA N\u00aa 3103 EX N\u00b0 5103-7104",
            "country_name": "Argentina",
            "connectivity": false
        },
        {
            "lon": -65.45867232,
            "lat": -33.67600692,
            "school_name": "ESCUELA DE JORNADA COMPLETA N\u00b0 444 MARIA EVA DUARTE DE PERON",
            "country_name": "Argentina",
            "connectivity": false
        },
        {
            "lon": -67.71755116,
            "lat": -49.30699225,
            "school_name": "ESCUELA ESPECIAL N\u00ba 12",
            "country_name": "Argentina",
            "connectivity": false
        },
        {
            "lon": -62.1047404,
            "lat": -32.1141874,
            "school_name": "ESCUELA NRO 793 HOGAR ARGENTINO",
            "country_name": "Argentina",
            "connectivity": false
        },
        {
            "lon": -62.9052769,
            "lat": -28.42455365,
            "school_name": "ESCUELA N\u00ba 235 FERROCARRILES ARGENTINOS",
            "country_name": "Argentina",
            "connectivity": false
        },
        {
            "lon": -64.53017,
            "lat": -27.40296,
            "school_name": "ESCUELA N\u00b0 592 CABO HECTOR WALTER AGUIRRE",
            "country_name": "Argentina",
            "connectivity": false
        },
        {
            "lon": -62.36878629,
            "lat": -27.61812163,
            "school_name": "ESCUELA N\u00ba 687 SANTA ROSA",
            "country_name": "Argentina",
            "connectivity": false
        },
        {
            "lon": -65.61741386,
            "lat": -27.59004182,
            "school_name": "C.E.B.A. N\u00b0 1-109",
            "country_name": "Argentina",
            "connectivity": false
        },
        {
            "lon": 6.157605,
            "lat": 5.640473,
            "school_name": "Name unknown",
            "country_name": "Nigeria",
            "connectivity": false
        },
        {
            "lon": 7.33353,
            "lat": 5.1515,
            "school_name": "Name unknown",
            "country_name": "Nigeria",
            "connectivity": false
        },
        {
            "lon": 7.51427,
            "lat": 5.567105,
            "school_name": "Name unknown",
            "country_name": "Nigeria",
            "connectivity": false
        },
        {
            "lon": 8.097535,
            "lat": 6.446018333,
            "school_name": "Name unknown",
            "country_name": "Nigeria",
            "connectivity": false
        },
        {
            "lon": 7.765375,
            "lat": 6.049786,
            "school_name": "Name unknown",
            "country_name": "Nigeria",
            "connectivity": false
        },
        {
            "lon": 6.315084,
            "lat": 6.508831,
            "school_name": "Name unknown",
            "country_name": "Nigeria",
            "connectivity": false
        },
        {
            "lon": 5.616609,
            "lat": 6.328417,
            "school_name": "Name unknown",
            "country_name": "Nigeria",
            "connectivity": false
        },
        {
            "lon": 5.363826,
            "lat": 6.717239,
            "school_name": "Name unknown",
            "country_name": "Nigeria",
            "connectivity": false
        },
        {
            "lon": 5.22421,
            "lat": 7.672376667,
            "school_name": "Name unknown",
            "country_name": "Nigeria",
            "connectivity": false
        },
        {
            "lon": 5.220568333,
            "lat": 7.66434,
            "school_name": "Name unknown",
            "country_name": "Nigeria",
            "connectivity": false
        },
        {
            "lon": 5.040231667,
            "lat": 7.834196667,
            "school_name": "Name unknown",
            "country_name": "Nigeria",
            "connectivity": false
        },
        {
            "lon": 5.499659,
            "lat": 7.783668,
            "school_name": "Name unknown",
            "country_name": "Nigeria",
            "connectivity": false
        },
        {
            "lon": 7.484302,
            "lat": 6.453978,
            "school_name": "Name unknown",
            "country_name": "Nigeria",
            "connectivity": false
        },
        {
            "lon": 7.50816,
            "lat": 6.380165,
            "school_name": "Name unknown",
            "country_name": "Nigeria",
            "connectivity": false
        },
        {
            "lon": 3.01393,
            "lat": 6.48605,
            "school_name": "Name unknown",
            "country_name": "Nigeria",
            "connectivity": false
        },
        {
            "lon": 2.99178,
            "lat": 6.47401,
            "school_name": "Name unknown",
            "country_name": "Nigeria",
            "connectivity": false
        },
        {
            "lon": 7.377383709,
            "lat": 9.017930031,
            "school_name": "Name unknown",
            "country_name": "Nigeria",
            "connectivity": false
        },
        {
            "lon": 7.461685,
            "lat": 9.058413,
            "school_name": "Name unknown",
            "country_name": "Nigeria",
            "connectivity": false
        },
        {
            "lon": 7.437729,
            "lat": 9.094228,
            "school_name": "Name unknown",
            "country_name": "Nigeria",
            "connectivity": false
        },
        {
            "lon": 7.04044,
            "lat": 5.535324,
            "school_name": "Name unknown",
            "country_name": "Nigeria",
            "connectivity": false
        },
        {
            "lon": 7.129142,
            "lat": 5.687431,
            "school_name": "Name unknown",
            "country_name": "Nigeria",
            "connectivity": false
        },
        {
            "lon": -77.0952,
            "lat": -6.2991,
            "school_name": "116",
            "country_name": "Peru",
            "connectivity": false
        },
        {
            "lon": -77.2495,
            "lat": -5.80437,
            "school_name": "826",
            "country_name": "Peru",
            "connectivity": false
        },
        {
            "lon": -75.9371,
            "lat": -9.2422,
            "school_name": "082 MARONA",
            "country_name": "Peru",
            "connectivity": false
        },
        {
            "lon": -79.8412,
            "lat": -6.77951,
            "school_name": "10024 NUESTRA SE\u00d1ORA DE FATIMA",
            "country_name": "Peru",
            "connectivity": false
        },
        {
            "lon": -73.5181,
            "lat": -13.4909,
            "school_name": "1025",
            "country_name": "Peru",
            "connectivity": false
        },
        {
            "lon": -73.6831,
            "lat": -13.5451,
            "school_name": "1030",
            "country_name": "Peru",
            "connectivity": false
        },
        {
            "lon": -71.9273,
            "lat": -13.4597,
            "school_name": "1124",
            "country_name": "Peru",
            "connectivity": false
        },
        {
            "lon": -75.6852,
            "lat": -13.121,
            "school_name": "1171",
            "country_name": "Peru",
            "connectivity": false
        },
        {
            "lon": -77.6311,
            "lat": -8.5547,
            "school_name": "128 EMILIA BARCIA BONIFATI",
            "country_name": "Peru",
            "connectivity": false
        },
        {
            "lon": -80.0482,
            "lat": -5.09632,
            "school_name": "1294",
            "country_name": "Peru",
            "connectivity": false
        },
        {
            "lon": -79.4269,
            "lat": -5.24021,
            "school_name": "14423",
            "country_name": "Peru",
            "connectivity": false
        },
        {
            "lon": -70.5187,
            "lat": -14.5413,
            "school_name": "1512",
            "country_name": "Peru",
            "connectivity": false
        },
        {
            "lon": -80.0024,
            "lat": -4.6176,
            "school_name": "15245",
            "country_name": "Peru",
            "connectivity": false
        },
        {
            "lon": -76.877,
            "lat": -9.0643,
            "school_name": "157",
            "country_name": "Peru",
            "connectivity": false
        },
        {
            "lon": -78.1549,
            "lat": -9.36162,
            "school_name": "1583",
            "country_name": "Peru",
            "connectivity": false
        },
        {
            "lon": -79.5126,
            "lat": -5.60907,
            "school_name": "20406",
            "country_name": "Peru",
            "connectivity": false
        },
        {
            "lon": -77.0412,
            "lat": -11.98,
            "school_name": "2058 VIRGEN DE LA MEDALLA MILAGROSA",
            "country_name": "Peru",
            "connectivity": false
        },
        {
            "lon": -74.484,
            "lat": -11.4341,
            "school_name": "2081",
            "country_name": "Peru",
            "connectivity": false
        },
        {
            "lon": -79.0401,
            "lat": -8.1306,
            "school_name": "211 SANTISIMA NI\u00d1A MARIA",
            "country_name": "Peru",
            "connectivity": false
        },
        {
            "lon": -74.942,
            "lat": -14.1316,
            "school_name": "24157 SAN MIGUEL DE ARCANGEL",
            "country_name": "Peru",
            "connectivity": false
        },
        {
            "lon": -71.4489,
            "lat": -14.4791,
            "school_name": "245",
            "country_name": "Peru",
            "connectivity": false
        },
        {
            "lon": 3.928871584,
            "lat": 6.438236821,
            "school_name": "Name unknown",
            "country_name": "Nigeria",
            "connectivity": false
        },
        {
            "lon": -74.6502,
            "lat": -12.4306,
            "school_name": "31480",
            "country_name": "Peru",
            "connectivity": false
        },
        {
            "lon": -76.2048,
            "lat": -10.13,
            "school_name": "32133",
            "country_name": "Peru",
            "connectivity": false
        },
        {
            "lon": -78.8778,
            "lat": -6.07864,
            "school_name": "326",
            "country_name": "Peru",
            "connectivity": false
        },
        {
            "lon": -74.4171,
            "lat": -12.9055,
            "school_name": "36169",
            "country_name": "Peru",
            "connectivity": false
        },
        {
            "lon": -73.7598,
            "lat": -12.5697,
            "school_name": "38870",
            "country_name": "Peru",
            "connectivity": false
        },
        {
            "lon": -71.9163,
            "lat": -3.33354,
            "school_name": "391- BILINGUE INTERCULTURAL",
            "country_name": "Peru",
            "connectivity": false
        },
        {
            "lon": -72.6733,
            "lat": -15.7321,
            "school_name": "40662",
            "country_name": "Peru",
            "connectivity": false
        },
        {
            "lon": -74.087,
            "lat": -13.1201,
            "school_name": "432-76",
            "country_name": "Peru",
            "connectivity": false
        },
        {
            "lon": -74.2198,
            "lat": -10.7613,
            "school_name": "455",
            "country_name": "Peru",
            "connectivity": false
        },
        {
            "lon": -69.8648,
            "lat": -14.9078,
            "school_name": "466",
            "country_name": "Peru",
            "connectivity": false
        },
        {
            "lon": -71.9486,
            "lat": -13.6855,
            "school_name": "50888",
            "country_name": "Peru",
            "connectivity": false
        },
        {
            "lon": -69.4899,
            "lat": -11.4036,
            "school_name": "53004 MIGUEL GRAU",
            "country_name": "Peru",
            "connectivity": false
        },
        {
            "lon": -73.0162,
            "lat": -3.37591,
            "school_name": "6010320",
            "country_name": "Peru",
            "connectivity": false
        },
        {
            "lon": -73.1538,
            "lat": -3.44439,
            "school_name": "60891",
            "country_name": "Peru",
            "connectivity": false
        },
        {
            "lon": -74.5906,
            "lat": -8.40771,
            "school_name": "65178",
            "country_name": "Peru",
            "connectivity": false
        },
        {
            "lon": -76.1039,
            "lat": -13.3982,
            "school_name": "701",
            "country_name": "Peru",
            "connectivity": false
        },
        {
            "lon": -76.9778,
            "lat": -12.1508,
            "school_name": "7067 TORIBIO SEMINARIO",
            "country_name": "Peru",
            "connectivity": false
        },
        {
            "lon": -70.0319,
            "lat": -13.9804,
            "school_name": "72213",
            "country_name": "Peru",
            "connectivity": false
        },
        {
            "lon": -77.8198,
            "lat": -7.67997,
            "school_name": "80188",
            "country_name": "Peru",
            "connectivity": false
        },
        {
            "lon": -78.9232,
            "lat": -7.03315,
            "school_name": "821109",
            "country_name": "Peru",
            "connectivity": false
        },
        {
            "lon": -78.8173,
            "lat": -7.4791,
            "school_name": "82539",
            "country_name": "Peru",
            "connectivity": false
        },
        {
            "lon": -77.4348,
            "lat": -8.79273,
            "school_name": "84005",
            "country_name": "Peru",
            "connectivity": false
        },
        {
            "lon": -77.5968,
            "lat": -9.28439,
            "school_name": "86314 DIVINO MAESTRO",
            "country_name": "Peru",
            "connectivity": false
        },
        {
            "lon": -69.9774,
            "lat": -15.8575,
            "school_name": "70160",
            "country_name": "Peru",
            "connectivity": false
        },
        {
            "lon": -77.073,
            "lat": -9.38901,
            "school_name": "86424",
            "country_name": "Peru",
            "connectivity": false
        },
        {
            "lon": -77.7187,
            "lat": -9.11159,
            "school_name": "86749 CANCHARRUMI",
            "country_name": "Peru",
            "connectivity": false
        },
        {
            "lon": -77.7928,
            "lat": -9.76955,
            "school_name": "88395",
            "country_name": "Peru",
            "connectivity": false
        },
        {
            "lon": -72.8759,
            "lat": -14.3644,
            "school_name": "958",
            "country_name": "Peru",
            "connectivity": false
        },
        {
            "lon": -76.726,
            "lat": -9.93069,
            "school_name": "AGUA TINGO",
            "country_name": "Peru",
            "connectivity": false
        },
        {
            "lon": -76.9841,
            "lat": -12.1619,
            "school_name": "ALFRED MARSHALL",
            "country_name": "Peru",
            "connectivity": false
        },
        {
            "lon": -77.057,
            "lat": -12.0954,
            "school_name": "AMIGOS DE GONZAGA",
            "country_name": "Peru",
            "connectivity": false
        },
        {
            "lon": -77.0491,
            "lat": -12.0349,
            "school_name": "ANDRES AVELINO CACERES",
            "country_name": "Peru",
            "connectivity": false
        },
        {
            "lon": -77.0117,
            "lat": -11.9713,
            "school_name": "CARITAS FELICES",
            "country_name": "Peru",
            "connectivity": false
        },
        {
            "lon": -78.639,
            "lat": -6.25338,
            "school_name": "CARLOS AUGUSTO SALAVERRY",
            "country_name": "Peru",
            "connectivity": false
        },
        {
            "lon": -79.8689,
            "lat": -6.877,
            "school_name": "CARLOS WEISS",
            "country_name": "Peru",
            "connectivity": false
        },
        {
            "lon": -69.9685,
            "lat": -14.4613,
            "school_name": "CARPUTA COLLANA",
            "country_name": "Peru",
            "connectivity": false
        },
        {
            "lon": -76.3517,
            "lat": -13.0582,
            "school_name": "CEBA - 20145",
            "country_name": "Peru",
            "connectivity": false
        },
        {
            "lon": -75.3406,
            "lat": -11.0667,
            "school_name": "CEBA - MIGUEL GRAU SEMINARIO",
            "country_name": "Peru",
            "connectivity": false
        },
        {
            "lon": -74.8504,
            "lat": -5.97595,
            "school_name": "CESAR A. VALLEJO M.",
            "country_name": "Peru",
            "connectivity": false
        },
        {
            "lon": -77.0633,
            "lat": -11.9992,
            "school_name": "CRISTO MORADO",
            "country_name": "Peru",
            "connectivity": false
        },
        {
            "lon": -77.0756,
            "lat": -11.9546,
            "school_name": "CRUZ SACO DE VILLASOL",
            "country_name": "Peru",
            "connectivity": false
        },
        {
            "lon": -69.9642,
            "lat": -14.5144,
            "school_name": "CULLCO BELEN",
            "country_name": "Peru",
            "connectivity": false
        },
        {
            "lon": -70.2508,
            "lat": -18.0137,
            "school_name": "ESDIT ESCUELA DE GASTRONOMIA TACNA",
            "country_name": "Peru",
            "connectivity": false
        },
        {
            "lon": -78.539,
            "lat": -7.4436,
            "school_name": "FALSO POTRERO",
            "country_name": "Peru",
            "connectivity": false
        },
        {
            "lon": -76.6982,
            "lat": -11.9376,
            "school_name": "GALENO DE PERGAMO",
            "country_name": "Peru",
            "connectivity": false
        },
        {
            "lon": -70.1548,
            "lat": -15.455,
            "school_name": "RAYITOS DE LUZ",
            "country_name": "Peru",
            "connectivity": false
        },
        {
            "lon": -77.5912,
            "lat": -11.0976,
            "school_name": "HUELLITAS DE AMOR",
            "country_name": "Peru",
            "connectivity": false
        },
        {
            "lon": -77.097,
            "lat": -8.9091,
            "school_name": "JESUS DE NAZARENO",
            "country_name": "Peru",
            "connectivity": false
        },
        {
            "lon": -74.2263,
            "lat": -13.1559,
            "school_name": "LOBACHEVSKI",
            "country_name": "Peru",
            "connectivity": false
        },
        {
            "lon": -76.1865,
            "lat": -10.1056,
            "school_name": "LOS ALEGRES",
            "country_name": "Peru",
            "connectivity": false
        },
        {
            "lon": 10.1785631,
            "lat": 12.5036907,
            "school_name": "Name unknown",
            "country_name": "Nigeria",
            "connectivity": false
        },
        {
            "lon": -73.3833,
            "lat": -13.6511,
            "school_name": "LOS ARMONIOSOS",
            "country_name": "Peru",
            "connectivity": false
        },
        {
            "lon": -76.9597,
            "lat": -12.0188,
            "school_name": "SAN MIGUEL",
            "country_name": "Peru",
            "connectivity": false
        },
        {
            "lon": -76.9072,
            "lat": -12.2286,
            "school_name": "LOS CAMINANTES",
            "country_name": "Peru",
            "connectivity": false
        },
        {
            "lon": -71.5981,
            "lat": -16.4378,
            "school_name": "MADRE CORAZON DE MARIA",
            "country_name": "Peru",
            "connectivity": false
        },
        {
            "lon": -69.8343,
            "lat": -15.947,
            "school_name": "MANUEL Z. CAMACHO",
            "country_name": "Peru",
            "connectivity": false
        },
        {
            "lon": -77.8177,
            "lat": -10.6761,
            "school_name": "MARIA DE LOS ANGELES",
            "country_name": "Peru",
            "connectivity": false
        },
        {
            "lon": -74.3746,
            "lat": -13.177,
            "school_name": "OPANQA",
            "country_name": "Peru",
            "connectivity": false
        },
        {
            "lon": -76.9083,
            "lat": -12.0211,
            "school_name": "RABBAN GAMALIEL",
            "country_name": "Peru",
            "connectivity": false
        },
        {
            "lon": -75.2946,
            "lat": -7.19802,
            "school_name": "RAUL VALDEZ GORDON",
            "country_name": "Peru",
            "connectivity": false
        },
        {
            "lon": -77.0963,
            "lat": -12.04,
            "school_name": "REGINA PACIS-KINDER",
            "country_name": "Peru",
            "connectivity": false
        },
        {
            "lon": -75.8096,
            "lat": -12.7412,
            "school_name": "SAN BARTOLOME",
            "country_name": "Peru",
            "connectivity": false
        },
        {
            "lon": -76.9475,
            "lat": -12.1826,
            "school_name": "SAN FRANCISCO DE ASIS",
            "country_name": "Peru",
            "connectivity": false
        },
        {
            "lon": -81.2719,
            "lat": -4.57553,
            "school_name": "SAN IGNACIO DE LOYOLA",
            "country_name": "Peru",
            "connectivity": false
        },
        {
            "lon": -77.4959,
            "lat": -5.68978,
            "school_name": "TIWINZA",
            "country_name": "Peru",
            "connectivity": false
        },
        {
            "lon": 10.0902827,
            "lat": 12.25344118,
            "school_name": "Name unknown",
            "country_name": "Nigeria",
            "connectivity": false
        },
        {
            "lon": 7.65239243,
            "lat": 10.80561561,
            "school_name": "Name unknown",
            "country_name": "Nigeria",
            "connectivity": false
        },
        {
            "lon": 8.46654964,
            "lat": 9.667469371,
            "school_name": "Name unknown",
            "country_name": "Nigeria",
            "connectivity": false
        },
        {
            "lon": 8.314881747,
            "lat": 10.58635241,
            "school_name": "Name unknown",
            "country_name": "Nigeria",
            "connectivity": false
        },
        {
            "lon": 12.190447,
            "lat": 9.542908,
            "school_name": "Name unknown",
            "country_name": "Nigeria",
            "connectivity": false
        },
        {
            "lon": 7.94925,
            "lat": 12.08013,
            "school_name": "Name unknown",
            "country_name": "Nigeria",
            "connectivity": false
        },
        {
            "lon": 8.680651,
            "lat": 12.33257,
            "school_name": "Name unknown",
            "country_name": "Nigeria",
            "connectivity": false
        },
        {
            "lon": 8.226383,
            "lat": 11.78291,
            "school_name": "Name unknown",
            "country_name": "Nigeria",
            "connectivity": false
        },
        {
            "lon": 8.843658,
            "lat": 11.82091,
            "school_name": "Name unknown",
            "country_name": "Nigeria",
            "connectivity": false
        },
        {
            "lon": 8.558703,
            "lat": 12.25558,
            "school_name": "Name unknown",
            "country_name": "Nigeria",
            "connectivity": false
        },
        {
            "lon": 8.454429,
            "lat": 11.89621,
            "school_name": "Name unknown",
            "country_name": "Nigeria",
            "connectivity": false
        },
        {
            "lon": 5.881801,
            "lat": 8.100308,
            "school_name": "Name unknown",
            "country_name": "Nigeria",
            "connectivity": false
        },
        {
            "lon": 7.208512,
            "lat": 7.335654,
            "school_name": "Name unknown",
            "country_name": "Nigeria",
            "connectivity": false
        },
        {
            "lon": 5.624837,
            "lat": 8.078996,
            "school_name": "Name unknown",
            "country_name": "Nigeria",
            "connectivity": false
        },
        {
            "lon": 3.30618,
            "lat": 6.61447,
            "school_name": "Name unknown",
            "country_name": "Nigeria",
            "connectivity": false
        },
        {
            "lon": 3.265463482,
            "lat": 6.544833726,
            "school_name": "Name unknown",
            "country_name": "Nigeria",
            "connectivity": false
        },
        {
            "lon": 3.287068836,
            "lat": 6.570894551,
            "school_name": "Name unknown",
            "country_name": "Nigeria",
            "connectivity": false
        },
        {
            "lon": 7.132952,
            "lat": 4.866172,
            "school_name": "Name unknown",
            "country_name": "Nigeria",
            "connectivity": false
        },
        {
            "lon": 3.83829,
            "lat": 6.44178,
            "school_name": "Name unknown",
            "country_name": "Nigeria",
            "connectivity": false
        },
        {
            "lon": 3.367095,
            "lat": 6.602113,
            "school_name": "Name unknown",
            "country_name": "Nigeria",
            "connectivity": false
        },
        {
            "lon": 3.478265852,
            "lat": 6.563586895,
            "school_name": "Name unknown",
            "country_name": "Nigeria",
            "connectivity": false
        },
        {
            "lon": 3.5835,
            "lat": 6.66966,
            "school_name": "Name unknown",
            "country_name": "Nigeria",
            "connectivity": false
        },
        {
            "lon": 3.18645,
            "lat": 6.47693,
            "school_name": "Name unknown",
            "country_name": "Nigeria",
            "connectivity": false
        },
        {
            "lon": 7.822158,
            "lat": 9.120707,
            "school_name": "Name unknown",
            "country_name": "Nigeria",
            "connectivity": false
        },
        {
            "lon": 7.812861,
            "lat": 9.25964,
            "school_name": "Name unknown",
            "country_name": "Nigeria",
            "connectivity": false
        },
        {
            "lon": 8.451987,
            "lat": 8.556106,
            "school_name": "Name unknown",
            "country_name": "Nigeria",
            "connectivity": false
        },
        {
            "lon": 7.701906,
            "lat": 8.536,
            "school_name": "Name unknown",
            "country_name": "Nigeria",
            "connectivity": false
        },
        {
            "lon": 7.239635,
            "lat": 8.424211,
            "school_name": "Name unknown",
            "country_name": "Nigeria",
            "connectivity": false
        },
        {
            "lon": 5.966718793,
            "lat": 8.956705928,
            "school_name": "Name unknown",
            "country_name": "Nigeria",
            "connectivity": false
        },
        {
            "lon": 4.89313,
            "lat": 10.64932,
            "school_name": "Name unknown",
            "country_name": "Nigeria",
            "connectivity": false
        },
        {
            "lon": 6.761280298,
            "lat": 9.43443954,
            "school_name": "Name unknown",
            "country_name": "Nigeria",
            "connectivity": false
        },
        {
            "lon": 6.25092669,
            "lat": 10.18333607,
            "school_name": "Name unknown",
            "country_name": "Nigeria",
            "connectivity": false
        },
        {
            "lon": 6.692920811,
            "lat": 9.91384685,
            "school_name": "Name unknown",
            "country_name": "Nigeria",
            "connectivity": false
        },
        {
            "lon": 3.22240015,
            "lat": 6.69273114,
            "school_name": "Name unknown",
            "country_name": "Nigeria",
            "connectivity": false
        },
        {
            "lon": 3.292364899,
            "lat": 6.700981334,
            "school_name": "Name unknown",
            "country_name": "Nigeria",
            "connectivity": false
        },
        {
            "lon": 3.385873333,
            "lat": 7.144085,
            "school_name": "Name unknown",
            "country_name": "Nigeria",
            "connectivity": false
        },
        {
            "lon": 3.390213333,
            "lat": 7.196473333,
            "school_name": "Name unknown",
            "country_name": "Nigeria",
            "connectivity": false
        },
        {
            "lon": 3.671907567,
            "lat": 7.006998842,
            "school_name": "Name unknown",
            "country_name": "Nigeria",
            "connectivity": false
        },
        {
            "lon": 4.36587,
            "lat": 7.166709,
            "school_name": "Name unknown",
            "country_name": "Nigeria",
            "connectivity": false
        },
        {
            "lon": 4.924637,
            "lat": 8.027318,
            "school_name": "Name unknown",
            "country_name": "Nigeria",
            "connectivity": false
        },
        {
            "lon": 4.665387,
            "lat": 7.652861,
            "school_name": "Name unknown",
            "country_name": "Nigeria",
            "connectivity": false
        },
        {
            "lon": 4.173813,
            "lat": 7.623216,
            "school_name": "Name unknown",
            "country_name": "Nigeria",
            "connectivity": false
        },
        {
            "lon": 4.616296,
            "lat": 8.023517,
            "school_name": "Name unknown",
            "country_name": "Nigeria",
            "connectivity": false
        },
        {
            "lon": 7.710224,
            "lat": 4.794888,
            "school_name": "Name unknown",
            "country_name": "Nigeria",
            "connectivity": false
        },
        {
            "lon": 8.225396,
            "lat": 4.738789,
            "school_name": "Name unknown",
            "country_name": "Nigeria",
            "connectivity": false
        },
        {
            "lon": 8.004568,
            "lat": 4.954663,
            "school_name": "Name unknown",
            "country_name": "Nigeria",
            "connectivity": false
        },
        {
            "lon": 3.956046,
            "lat": 7.677117,
            "school_name": "Name unknown",
            "country_name": "Nigeria",
            "connectivity": false
        },
        {
            "lon": 3.879004,
            "lat": 7.430504,
            "school_name": "Name unknown",
            "country_name": "Nigeria",
            "connectivity": false
        },
        {
            "lon": 4.096117,
            "lat": 7.580248,
            "school_name": "Name unknown",
            "country_name": "Nigeria",
            "connectivity": false
        },
        {
            "lon": 4.125405,
            "lat": 8.804811,
            "school_name": "Name unknown",
            "country_name": "Nigeria",
            "connectivity": false
        },
        {
            "lon": 9.94315,
            "lat": 9.328443,
            "school_name": "Name unknown",
            "country_name": "Nigeria",
            "connectivity": false
        },
        {
            "lon": 9.83064,
            "lat": 9.09693,
            "school_name": "Name unknown",
            "country_name": "Nigeria",
            "connectivity": false
        },
        {
            "lon": 9.99855,
            "lat": 8.58074,
            "school_name": "Name unknown",
            "country_name": "Nigeria",
            "connectivity": false
        },
        {
            "lon": 9.12328,
            "lat": 9.4665,
            "school_name": "Name unknown",
            "country_name": "Nigeria",
            "connectivity": false
        },
        {
            "lon": 9.470017,
            "lat": 9.396363,
            "school_name": "Name unknown",
            "country_name": "Nigeria",
            "connectivity": false
        },
        {
            "lon": 6.876274,
            "lat": 4.885913,
            "school_name": "Name unknown",
            "country_name": "Nigeria",
            "connectivity": false
        },
        {
            "lon": 6.947761,
            "lat": 4.810221,
            "school_name": "Name unknown",
            "country_name": "Nigeria",
            "connectivity": false
        },
        {
            "lon": 6.597777852,
            "lat": 5.225577607,
            "school_name": "Name unknown",
            "country_name": "Nigeria",
            "connectivity": false
        },
        {
            "lon": 9.929937,
            "lat": 6.898443,
            "school_name": "Name unknown",
            "country_name": "Nigeria",
            "connectivity": false
        },
        {
            "lon": 6.746941,
            "lat": 6.329123,
            "school_name": "Name unknown",
            "country_name": "Nigeria",
            "connectivity": false
        },
        {
            "lon": 7.0542,
            "lat": 6.27786,
            "school_name": "Name unknown",
            "country_name": "Nigeria",
            "connectivity": false
        },
        {
            "lon": 6.82743,
            "lat": 6.1612,
            "school_name": "Name unknown",
            "country_name": "Nigeria",
            "connectivity": false
        },
        {
            "lon": 6.779621,
            "lat": 6.164473,
            "school_name": "Name unknown",
            "country_name": "Nigeria",
            "connectivity": false
        },
        {
            "lon": 7.98134217,
            "lat": 12.4679943,
            "school_name": "Name unknown",
            "country_name": "Nigeria",
            "connectivity": false
        },
        {
            "lon": 7.65450864,
            "lat": 12.16651957,
            "school_name": "Name unknown",
            "country_name": "Nigeria",
            "connectivity": false
        },
        {
            "lon": 9.59348697,
            "lat": 9.60362005,
            "school_name": "Name unknown",
            "country_name": "Nigeria",
            "connectivity": false
        },
        {
            "lon": 10.20857796,
            "lat": 11.28464553,
            "school_name": "Name unknown",
            "country_name": "Nigeria",
            "connectivity": false
        },
        {
            "lon": 5.10560077,
            "lat": 11.50917159,
            "school_name": "Name unknown",
            "country_name": "Nigeria",
            "connectivity": false
        },
        {
            "lon": 5.24321673,
            "lat": 13.35299308,
            "school_name": "Name unknown",
            "country_name": "Nigeria",
            "connectivity": false
        },
        {
            "lon": 6.40417209,
            "lat": 13.33680505,
            "school_name": "Name unknown",
            "country_name": "Nigeria",
            "connectivity": false
        },
        {
            "lon": 4.599010405,
            "lat": 12.21641202,
            "school_name": "Name unknown",
            "country_name": "Nigeria",
            "connectivity": false
        },
        {
            "lon": 8.16377,
            "lat": 7.54918,
            "school_name": "Name unknown",
            "country_name": "Nigeria",
            "connectivity": false
        },
        {
            "lon": 11.10182188,
            "lat": 12.70107599,
            "school_name": "Name unknown",
            "country_name": "Nigeria",
            "connectivity": false
        },
        {
            "lon": 8.089034,
            "lat": 6.989101,
            "school_name": "Name unknown",
            "country_name": "Nigeria",
            "connectivity": false
        },
        {
            "lon": 5.822126269,
            "lat": 12.13442087,
            "school_name": "Name unknown",
            "country_name": "Nigeria",
            "connectivity": false
        },
        {
            "lon": 5.8734,
            "lat": 12.69846,
            "school_name": "Name unknown",
            "country_name": "Nigeria",
            "connectivity": false
        },
        {
            "lon": 8.824006667,
            "lat": 6.352776667,
            "school_name": "Name unknown",
            "country_name": "Nigeria",
            "connectivity": false
        },
        {
            "lon": 8.9169278,
            "lat": 6.4882791,
            "school_name": "Name unknown",
            "country_name": "Nigeria",
            "connectivity": false
        },
        {
            "lon": 30.95455,
            "lat": -29.93622,
            "school_name": "Clairwood Hospital Primary School",
            "country_name": "South Africa",
            "connectivity": false
        },
        {
            "lon": 28.12235,
            "lat": -26.01263,
            "school_name": "Ads Company-Operative Training",
            "country_name": "South Africa",
            "connectivity": false
        },
        {
            "lon": 31.28899,
            "lat": -0.47548,
            "school_name": "EXCEL NURSERY AND PRIMARY SCHOOL",
            "country_name": "Uganda",
            "connectivity": false
        },
        {
            "lon": -58.24748147,
            "lat": -34.74582447,
            "school_name": "ESCUELA PRIMARIA N\u00ba74 MERCEDES TOMASA SAN MARTIN DE BALCARC",
            "country_name": "Argentina",
            "connectivity": false
        },