{
    "name": "Patchwork Kingdom #888 | Velyulora",
    "description": "The twin kingdoms of Velyulora, separated by a digital divide. A bustling kingdom of 83 schools on top that are all connected to the internet, and 46 schools, not connected, hidden in the upside down kingdom | Created for Giga (GigaConnect.org) \u2014 connecting every school in the world \u2014 in celebration of UNICEF's 75th birthday, by Nadieh Bremer",
    "external_url": "https://dummyURL.com/patchwork_kingdoms_888",
    "image": "https://dummy-storage-url.com/patchwork_kingdoms_888.png",
    "attributes": [
        {
            "trait_type": "Color palette",
            "value": "slime"
        },
        {
            "display_type": "number",
            "trait_type": "Schools",
            "value": 138,
            "max_value": 460
        },
        {
            "display_type": "number",
            "trait_type": "Ratio - Connected",
            "value": 0.6,
            "max_value": 1
        },
        {
            "display_type": "number",
            "trait_type": "Ratio - Unconnected",
            "value": 0.33,
            "max_value": 1
        },
        {
            "display_type": "number",
            "trait_type": "Ratio - Data unavailable",
            "value": 0.07,
            "max_value": 1
        },
        {
            "trait_type": "Countries",
            "value": "BR-CO-CR-HN-KZ-NA-PH-PS-RW-SL-ZW"
        },
        {
            "display_type": "number",
            "trait_type": "Symbols",
            "value": 36,
            "max_value": 51
        }
    ],
    "cluster_id": 888,
    "num_schools": 138,
    "num_schools_connected": 83,
    "num_schools_unconnected": 46,
    "num_schools_unknown": 9,
    "schools": [
        {
            "lon": -87.22821,
            "lat": 15.57449,
            "school_name": "JOSE TRINIDAD CABA\u00c3\u2018AS",
            "country_name": "Honduras",
            "connectivity": true
        },
        {
            "lon": -86.47024,
            "lat": 15.7813,
            "school_name": "JARDIN DE NI\u00c3\u2018OS RIGOBERTO GONZALEZ",
            "country_name": "Honduras",
            "connectivity": true
        },
        {
            "lon": -88.3959,
            "lat": 14.21707,
            "school_name": "GRACIAS A DIOS",
            "country_name": "Honduras",
            "connectivity": true
        },
        {
            "lon": 32.43743,
            "lat": -18.67297,
            "school_name": "GANDANZARA",
            "country_name": "Zimbabwe",
            "connectivity": true
        },
        {
            "lon": -88.94294,
            "lat": 14.98481,
            "school_name": "JOSE CECILIO DEL VALLE",
            "country_name": "Honduras",
            "connectivity": true
        },
        {
            "lon": -87.37658,
            "lat": 14.1535,
            "school_name": "MINERVA",
            "country_name": "Honduras",
            "connectivity": true
        },
        {
            "lon": -42.2937,
            "lat": -8.0649,
            "school_name": "U E PROFA MARIA BERONISIA DE SOUSA",
            "country_name": "Brazil",
            "connectivity": true
        },
        {
            "lon": 29.74016667,
            "lat": -2.195194444,
            "school_name": "FAITH AND HOPE RWINYANA SCHOOL",
            "country_name": "Rwanda",
            "connectivity": false
        },
        {
            "lon": -84.75898674,
            "lat": 10.62269906,
            "school_name": "EL BURIO",
            "country_name": "Costa Rica",
            "connectivity": true
        },
        {
            "lon": -84.00407238,
            "lat": 9.65403163,
            "school_name": "GUADALUPE",
            "country_name": "Costa Rica",
            "connectivity": true
        },
        {
            "lon": -84.92539284,
            "lat": 10.42613756,
            "school_name": "PUEBLO NUEVO",
            "country_name": "Costa Rica",
            "connectivity": true
        },
        {
            "lon": 35.070082,
            "lat": 32.368819,
            "school_name": "A ttil Secondary Boys",
            "country_name": "Palestine",
            "connectivity": true
        },
        {
            "lon": 31.14315,
            "lat": -17.49976,
            "school_name": "KACHUTA",
            "country_name": "Zimbabwe",
            "connectivity": true
        },
        {
            "lon": 35.461481,
            "lat": 31.85455,
            "school_name": "game'ya",
            "country_name": "Palestine",
            "connectivity": true
        },
        {
            "lon": 35.146467,
            "lat": 31.577457,
            "school_name": "shohada alshuke basic bys",
            "country_name": "Palestine",
            "connectivity": true
        },
        {
            "lon": -84.67759031,
            "lat": 10.21241118,
            "school_name": "LICEO RURAL DE CEDRAL",
            "country_name": "Costa Rica",
            "connectivity": true
        },
        {
            "lon": -84.40253952,
            "lat": 10.44792884,
            "school_name": "COLEGIO SAN FRANCISCO DE LA PALMERA",
            "country_name": "Costa Rica",
            "connectivity": true
        },
        {
            "lon": 31.60459,
            "lat": -20.01205,
            "school_name": "GWINDINGWI",
            "country_name": "Zimbabwe",
            "connectivity": true
        },
        {
            "lon": 19.76124,
            "lat": -17.91423,
            "school_name": "Rundu ChristianPriv. CS",
            "country_name": "Namibia",
            "connectivity": false
        },
        {
            "lon": 121.275497,
            "lat": 12.565622,
            "school_name": "Sta. Brigida ES",
            "country_name": "Philippines",
            "connectivity": true
        },
        {
            "lon": 124.795095,
            "lat": 11.635048,
            "school_name": "Daram CS",
            "country_name": "Philippines",
            "connectivity": true
        },
        {
            "lon": 125.041756,
            "lat": 7.574755,
            "school_name": "Miaray Elementary School",
            "country_name": "Philippines",
            "connectivity": true
        },
        {
            "lon": -70.813333,
            "lat": 6.713056,
            "school_name": "I.E. MATECANDELA - SEDE PRINCIPAL",
            "country_name": "Colombia",
            "connectivity": true
        },
        {
            "lon": -72.293333,
            "lat": 5.651111,
            "school_name": "ESC ALTAMIRA",
            "country_name": "Colombia",
            "connectivity": true
        },
        {
            "lon": -73.028056,
            "lat": 2.874722,
            "school_name": "SEDE LA LINDOSA",
            "country_name": "Colombia",
            "connectivity": true
        },
        {
            "lon": -73.18430771,
            "lat": 6.575793439,
            "school_name": "ESCUELA RURAL EL VOLADOR",
            "country_name": "Colombia",
            "connectivity": true
        },
        {
            "lon": -75.175833,
            "lat": 5.260556,
            "school_name": "INSTITUCI\u00d3N EDUCATIVA LA UNI\u00d3N",
            "country_name": "Colombia",
            "connectivity": true
        },
        {
            "lon": -75.20722222,
            "lat": 9.80516666,
            "school_name": "SAGRADO CORAZON DE JESUS DE ARENAS",
            "country_name": "Colombia",
            "connectivity": true
        },
        {
            "lon": -75.49787513,
            "lat": 5.98700206,
            "school_name": "C. E. R. GABRIEL VALLEJO",
            "country_name": "Colombia",
            "connectivity": true
        },
        {
            "lon": -75.881169,
            "lat": 9.021103,
            "school_name": "UNION:  NAPAL- LA TRAMPA",
            "country_name": "Colombia",
            "connectivity": true
        },
        {
            "lon": -76.61138889,
            "lat": 0.50472222,
            "school_name": "C.E.R. VILLA VICTORIA",
            "country_name": "Colombia",
            "connectivity": true
        },
        {
            "lon": -76.87680556,
            "lat": 0.63386111,
            "school_name": "C.E.R. ALTAMIRA - SEDE PRINCIPAL",
            "country_name": "Colombia",
            "connectivity": true
        },
        {
            "lon": -77.88407496,
            "lat": 2.570071968,
            "school_name": "MANUEL DE VALVERDE (sede principal)",
            "country_name": "Colombia",
            "connectivity": true
        },
        {
            "lon": -78.33956294,
            "lat": 2.242461383,
            "school_name": "CENTRO EDUCATIVO ALTO SAN ANTONIO",
            "country_name": "Colombia",
            "connectivity": true
        },
        {
            "lon": -78.61472567,
            "lat": 1.672291789,
            "school_name": "SEDE # 1 SAN AGUSTIN EL GUABO",
            "country_name": "Colombia",
            "connectivity": true
        },
        {
            "lon": -57.8223,
            "lat": -3.4125,
            "school_name": "ESC MUN PROFESSOR MARIO ALMEIDA",
            "country_name": "Brazil",
            "connectivity": false
        },
        {
            "lon": -69.9742,
            "lat": -4.3394,
            "school_name": "ESC MUL ESPERANCA DO SOLIMOES",
            "country_name": "Brazil",
            "connectivity": false
        },
        {
            "lon": -50.3273,
            "lat": -4.557,
            "school_name": "E M E F ANTONIO VIEIRA DE CARVALHO",
            "country_name": "Brazil",
            "connectivity": true
        },
        {
            "lon": -49.8633,
            "lat": -2.0061,
            "school_name": "C M P I ELOISE FERNANDA SANTANA BARBOSA",
            "country_name": "Brazil",
            "connectivity": true
        },
        {
            "lon": -46.8155,
            "lat": -23.6282,
            "school_name": "ISABEL LUCCI DE OLIVEIRA PROFESSORA",
            "country_name": "Brazil",
            "connectivity": true
        },
        {
            "lon": -48.9714,
            "lat": -5.4447,
            "school_name": "E M E F ALVINA ALVES CARNEIRO",
            "country_name": "Brazil",
            "connectivity": true
        },
        {
            "lon": -48.9029,
            "lat": -18.494,
            "school_name": "EM DO BRILHANTE",
            "country_name": "Brazil",
            "connectivity": true
        },
        {
            "lon": -45.8004,
            "lat": -2.1523,
            "school_name": "ESCOLA DE ENSINO FUNDAMENTAL SOFIA JORGE CRUZ",
            "country_name": "Brazil",
            "connectivity": false
        },
        {
            "lon": -45.9277,
            "lat": -3.7017,
            "school_name": "UE GOVERNADOR LUIS ROCHA",
            "country_name": "Brazil",
            "connectivity": false
        },
        {
            "lon": -48.2643,
            "lat": -15.7559,
            "school_name": "COLEGIO ESTADUAL DE AGUAS LINDAS",
            "country_name": "Brazil",
            "connectivity": true
        },
        {
            "lon": -44.1608,
            "lat": -2.6208,
            "school_name": "JI PEQUENO POLEGAR",
            "country_name": "Brazil",
            "connectivity": false
        },
        {
            "lon": -44.1058,
            "lat": -2.4462,
            "school_name": "UE VILA NOVA",
            "country_name": "Brazil",
            "connectivity": false
        },
        {
            "lon": -47.4907,
            "lat": -4.9367,
            "school_name": "EM PROFESSORA MARGARIDA",
            "country_name": "Brazil",
            "connectivity": true
        },
        {
            "lon": -45.4395,
            "lat": -3.2768,
            "school_name": "EM TOMAS DE AQUINO SOUSA",
            "country_name": "Brazil",
            "connectivity": false
        },
        {
            "lon": -44.1944,
            "lat": -2.5651,
            "school_name": "UEB ENS FUND GOVERNADOR JACKSON KEPLER LAGO",
            "country_name": "Brazil",
            "connectivity": true
        },
        {
            "lon": -42.5797,
            "lat": -10.0077,
            "school_name": "CRECHE MUNICIPAL DR CLERISTON ANDRADE",
            "country_name": "Brazil",
            "connectivity": true
        },
        {
            "lon": -41.7556,
            "lat": -2.9319,
            "school_name": "ESCOLA MUNICIPAL DE EDUCACAO INFANTIL SONIA VIANA",
            "country_name": "Brazil",
            "connectivity": false
        },
        {
            "lon": -38.828,
            "lat": -4.1356,
            "school_name": "JOAO DAMASCENO VIEIRA - E E F",
            "country_name": "Brazil",
            "connectivity": true
        },
        {
            "lon": -37.7667,
            "lat": -4.5551,
            "school_name": "ANGELA CLOTILDE DE SOUSA CEI PROF",
            "country_name": "Brazil",
            "connectivity": true
        },
        {
            "lon": -36.8923,
            "lat": -7.6596,
            "school_name": "ESCOLA AGROTECNICA DEPUTADO EVALDO GONCALVES DE QUEIROZ",
            "country_name": "Brazil",
            "connectivity": true
        },
        {
            "lon": -38.6816,
            "lat": -6.9202,
            "school_name": "CRECHE FILOMENA ANA DE JESUS",
            "country_name": "Brazil",
            "connectivity": false
        },
        {
            "lon": -49.564,
            "lat": -3.7766,
            "school_name": "E M E I F LEONARDO MENDES DE AZEVEDO",
            "country_name": "Brazil",
            "connectivity": true
        },
        {
            "lon": -39.9409,
            "lat": -8.9885,
            "school_name": "ESCOLA FRANCESCO MAURO",
            "country_name": "Brazil",
            "connectivity": true
        },
        {
            "lon": -37.7,
            "lat": -10.5956,
            "school_name": "ESC MUN PEDRO ALMEIDA VALADARES",
            "country_name": "Brazil",
            "connectivity": true
        },
        {
            "lon": -36.7806,
            "lat": -10.6642,
            "school_name": "ESC MUL ESTER RIBEIRO DANTAS",
            "country_name": "Brazil",
            "connectivity": true
        },
        {
            "lon": -43.5786,
            "lat": -9.4568,
            "school_name": "ESCOLA MUNICIPAL ANTONIO ALBERTO DUARTE",
            "country_name": "Brazil",
            "connectivity": false
        },
        {
            "lon": -44.1321,
            "lat": -20.0498,
            "school_name": "EM JUSCELINO DIAS MAGALHAES",
            "country_name": "Brazil",
            "connectivity": true
        },
        {
            "lon": -43.558,
            "lat": -21.2456,
            "school_name": "EE JUSCELINO BENEDITO DE ARAUJO",
            "country_name": "Brazil",
            "connectivity": true
        },
        {
            "lon": -50.1189,
            "lat": -25.0922,
            "school_name": "OTACILIA H OLIVEIRA E M PROFA EI EF",
            "country_name": "Brazil",
            "connectivity": true
        },
        {
            "lon": -40.1879,
            "lat": -18.099,
            "school_name": "EMUEF PROF ALMERINDA REZENDE FIORIO",
            "country_name": "Brazil",
            "connectivity": true
        },
        {
            "lon": -40.9191,
            "lat": -20.4723,
            "school_name": "EMEF SAO BENTO DE URANIA",
            "country_name": "Brazil",
            "connectivity": true
        },
        {
            "lon": -42.2313,
            "lat": -22.6726,
            "school_name": "E M SYLVIA VASCONCELLOS",
            "country_name": "Brazil",
            "connectivity": true
        },
        {
            "lon": -41.9427,
            "lat": -21.3596,
            "school_name": "CE MARIA LENY VIEIRA FERREIRA SILVA",
            "country_name": "Brazil",
            "connectivity": true
        },
        {
            "lon": -43.531,
            "lat": -22.9135,
            "school_name": "0918614 CRECHE MUNICIPAL ZELIA CHAUKE CURI",
            "country_name": "Brazil",
            "connectivity": true
        },
        {
            "lon": -42.6519,
            "lat": -22.464,
            "school_name": "CENTRO DE RECURSO EDUCACIONAL ESPECIALIZADO MUNICIPAL",
            "country_name": "Brazil",
            "connectivity": true
        },
        {
            "lon": -50.1617,
            "lat": -25.0579,
            "school_name": "AMADEU PUPPI E M PREF DR EI EF",
            "country_name": "Brazil",
            "connectivity": true
        },
        {
            "lon": -46.8967,
            "lat": -22.7111,
            "school_name": "CIMEI MARIA CECILIA BETIOLLI LIMA",
            "country_name": "Brazil",
            "connectivity": true
        },
        {
            "lon": -49.6792,
            "lat": -28.9306,
            "school_name": "EEB JORGE SCHUTZ",
            "country_name": "Brazil",
            "connectivity": true
        },
        {
            "lon": -48.393,
            "lat": -21.5168,
            "school_name": "JOSE JORGE FERREIRA DA SILVA CRECHE ESCOLA DE ED INFANTIL",
            "country_name": "Brazil",
            "connectivity": true
        },
        {
            "lon": -46.7584,
            "lat": -23.5223,
            "school_name": "ETEC DR CELSO GIGLIO",
            "country_name": "Brazil",
            "connectivity": true
        },
        {
            "lon": -43.1659,
            "lat": -22.1024,
            "school_name": "E M JUVENTINO DA MOTTA MORAES",
            "country_name": "Brazil",
            "connectivity": true
        },
        {
            "lon": -48.6739,
            "lat": -26.7693,
            "school_name": "EEB ALEXANDRE GUILHERME FIGUEREDO",
            "country_name": "Brazil",
            "connectivity": true
        },
        {
            "lon": -49.4627,
            "lat": -27.4096,
            "school_name": "EI FRANCISCO FEIFARECK JUNIOR",
            "country_name": "Brazil",
            "connectivity": true
        },
        {
            "lon": -48.6592,
            "lat": -27.2484,
            "school_name": "CEI OLEGARIO JOAO CLEMES",
            "country_name": "Brazil",
            "connectivity": true
        },
        {
            "lon": -54.0114,
            "lat": -28.246,
            "school_name": "EMEI CRIANCA FELIZ",
            "country_name": "Brazil",
            "connectivity": true
        },
        {
            "lon": -46.5461,
            "lat": -23.5115,
            "school_name": "VITAL FOGACA DE ALMEIDA DOUTOR",
            "country_name": "Brazil",
            "connectivity": true
        },
        {
            "lon": -49.1621,
            "lat": -22.8708,
            "school_name": "AVELINO APARECIDO RIBEIRO DOUTOR",
            "country_name": "Brazil",
            "connectivity": true
        },
        {
            "lon": -47.6184,
            "lat": -16.7714,
            "school_name": "IF GOIANO - CAMPUS AVANCADO CRISTALINA",
            "country_name": "Brazil",
            "connectivity": true
        },
        {
            "lon": -48.0975,
            "lat": -15.891,
            "school_name": "CEF 507 DE SAMAMBAIA",
            "country_name": "Brazil",
            "connectivity": true
        },
        {
            "lon": -40.2059,
            "lat": -14.3635,
            "school_name": "CRECHE MUNICIPAL TIA LICINHA",
            "country_name": "Brazil",
            "connectivity": true
        },
        {
            "lon": -51.5549,
            "lat": -26.1572,
            "school_name": "OSCAR GEYER E M DR EI EF",
            "country_name": "Brazil",
            "connectivity": true
        },
        {
            "lon": -54.7229,
            "lat": -2.589,
            "school_name": "E M E I E F S JOSE",
            "country_name": "Brazil",
            "connectivity": true
        },
        {
            "lon": -48.1156,
            "lat": -15.8375,
            "school_name": "CEF 18 DE CEILANDIA",
            "country_name": "Brazil",
            "connectivity": true
        },
        {
            "lon": -48.069,
            "lat": -15.906,
            "school_name": "CEF 206 DO RECANTO DAS EMAS",
            "country_name": "Brazil",
            "connectivity": true
        },
        {
            "lon": -56.7793,
            "lat": -2.6546,
            "school_name": "ESCOLA MUNICIPAL SANTA TEREZINHA",
            "country_name": "Brazil",
            "connectivity": true
        },
        {
            "lon": -50.612,
            "lat": -24.3215,
            "school_name": "FEIJO E M REGENTE EI EF",
            "country_name": "Brazil",
            "connectivity": true
        },
        {
            "lon": -41.5161,
            "lat": -6.8666,
            "school_name": "ESC MUL SAO JOAO BATISTA",
            "country_name": "Brazil",
            "connectivity": true
        },
        {
            "lon": -39.049,
            "lat": -7.5437,
            "school_name": "ESC PROFESSORA BEATRIZ PINHEIRO DA COSTA EEIF",
            "country_name": "Brazil",
            "connectivity": true
        },
        {
            "lon": -35.2805,
            "lat": -8.1171,
            "school_name": "ESCOLA MADRE LUCILA MAGALHAES",
            "country_name": "Brazil",
            "connectivity": true
        },
        {
            "lon": -37.2579,
            "lat": -9.7858,
            "school_name": "ESCOLA MUNICIPAL CORONEL JOAQUIM FREITAS MELRO",
            "country_name": "Brazil",
            "connectivity": true
        }
    ],
    "num_countries": 11,
    "countries": [
        "Brazil",
        "Colombia",
        "Costa Rica",
        "Honduras",
        "Kazakhstan",
        "Namibia",
        "Palestine",
        "Philippines",
        "Rwanda",
        "Sierra Leone",
        "Zimbabwe"
    ],
    "schools_no_data": [
        {
            "lon": 27.6802344,
            "lat": -20.9540029,
            "school_name": "Jackalas II",
            "country_name": "Botswana",
            "connectivity": false
        },
        {
            "lon": 23.4197456,
            "lat": -19.9934843,
            "school_name": "Moremi III (RPC)",
            "country_name": "Botswana",
            "connectivity": false
        },
        {
            "lon": 10.564612,
            "lat": 4.0560855,
            "school_name": "Lyc\u00e9e",
            "country_name": "Cameroon",
            "connectivity": false
        },
        {
            "lon": -61.13728765,
            "lat": -34.10958001,
            "school_name": "ESC. AGROT. CONCEPCION G. DE UNZUE",
            "country_name": "Argentina",
            "connectivity": false
        },
        {
            "lon": -9.513432,
            "lat": 6.351996,
            "school_name": "Saywrayne Public",
            "country_name": "Liberia",
            "connectivity": false
        },
        {
            "lon": 25.88959061,
            "lat": -5.918552074,
            "school_name": "INST KUFUKAMA",
            "country_name": "Democratic Republic of the Congo",
            "connectivity": false
        },
        {
            "lon": 33.85965403,
            "lat": 17.56222215,
            "school_name": "Name unknown",
            "country_name": "Sudan",
            "connectivity": false
        },
        {
            "lon": 33.68183697,
            "lat": 17.01751677,
            "school_name": "Name unknown",
            "country_name": "Sudan",
            "connectivity": false
        },
        {
            "lon": 32.834991,
            "lat": 14.9004798,
            "school_name": "Name unknown",
            "country_name": "Sudan",
            "connectivity": false
        },
        {
            "lon": 33.3167047333333,
            "lat": 14.7106846666667,
            "school_name": "Name unknown",
            "country_name": "Sudan",
            "connectivity": false
        },
        {
            "lon": 32.65269003,
            "lat": 13.1696176,
            "school_name": "Name unknown",
            "country_name": "Sudan",
            "connectivity": false
        },
        {
            "lon": -0.2890249,
            "lat": 5.7190791,
            "school_name": "Name unknown",
            "country_name": "Ghana",
            "connectivity": false
        },
        {
            "lon": -2.7083746,
            "lat": 7.0953935,
            "school_name": "Name unknown",
            "country_name": "Ghana",
            "connectivity": false
        },
        {
            "lon": -1.4833675,
            "lat": 6.9299309,
            "school_name": "Name unknown",
            "country_name": "Ghana",
            "connectivity": false
        },
        {
            "lon": -0.6251337,
            "lat": 5.3496418,
            "school_name": "Name unknown",
            "country_name": "Ghana",
            "connectivity": false
        },
        {
            "lon": -1.0598373,
            "lat": 6.6258383,
            "school_name": "Name unknown",
            "country_name": "Ghana",
            "connectivity": false
        },
        {
            "lon": 30.5337,
            "lat": -2.47993,
            "school_name": "MWIVUZA",
            "country_name": "United Republic of Tanzania",
            "connectivity": false
        },
        {
            "lon": 33.40058,
            "lat": -9.20486,
            "school_name": "MWALA",
            "country_name": "United Republic of Tanzania",
            "connectivity": false
        },
        {
            "lon": 37.19023,
            "lat": -6.00954,
            "school_name": "IYOGWE",
            "country_name": "United Republic of Tanzania",
            "connectivity": false
        },
        {
            "lon": 39.25872,
            "lat": -6.81585,
            "school_name": "DEEP SEA",
            "country_name": "United Republic of Tanzania",
            "connectivity": false
        },
        {
            "lon": 36.116,
            "lat": -6.42901,
            "school_name": "CHINOJE",
            "country_name": "United Republic of Tanzania",
            "connectivity": false
        },
        {
            "lon": 36.68466,
            "lat": -8.13429,
            "school_name": "JANGWANI",
            "country_name": "United Republic of Tanzania",
            "connectivity": false
        },
        {
            "lon": -2.3584422,
            "lat": 7.3578556,
            "school_name": "Name unknown",
            "country_name": "Ghana",
            "connectivity": false
        },
        {
            "lon": -2.6893115,
            "lat": 7.9430227,
            "school_name": "Name unknown",
            "country_name": "Ghana",
            "connectivity": false
        },
        {
            "lon": 37.5378386,
            "lat": -1.81684,
            "school_name": "Name unknown",
            "country_name": "Kenya",
            "connectivity": false
        },
        {
            "lon": 21.419338,
            "lat": 44.89913,
            "school_name": "\u0416\u0430\u0440\u043a\u043e \u0417\u0440\u0435\u045a\u0430\u043d\u0438\u043d",
            "country_name": "Serbia",
            "connectivity": false
        },
        {
            "lon": 0.061138333,
            "lat": 11.06329667,
            "school_name": "JEP KPONDJOARE",
            "country_name": "Togo",
            "connectivity": false
        },
        {
            "lon": 1.14863,
            "lat": 6.19687,
            "school_name": "EPL LA CONSOLATION",
            "country_name": "Togo",
            "connectivity": false
        },
        {
            "lon": 0.768538,
            "lat": 7.516874,
            "school_name": "EPP ONA G/A",
            "country_name": "Togo",
            "connectivity": false
        },
        {
            "lon": 1.031045,
            "lat": 7.620866,
            "school_name": "EPP OKPAKOU",
            "country_name": "Togo",
            "connectivity": false
        },
        {
            "lon": 1.165638,
            "lat": 7.31810801,
            "school_name": "EPC GLEI G/B",
            "country_name": "Togo",
            "connectivity": false
        },
        {
            "lon": 0.683546667,
            "lat": 6.706183333,
            "school_name": "EPL KEKELI",
            "country_name": "Togo",
            "connectivity": false
        },
        {
            "lon": 1.4126007,
            "lat": 9.203358,
            "school_name": "EPI GOUNI BOU",
            "country_name": "Togo",
            "connectivity": false
        },
        {
            "lon": 6.530066,
            "lat": 6.293736,
            "school_name": "Name unknown",
            "country_name": "Nigeria",
            "connectivity": false
        },
        {
            "lon": 19.52176094,
            "lat": 44.73953961,
            "school_name": "\u0412\u043e\u0458\u0432\u043e\u0434\u0430 \u0421\u0442\u0435\u043f\u0430",
            "country_name": "Serbia",
            "connectivity": false
        },
        {
            "lon": 21.472555,
            "lat": 44.135243,
            "school_name": "\u0414\u0435\u0441\u043f\u043e\u0442 \u0421\u0442\u0435\u0444\u0430\u043d \u0412\u0438\u0441\u043e\u043a\u0438",
            "country_name": "Serbia",
            "connectivity": false
        },
        {
            "lon": 34.38999,
            "lat": -1.3524,
            "school_name": "REBU",
            "country_name": "United Republic of Tanzania",
            "connectivity": false
        },
        {
            "lon": 33.50746,
            "lat": -3.46104,
            "school_name": "NG'WIGUMBI",
            "country_name": "United Republic of Tanzania",
            "connectivity": false
        },
        {
            "lon": 30.0792,
            "lat": -4.24578,
            "school_name": "KAZAMWENDO",
            "country_name": "United Republic of Tanzania",
            "connectivity": false
        },
        {
            "lon": 36.40532,
            "lat": -6.44672,
            "school_name": "GULWE",
            "country_name": "United Republic of Tanzania",
            "connectivity": false
        },
        {
            "lon": 0.217156667,
            "lat": 10.743865,
            "school_name": "CEGIL KONKWAL",
            "country_name": "Togo",
            "connectivity": false
        },
        {
            "lon": 0.024427,
            "lat": 10.794492,
            "school_name": "LYCEE LOTOGOU",
            "country_name": "Togo",
            "connectivity": false
        },
        {
            "lon": -78.1677,
            "lat": -6.8457,
            "school_name": "82443",
            "country_name": "Peru",
            "connectivity": false
        },
        {
            "lon": 33.14645569,
            "lat": -9.551400506,
            "school_name": "Kameme CDSS",
            "country_name": "Malawi",
            "connectivity": false
        },
        {
            "lon": 33.85144,
            "lat": -2.1614,
            "school_name": "NYATWALI",
            "country_name": "United Republic of Tanzania",
            "connectivity": false
        },
        {
            "lon": 34.66669384,
            "lat": -16.12194816,
            "school_name": "Vimvi",
            "country_name": "Malawi",
            "connectivity": false
        },
        {
            "lon": 35.33862401,
            "lat": -16.15744797,
            "school_name": "Chinyama",
            "country_name": "Malawi",
            "connectivity": false
        },
        {
            "lon": 20.31194069,
            "lat": -1.547462281,
            "school_name": "INST BOKETSU",
            "country_name": "Democratic Republic of the Congo",
            "connectivity": false
        },
        {
            "lon": 20.20380285,
            "lat": -6.244176546,
            "school_name": "INST ZANGO",
            "country_name": "Democratic Republic of the Congo",
            "connectivity": false
        },
        {
            "lon": 24.26696375,
            "lat": -6.417932639,
            "school_name": "INST KAKUNU",
            "country_name": "Democratic Republic of the Congo",
            "connectivity": false
        },
        {
            "lon": 29.21908572,
            "lat": -1.653283611,
            "school_name": "INST UJUMBE",
            "country_name": "Democratic Republic of the Congo",
            "connectivity": false
        },
        {
            "lon": 28.59038557,
            "lat": -1.277330272,
            "school_name": "INST KARAMBI",
            "country_name": "Democratic Republic of the Congo",
            "connectivity": false
        },
        {
            "lon": 28.68114366,
            "lat": -3.933678477,
            "school_name": "EP KIVUMU",
            "country_name": "Democratic Republic of the Congo",
            "connectivity": false
        },
        {
            "lon": 7.023642704,
            "lat": 5.778091623,
            "school_name": "Name unknown",
            "country_name": "Nigeria",
            "connectivity": false
        },
        {
            "lon": -68.604356,
            "lat": -16.891203,
            "school_name": "PUJSANI",
            "country_name": "Bolivia (Plurinational State of)",
            "connectivity": false
        },
        {
            "lon": 30.53333,
            "lat": -4.91667,
            "school_name": "ILUNDE",
            "country_name": "United Republic of Tanzania",
            "connectivity": false
        },
        {
            "lon": -104.662293,
            "lat": 24.030417,
            "school_name": "ESCUELA PREPARATORIA DE LA UNIVERSIDAD JUAREZ DEL ESTADO DE DURANGO",
            "country_name": "Mexico",
            "connectivity": false
        },
        {
            "lon": -96.12895,
            "lat": 19.19287,
            "school_name": "COLEGIO JUAN WICKLIFFE",
            "country_name": "Mexico",
            "connectivity": false
        },
        {
            "lon": 33.97427,
            "lat": 1.52898,
            "school_name": "KUMI HOSPITAL TRAINING SCHOOL",
            "country_name": "Uganda",
            "connectivity": false
        },
        {
            "lon": 33.79803,
            "lat": 1.63897,
            "school_name": "BRIGHT KIDS N/P SCH",
            "country_name": "Uganda",
            "connectivity": false
        },
        {
            "lon": 31.29137,
            "lat": -0.37434,
            "school_name": "ST KIZITO MALONGO PRIM SCHL",
            "country_name": "Uganda",
            "connectivity": false
        },
        {
            "lon": 32.30887,
            "lat": 2.78351,
            "school_name": "Angaya P.S.",
            "country_name": "Uganda",
            "connectivity": false
        },
        {
            "lon": 30.5001,
            "lat": 0.58028,
            "school_name": "Kyakayombya P.S.",
            "country_name": "Uganda",
            "connectivity": false
        },
        {
            "lon": 30.94392,
            "lat": 3.46417,
            "school_name": "Anyakalio P.S.",
            "country_name": "Uganda",
            "connectivity": false
        },
        {
            "lon": 33.95146,
            "lat": 0.74736,
            "school_name": "Mifumi P.S.",
            "country_name": "Uganda",
            "connectivity": false
        },
        {
            "lon": 31.66086,
            "lat": 1.55542,
            "school_name": "Kikuube P.S.",
            "country_name": "Uganda",
            "connectivity": false
        },
        {
            "lon": 33.61832,
            "lat": 1.7142,
            "school_name": "Soroti Islamic P.S.",
            "country_name": "Uganda",
            "connectivity": false
        },
        {
            "lon": 32.1901,
            "lat": 0.42496,
            "school_name": "Namungo R.C.",
            "country_name": "Uganda",
            "connectivity": false
        },
        {
            "lon": 27.17763,
            "lat": -25.60855,
            "school_name": "Keledi Secondary School",
            "country_name": "South Africa",
            "connectivity": false
        },
        {
            "lon": 31.28185,
            "lat": -24.8434,
            "school_name": "Nembe Mhlaba Primary School",
            "country_name": "South Africa",
            "connectivity": false
        },
        {
            "lon": 18.40814,
            "lat": -33.93343,
            "school_name": "Ho?\u0192?\u00abrskool Jan van Riebeeck",
            "country_name": "South Africa",
            "connectivity": false
        },
        {
            "lon": 18.46939,
            "lat": -33.99557,
            "school_name": "Lin Chan College",
            "country_name": "South Africa",
            "connectivity": false
        },
        {
            "lon": 18.51034,
            "lat": -31.66236,
            "school_name": "Westco Proficiency Training",
            "country_name": "South Africa",
            "connectivity": false
        },
        {
            "lon": 18.52438,
            "lat": -33.956,
            "school_name": "Marion Institute",
            "country_name": "South Africa",
            "connectivity": false
        },
        {
            "lon": 30.04774,
            "lat": -23.30709,
            "school_name": "Mulima Secondary",
            "country_name": "South Africa",
            "connectivity": false
        },
        {
            "lon": 18.63554,
            "lat": -34.05008,
            "school_name": "Littlewood Primary School",
            "country_name": "South Africa",
            "connectivity": false
        },
        {
            "lon": 29.36548,
            "lat": -24.49792,
            "school_name": "Mankhole Secondary",
            "country_name": "South Africa",
            "connectivity": false
        },
        {
            "lon": 29.04626,
            "lat": -23.17475,
            "school_name": "Mmantotole Primary",
            "country_name": "South Africa",
            "connectivity": false
        },
        {
            "lon": 29.0748,
            "lat": -23.53033,
            "school_name": "Motana Primary",
            "country_name": "South Africa",
            "connectivity": false
        },
        {
            "lon": 29.35857,
            "lat": -30.58905,
            "school_name": "Troutwaters Primary School",
            "country_name": "South Africa",
            "connectivity": false
        },
        {
            "lon": 30.27066,
            "lat": -28.56655,
            "school_name": "Ebuhlebemfundo Primary School",
            "country_name": "South Africa",
            "connectivity": false
        },
        {
            "lon": 30.73058,
            "lat": -29.45848,
            "school_name": "Senzosabasha Secondary School",
            "country_name": "South Africa",
            "connectivity": false
        },
        {
            "lon": 30.76197,
            "lat": -28.60818,
            "school_name": "Matshana Primary School",
            "country_name": "South Africa",
            "connectivity": false
        },
        {
            "lon": 30.80138,
            "lat": -29.80571,
            "school_name": "Gillitts Primary School",
            "country_name": "South Africa",
            "connectivity": false
        },
        {
            "lon": 30.41508,
            "lat": -23.21835,
            "school_name": "Pembunuka Primary",
            "country_name": "South Africa",
            "connectivity": false
        },
        {
            "lon": 30.34425,
            "lat": -23.59589,
            "school_name": "Letseku Primary School",
            "country_name": "South Africa",
            "connectivity": false
        },
        {
            "lon": 31.97958,
            "lat": -28.08208,
            "school_name": "Sibongasonke Junior Secondary School",
            "country_name": "South Africa",
            "connectivity": false
        },
        {
            "lon": 31.62882,
            "lat": -27.86086,
            "school_name": "Mlokothwa High School",
            "country_name": "South Africa",
            "connectivity": false
        },
        {
            "lon": 31.67171,
            "lat": -28.59588,
            "school_name": "Mabhensa Primary School",
            "country_name": "South Africa",
            "connectivity": false
        },
        {
            "lon": 30.9874,
            "lat": -27.43624,
            "school_name": "Magubulundu Secondary School",
            "country_name": "South Africa",
            "connectivity": false
        },
        {
            "lon": 27.95652,
            "lat": -26.20108,
            "school_name": "Senthibele Senior Secondary School",
            "country_name": "South Africa",
            "connectivity": false
        },
        {
            "lon": 28.16352,
            "lat": -25.69959,
            "school_name": "Rinkel Krinkel Kleuterskool",
            "country_name": "South Africa",
            "connectivity": false
        },
        {
            "lon": 28.11248,
            "lat": -26.27222,
            "school_name": "Busy Little Angels",
            "country_name": "South Africa",
            "connectivity": false
        },
        {
            "lon": 28.19957,
            "lat": -32.15278,
            "school_name": "Nolita Combined School",
            "country_name": "South Africa",
            "connectivity": false
        },
        {
            "lon": 32.69101,
            "lat": 0.54235,
            "school_name": "Namasumbi Moslem School",
            "country_name": "Uganda",
            "connectivity": false
        },
        {
            "lon": 26.65107,
            "lat": -32.74441,
            "school_name": "Lindani Senior Secondary School",
            "country_name": "South Africa",
            "connectivity": false
        },
        {
            "lon": 27.3146,
            "lat": -30.6044,
            "school_name": "Mncunubeni Junior Secondary School",
            "country_name": "South Africa",
            "connectivity": false
        },
        {
            "lon": 26.91806,
            "lat": -31.90983,
            "school_name": "Get Ahead Primary School",
            "country_name": "South Africa",
            "connectivity": false
        },
        {
            "lon": 24.56519,
            "lat": -32.25171,
            "school_name": "Lingcom Primary School",
            "country_name": "South Africa",
            "connectivity": false
        },
        {
            "lon": 27.39767,
            "lat": -31.99742,
            "school_name": "Mtyintyini Junior Secondary School",
            "country_name": "South Africa",
            "connectivity": false
        },
        {
            "lon": 28.65643,
            "lat": -31.02253,
            "school_name": "Ntabasigogo Junior Secondary School",
            "country_name": "South Africa",
            "connectivity": false
        },
        {
            "lon": 28.66813,
            "lat": -32.3542,
            "school_name": "Zwelinzima Primary School",
            "country_name": "South Africa",
            "connectivity": false
        },
        {
            "lon": 29.59746,
            "lat": -31.37531,
            "school_name": "Kwa Nompumelelo Junior Senior School",
            "country_name": "South Africa",
            "connectivity": false
        },
        {
            "lon": -65.71063811,
            "lat": -43.31291141,
            "school_name": "ESCUELA ESPECIAL N\u00ba 513 - ANEXO DOLAVON",
            "country_name": "Argentina",
            "connectivity": false
        },
        {
            "lon": -60.61211578,
            "lat": -38.74228069,
            "school_name": "CENTRO DE ADULTOS N\u00ba703",
            "country_name": "Argentina",
            "connectivity": false
        },
        {
            "lon": -58.35469035,
            "lat": -34.76658649,
            "school_name": "CENTRO DE ADULTOS N\u00ba712/02",
            "country_name": "Argentina",
            "connectivity": false
        },
        {
            "lon": -61.4950714,
            "lat": -35.4771704,
            "school_name": "ESCUELA PRIMARIA N\u00ba25 NUESTRA SE\u00d1ORA DEL VALLE",
            "country_name": "Argentina",
            "connectivity": false
        },
        {
            "lon": -58.5964705,
            "lat": -34.65538327,
            "school_name": "JARDIN DE INFANTES N\u00ba918",
            "country_name": "Argentina",
            "connectivity": false
        },
        {
            "lon": -62.97574071,
            "lat": -40.7960106,
            "school_name": "ESCUELA POLIMODAL N\u00ba3 7 DE MARZO",
            "country_name": "Argentina",
            "connectivity": false
        },
        {
            "lon": -60.0806943,
            "lat": -38.85317479,
            "school_name": "INSTITUTO SECUNDARIO CLAROMECO",
            "country_name": "Argentina",
            "connectivity": false
        },
        {
            "lon": -58.5937523,
            "lat": -34.63979315,
            "school_name": "ESCUELA SECUNDARIA N\u00ba2 CONGRESO DE TUCUMAN",
            "country_name": "Argentina",
            "connectivity": false
        },
        {
            "lon": -58.23709204,
            "lat": -37.89504121,
            "school_name": "ESCUELA PRIMARIA N\u00ba14 DR. EVEL DAGUERRE",
            "country_name": "Argentina",
            "connectivity": false
        },
        {
            "lon": -58.7151887,
            "lat": -34.51974985,
            "school_name": "JARDIN DE INFANTES N\u00ba912 RENE FAVALORO",
            "country_name": "Argentina",
            "connectivity": false
        },
        {
            "lon": -59.10110565,
            "lat": -36.01319437,
            "school_name": "INSTITUTO SAN MIGUEL",
            "country_name": "Argentina",
            "connectivity": false
        },
        {
            "lon": -62.46322079,
            "lat": -34.8454309,
            "school_name": "ESCUELA PRIMARIA N\u00ba3 NI\u00d1AS DE AYOHUMA",
            "country_name": "Argentina",
            "connectivity": false
        },
        {
            "lon": -60.72040021,
            "lat": -31.64699044,
            "school_name": "I.S.P.I. NRO 4031 FRAY FRANCISCO DE PAULA CASTA\u00d1EDA",
            "country_name": "Argentina",
            "connectivity": false
        },
        {
            "lon": -58.68011567,
            "lat": -34.56821982,
            "school_name": "COLEGIO ABERDARE",
            "country_name": "Argentina",
            "connectivity": false
        },
        {
            "lon": -58.60834208,
            "lat": -34.43781294,
            "school_name": "INSTITUTO CARDENAL PIRONIO",
            "country_name": "Argentina",
            "connectivity": false
        },
        {
            "lon": -58.57540457,
            "lat": -34.74421138,
            "school_name": "C.E.N.S. N\u00ba456 MARIA CRISTINA PRIETO",
            "country_name": "Argentina",
            "connectivity": false
        },
        {
            "lon": -58.6375083,
            "lat": -34.61294034,
            "school_name": "ESC. SECUNDARIA BASICA N\u00ba1",
            "country_name": "Argentina",
            "connectivity": false
        },
        {
            "lon": -58.78154486,
            "lat": -34.51421635,
            "school_name": "ESCUELA SECUNDARIA N\u00ba 20",
            "country_name": "Argentina",
            "connectivity": false
        },
        {
            "lon": -56.7246068,
            "lat": -36.35808553,
            "school_name": "ESC. SECUNDARIA BASICA N\u00ba8",
            "country_name": "Argentina",
            "connectivity": false
        },
        {
            "lon": -58.78378723,
            "lat": -34.61870782,
            "school_name": "INSTITUTO MARIA DEL ROSARIO",
            "country_name": "Argentina",
            "connectivity": false
        },
        {
            "lon": -58.55394789,
            "lat": -34.46013277,
            "school_name": "JARDIN DE INFANTES ALFONSINA STORNI",
            "country_name": "Argentina",
            "connectivity": false
        },
        {
            "lon": -58.7436084,
            "lat": -34.5991899,
            "school_name": "SAGRADA FAMILIA DEL TRUJUI",
            "country_name": "Argentina",
            "connectivity": false
        },
        {
            "lon": -66.01735659,
            "lat": -27.48595365,
            "school_name": "ESCUELA N\u00b0 86 JOS\u00c9 HERNANDEZ",
            "country_name": "Argentina",
            "connectivity": false
        },
        {
            "lon": -58.97848998,
            "lat": -27.45300036,
            "school_name": "U.E.P. N\u00ba 58-INSTITUTO SUPERIOR ALMAFUERTE",
            "country_name": "Argentina",
            "connectivity": false
        },
        {
            "lon": -62.36486601,
            "lat": -32.73947196,
            "school_name": "ESCUELA MARIANO MORENO",
            "country_name": "Argentina",
            "connectivity": false
        },
        {
            "lon": -58.78355,
            "lat": -27.459358,
            "school_name": "ESCUELA JARDIN DE INFANTES N\u00ba 42",
            "country_name": "Argentina",
            "connectivity": false
        },
        {
            "lon": -58.48002739,
            "lat": -32.46195026,
            "school_name": "ESCUELA SECUNDARIA 7 HEROES DE MALVINAS EX 80",
            "country_name": "Argentina",
            "connectivity": false
        },
        {
            "lon": -60.5348667,
            "lat": -31.72833208,
            "school_name": "ESCUELA SECUNDARIA DE ADULTOS 4 PROF. MAXIMIO VICTORIA EX 25",
            "country_name": "Argentina",
            "connectivity": false
        },
        {
            "lon": -58.84947506,
            "lat": -31.95765404,
            "school_name": "ESCUELA SECUNDARIA 13",
            "country_name": "Argentina",
            "connectivity": false
        },
        {
            "lon": -61.96868179,
            "lat": -23.21323937,
            "school_name": "EPES EIB N\u00ba 2",
            "country_name": "Argentina",
            "connectivity": false
        },
        {
            "lon": -59.33927171,
            "lat": -25.56901896,
            "school_name": "EPES N\u00ba 9 VICENTE LOPEZ Y PLANES",
            "country_name": "Argentina",
            "connectivity": false
        },
        {
            "lon": -62.27347417,
            "lat": -22.73664041,
            "school_name": "EPES EIB N\u00b0 5",
            "country_name": "Argentina",
            "connectivity": false
        },
        {
            "lon": -65.26037825,
            "lat": -24.3882559,
            "school_name": "CENTRO EDUCATIVO DE TERMINALIDAD PRIMARIA N 54",
            "country_name": "Argentina",
            "connectivity": false
        },
        {
            "lon": -65.29625317,
            "lat": -24.18251413,
            "school_name": "ESCUELA N 447 REPUBLICA DE ITALIA",
            "country_name": "Argentina",
            "connectivity": false
        },
        {
            "lon": -66.85915558,
            "lat": -29.41680488,
            "school_name": "JARDIN DE INFANTES N\u00b006 ROSARIO V.PE\u00d1ALOZA",
            "country_name": "Argentina",
            "connectivity": false
        },
        {
            "lon": -68.42015042,
            "lat": -33.07332837,
            "school_name": "2 DE ABRIL",
            "country_name": "Argentina",
            "connectivity": false
        },
        {
            "lon": -68.83258305,
            "lat": -32.87468657,
            "school_name": "LEONARDO FAVIO",
            "country_name": "Argentina",
            "connectivity": false
        },
        {
            "lon": -55.30336259,
            "lat": -27.61013827,
            "school_name": "ESC. N\u00b0 37 HERNAN WOLENBERG",
            "country_name": "Argentina",
            "connectivity": false
        },
        {
            "lon": -71.35319215,
            "lat": -40.15544769,
            "school_name": "E.P.E.T. 21",
            "country_name": "Argentina",
            "connectivity": false
        },
        {
            "lon": -67.52211713,
            "lat": -46.42400947,
            "school_name": "E.P.J.A. SECUNDARIA N\u00ba 13 - ANEXO ALCAIDIA ZONA NORTE",
            "country_name": "Argentina",
            "connectivity": false
        },
        {
            "lon": -60.88819752,
            "lat": -31.87360773,
            "school_name": "ESCUELA NRO 690 MARIANO MORENO",
            "country_name": "Argentina",
            "connectivity": false
        },
        {
            "lon": -60.64374564,
            "lat": -33.00517863,
            "school_name": "ESCUELA ESPECIAL PARTICULAR INCORPORADA 1382 TRASCENDER",
            "country_name": "Argentina",
            "connectivity": false
        },
        {
            "lon": -63.87235,
            "lat": -25.69299,
            "school_name": "ESCUELA N\u00b0 560",
            "country_name": "Argentina",
            "connectivity": false
        },
        {
            "lon": 6.137568,
            "lat": 5.416027,
            "school_name": "Name unknown",
            "country_name": "Nigeria",
            "connectivity": false
        },
        {
            "lon": 7.40224,
            "lat": 5.433524,
            "school_name": "Name unknown",
            "country_name": "Nigeria",
            "connectivity": false
        },
        {
            "lon": 7.316056667,
            "lat": 5.023461667,
            "school_name": "Name unknown",
            "country_name": "Nigeria",
            "connectivity": false
        },
        {
            "lon": 7.476658598,
            "lat": 5.550904203,
            "school_name": "Name unknown",
            "country_name": "Nigeria",
            "connectivity": false
        },
        {
            "lon": 7.499405,
            "lat": 5.535411667,
            "school_name": "Name unknown",
            "country_name": "Nigeria",
            "connectivity": false
        },
        {
            "lon": 7.84632,
            "lat": 5.756273333,
            "school_name": "Name unknown",
            "country_name": "Nigeria",
            "connectivity": false
        },
        {
            "lon": 8.123458333,
            "lat": 6.431451667,
            "school_name": "Name unknown",
            "country_name": "Nigeria",
            "connectivity": false
        },
        {
            "lon": 8.316676,
            "lat": 6.150068,
            "school_name": "Name unknown",
            "country_name": "Nigeria",
            "connectivity": false
        },
        {
            "lon": 7.726007,
            "lat": 6.260509,
            "school_name": "Name unknown",
            "country_name": "Nigeria",
            "connectivity": false
        },
        {
            "lon": 8.311525,
            "lat": 6.378496667,
            "school_name": "Name unknown",
            "country_name": "Nigeria",
            "connectivity": false
        },
        {
            "lon": 8.153315,
            "lat": 6.636187,
            "school_name": "Name unknown",
            "country_name": "Nigeria",
            "connectivity": false
        },
        {
            "lon": 7.76744,
            "lat": 6.21693,
            "school_name": "Name unknown",
            "country_name": "Nigeria",
            "connectivity": false
        },
        {
            "lon": 12.25196903,
            "lat": 10.39283088,
            "school_name": "Name unknown",
            "country_name": "Nigeria",
            "connectivity": false
        },
        {
            "lon": 5.626217,
            "lat": 6.359829,
            "school_name": "Name unknown",
            "country_name": "Nigeria",
            "connectivity": false
        },
        {
            "lon": 6.387472,
            "lat": 6.657366,
            "school_name": "Name unknown",
            "country_name": "Nigeria",
            "connectivity": false
        },
        {
            "lon": 6.003649,
            "lat": 6.076814,
            "school_name": "Name unknown",
            "country_name": "Nigeria",
            "connectivity": false
        },
        {
            "lon": 5.219186667,
            "lat": 7.59417,
            "school_name": "Name unknown",
            "country_name": "Nigeria",
            "connectivity": false
        },
        {
            "lon": 5.426961667,
            "lat": 7.963298333,
            "school_name": "Name unknown",
            "country_name": "Nigeria",
            "connectivity": false
        },
        {
            "lon": 5.154811667,
            "lat": 7.659275,
            "school_name": "Name unknown",
            "country_name": "Nigeria",
            "connectivity": false
        },
        {
            "lon": 5.324688,
            "lat": 7.454461,
            "school_name": "Name unknown",
            "country_name": "Nigeria",
            "connectivity": false
        },
        {
            "lon": 5.358218,
            "lat": 7.796631,
            "school_name": "Name unknown",
            "country_name": "Nigeria",
            "connectivity": false
        },
        {
            "lon": 7.56225,
            "lat": 6.026575,
            "school_name": "Name unknown",
            "country_name": "Nigeria",
            "connectivity": false
        },
        {
            "lon": 11.29381333,
            "lat": 10.04836833,
            "school_name": "Name unknown",
            "country_name": "Nigeria",
            "connectivity": false
        },
        {
            "lon": 11.51342,
            "lat": 9.995948,
            "school_name": "Name unknown",
            "country_name": "Nigeria",
            "connectivity": false
        },
        {
            "lon": 7.381851,
            "lat": 5.56878,
            "school_name": "Name unknown",
            "country_name": "Nigeria",
            "connectivity": false
        },
        {
            "lon": -77.385,
            "lat": -5.89567,
            "school_name": "954",
            "country_name": "Peru",
            "connectivity": false
        },
        {
            "lon": -77.0093,
            "lat": -11.9911,
            "school_name": "0115 16 VIRGEN DEL CARMEN",
            "country_name": "Peru",
            "connectivity": false
        },
        {
            "lon": -77.7526,
            "lat": -3.94445,
            "school_name": "32",
            "country_name": "Peru",
            "connectivity": false
        },
        {
            "lon": -76.5695,
            "lat": -6.89239,
            "school_name": "0630 JUSTINIANO SHU\u00d1A PAIMA",
            "country_name": "Peru",
            "connectivity": false
        },
        {
            "lon": -79.3865,
            "lat": -6.22193,
            "school_name": "10089",
            "country_name": "Peru",
            "connectivity": false
        },
        {
            "lon": -78.453,
            "lat": -6.4615,
            "school_name": "101054",
            "country_name": "Peru",
            "connectivity": false
        },
        {
            "lon": -79.8537,
            "lat": -6.70977,
            "school_name": "11096 JOSE CARLOS MARIATEGUI",
            "country_name": "Peru",
            "connectivity": false
        },
        {
            "lon": -79.4524,
            "lat": -5.15758,
            "school_name": "14425",
            "country_name": "Peru",
            "connectivity": false
        },
        {
            "lon": -78.9388,
            "lat": -5.18381,
            "school_name": "16457 HORACIO ZEVALLOS GAMEZ",
            "country_name": "Peru",
            "connectivity": false
        },
        {
            "lon": -79.0666,
            "lat": -5.39881,
            "school_name": "16731",
            "country_name": "Peru",
            "connectivity": false
        },
        {
            "lon": -77.2139,
            "lat": -8.6928,
            "school_name": "176",
            "country_name": "Peru",
            "connectivity": false
        },
        {
            "lon": -79.643,
            "lat": -5.0055,
            "school_name": "20090",
            "country_name": "Peru",
            "connectivity": false
        },
        {
            "lon": -79.8812,
            "lat": -4.64836,
            "school_name": "20641",
            "country_name": "Peru",
            "connectivity": false
        },
        {
            "lon": -76.9636,
            "lat": -11.8931,
            "school_name": "20955-29 LOS JAZMINES",
            "country_name": "Peru",
            "connectivity": false
        },
        {
            "lon": -74.8534,
            "lat": -10.8943,
            "school_name": "2143",
            "country_name": "Peru",
            "connectivity": false
        },
        {
            "lon": -75.6877,
            "lat": -14.0779,
            "school_name": "22366 SANTA GERTRUDIS",
            "country_name": "Peru",
            "connectivity": false
        },
        {
            "lon": -75.1915,
            "lat": -14.4787,
            "school_name": "22680",
            "country_name": "Peru",
            "connectivity": false
        },
        {
            "lon": -78.8614,
            "lat": -8.4934,
            "school_name": "2315",
            "country_name": "Peru",
            "connectivity": false
        },
        {
            "lon": -74.4675,
            "lat": -15.0975,
            "school_name": "24500",
            "country_name": "Peru",
            "connectivity": false
        },
        {
            "lon": -77.628,
            "lat": -9.29087,
            "school_name": "250",
            "country_name": "Peru",
            "connectivity": false
        },
        {
            "lon": -77.0501,
            "lat": -11.9576,
            "school_name": "3068 SAN JUDAS TADEO",
            "country_name": "Peru",
            "connectivity": false
        },
        {
            "lon": -76.5144,
            "lat": -9.91497,
            "school_name": "32745",
            "country_name": "Peru",
            "connectivity": false
        },
        {
            "lon": -76.1075,
            "lat": -9.22522,
            "school_name": "32984",
            "country_name": "Peru",
            "connectivity": false
        },
        {
            "lon": -76.1657,
            "lat": -10.6477,
            "school_name": "34001",
            "country_name": "Peru",
            "connectivity": false
        },
        {
            "lon": -74.2218,
            "lat": -12.8693,
            "school_name": "38340",
            "country_name": "Peru",
            "connectivity": false
        },
        {
            "lon": -73.3283,
            "lat": -13.4215,
            "school_name": "38426",
            "country_name": "Peru",
            "connectivity": false
        },
        {
            "lon": -72.8102,
            "lat": -15.13,
            "school_name": "40517 CAPITAN EVARISTO AMESQUITA",
            "country_name": "Peru",
            "connectivity": false
        },
        {
            "lon": -73.9102,
            "lat": -12.4108,
            "school_name": "429-121",
            "country_name": "Peru",
            "connectivity": false
        },
        {
            "lon": -72.647,
            "lat": -12.5715,
            "school_name": "50249",
            "country_name": "Peru",
            "connectivity": false
        },
        {
            "lon": -71.9208,
            "lat": -13.6199,
            "school_name": "50373",
            "country_name": "Peru",
            "connectivity": false
        },
        {
            "lon": -71.8758,
            "lat": -13.9527,
            "school_name": "50379",
            "country_name": "Peru",
            "connectivity": false
        },
        {
            "lon": -73.1124,
            "lat": -13.6237,
            "school_name": "54132 VIRGEN DEL ROSARIO",
            "country_name": "Peru",
            "connectivity": false
        },
        {
            "lon": -70.1283,
            "lat": -4.09979,
            "school_name": "589 - BILINGUE INTERCULTURAL",
            "country_name": "Peru",
            "connectivity": false
        },
        {
            "lon": -73.3554,
            "lat": -4.13217,
            "school_name": "601462",
            "country_name": "Peru",
            "connectivity": false
        },
        {
            "lon": -75.1084,
            "lat": -7.06231,
            "school_name": "6132",
            "country_name": "Peru",
            "connectivity": false
        },
        {
            "lon": -76.5442,
            "lat": -3.38006,
            "school_name": "62369",
            "country_name": "Peru",
            "connectivity": false
        },
        {
            "lon": -71.564,
            "lat": -13.6046,
            "school_name": "625",
            "country_name": "Peru",
            "connectivity": false
        },
        {
            "lon": -74.5885,
            "lat": -8.40325,
            "school_name": "698",
            "country_name": "Peru",
            "connectivity": false
        },
        {
            "lon": -72.982,
            "lat": -9.41444,
            "school_name": "703-B",
            "country_name": "Peru",
            "connectivity": false
        },
        {
            "lon": -78.9929,
            "lat": -8.08362,
            "school_name": "80028 FRANCISCO DE ZELA",
            "country_name": "Peru",
            "connectivity": false
        },
        {
            "lon": -78.1902,
            "lat": -8.09431,
            "school_name": "80547 FELIPE SANTIAGO CALDERON SEGURA",
            "country_name": "Peru",
            "connectivity": false
        },
        {
            "lon": -79.0299,
            "lat": -8.136,
            "school_name": "81501 LA ENCALADA",
            "country_name": "Peru",
            "connectivity": false
        },
        {
            "lon": -78.7973,
            "lat": -8.43169,
            "school_name": "81701",
            "country_name": "Peru",
            "connectivity": false
        },
        {
            "lon": -78.1251,
            "lat": -6.85609,
            "school_name": "82440",
            "country_name": "Peru",
            "connectivity": false
        },
        {
            "lon": -77.0591,
            "lat": -9.05983,
            "school_name": "86183 RICARDO PALMA SORIANO",
            "country_name": "Peru",
            "connectivity": false
        },
        {
            "lon": -77.2021,
            "lat": -9.64029,
            "school_name": "86350",
            "country_name": "Peru",
            "connectivity": false
        },
        {
            "lon": -77.2973,
            "lat": -9.13563,
            "school_name": "86457",
            "country_name": "Peru",
            "connectivity": false
        },
        {
            "lon": -76.9575,
            "lat": -12.0476,
            "school_name": "DIEGO THOMSON",
            "country_name": "Peru",
            "connectivity": false
        },
        {
            "lon": -69.2705,
            "lat": -14.0014,
            "school_name": "AGROPECUARIO PAMPA YANAMAYO",
            "country_name": "Peru",
            "connectivity": false
        },
        {
            "lon": -76.3646,
            "lat": -10.9975,
            "school_name": "ALEGRIA DE DIOS",
            "country_name": "Peru",
            "connectivity": false
        },
        {
            "lon": -69.9518,
            "lat": -15.1265,
            "school_name": "ALTO PARQUE",
            "country_name": "Peru",
            "connectivity": false
        },
        {
            "lon": -76.9187,
            "lat": -12.0259,
            "school_name": "AMERICANO",
            "country_name": "Peru",
            "connectivity": false
        },
        {
            "lon": -76.8657,
            "lat": -9.58982,
            "school_name": "BUENA VISTA",
            "country_name": "Peru",
            "connectivity": false
        },
        {
            "lon": -80.9633,
            "lat": -4.01637,
            "school_name": "CARRUSEL DE NI\u00d1OS",
            "country_name": "Peru",
            "connectivity": false
        },
        {
            "lon": -74.8311,
            "lat": -12.764,
            "school_name": "CCACCAMARCA",
            "country_name": "Peru",
            "connectivity": false
        },
        {
            "lon": -77.086,
            "lat": -11.9352,
            "school_name": "CEBA - SAN MARCOS",
            "country_name": "Peru",
            "connectivity": false
        },
        {
            "lon": -74.5497,
            "lat": -8.41198,
            "school_name": "CETPRO VIRGEN DE FATIMA",
            "country_name": "Peru",
            "connectivity": false
        },
        {
            "lon": -76.1249,
            "lat": -13.4189,
            "school_name": "CHINCHA",
            "country_name": "Peru",
            "connectivity": false
        },
        {
            "lon": -77.0893,
            "lat": -12.0877,
            "school_name": "CRECIENDO JUNTOS II",
            "country_name": "Peru",
            "connectivity": false
        },
        {
            "lon": -76.1747,
            "lat": -13.4612,
            "school_name": "CRISTO REDENTOR",
            "country_name": "Peru",
            "connectivity": false
        },
        {
            "lon": -71.5493,
            "lat": -16.4456,
            "school_name": "EDUARDO FRANCISCO FORGA",
            "country_name": "Peru",
            "connectivity": false
        },
        {
            "lon": -74.2303,
            "lat": -13.1913,
            "school_name": "ESCUELA DE EDUCACION SUPERIOR TECNICO PROFESIONAL PNP AYACUCHO",
            "country_name": "Peru",
            "connectivity": false
        },
        {
            "lon": -79.7075,
            "lat": -5.86643,
            "school_name": "ESTRELLITAS DE MARIA",
            "country_name": "Peru",
            "connectivity": false
        },
        {
            "lon": -71.5414,
            "lat": -16.3941,
            "school_name": "HOLY FAMILY SCHOOL",
            "country_name": "Peru",
            "connectivity": false
        },
        {
            "lon": -76.718,
            "lat": -10.0162,
            "school_name": "HUACARCOCHA",
            "country_name": "Peru",
            "connectivity": false
        },
        {
            "lon": -74.9933,
            "lat": -12.7785,
            "school_name": "HUANCAVELICA",
            "country_name": "Peru",
            "connectivity": false
        },
        {
            "lon": -75.213,
            "lat": -12.0629,
            "school_name": "INGENIERIA",
            "country_name": "Peru",
            "connectivity": false
        },
        {
            "lon": -77.1193,
            "lat": -12.0704,
            "school_name": "INMACULADA CONCEPCION DE LA PERLA",
            "country_name": "Peru",
            "connectivity": false
        },
        {
            "lon": -71.5667,
            "lat": -16.4246,
            "school_name": "INNOVA SCHOOLS SACHACA",
            "country_name": "Peru",
            "connectivity": false
        },
        {
            "lon": -71.6218,
            "lat": -16.3443,
            "school_name": "JESUS SACRAMENTADO",
            "country_name": "Peru",
            "connectivity": false
        },
        {
            "lon": -69.6908,
            "lat": -14.1497,
            "school_name": "JOSE OLAYA",
            "country_name": "Peru",
            "connectivity": false
        },
        {
            "lon": -78.4389,
            "lat": -6.88334,
            "school_name": "JOSELITO VASQUEZ JAMBO",
            "country_name": "Peru",
            "connectivity": false
        },
        {
            "lon": -78.5138,
            "lat": -7.15735,
            "school_name": "JOYAS PARA CRISTO",
            "country_name": "Peru",
            "connectivity": false
        },
        {
            "lon": -76.3124,
            "lat": -13.2238,
            "school_name": "JUAN ROJAS RUEDAS",
            "country_name": "Peru",
            "connectivity": false
        },
        {
            "lon": -76.2468,
            "lat": -9.9617,
            "school_name": "JUAN VELASCO ALVARADO",
            "country_name": "Peru",
            "connectivity": false
        },
        {
            "lon": -76.9487,
            "lat": -12.0734,
            "school_name": "SAN IGNACIO DE LOYOLA",
            "country_name": "Peru",
            "connectivity": false
        },
        {
            "lon": -71.8206,
            "lat": -16.4238,
            "school_name": "LA JOYA",
            "country_name": "Peru",
            "connectivity": false
        },
        {
            "lon": -76.9591,
            "lat": -12.076,
            "school_name": "LEONARDO DA VINCI",
            "country_name": "Peru",
            "connectivity": false
        },
        {
            "lon": -70.0653,
            "lat": -15.5391,
            "school_name": "LOS TRIUNFADORES",
            "country_name": "Peru",
            "connectivity": false
        },
        {
            "lon": -74.6788,
            "lat": -12.4113,
            "school_name": "MARIA INMACULADA CONCEPCION",
            "country_name": "Peru",
            "connectivity": false
        },
        {
            "lon": -77.0851,
            "lat": -11.8719,
            "school_name": "MARIA REYNA DE LA PAZ",
            "country_name": "Peru",
            "connectivity": false
        },
        {
            "lon": -69.1035,
            "lat": -16.2509,
            "school_name": "PERU BIRF II",
            "country_name": "Peru",
            "connectivity": false
        },
        {
            "lon": -78.5668,
            "lat": -9.0928,
            "school_name": "PKES SCHOOL",
            "country_name": "Peru",
            "connectivity": false
        },
        {
            "lon": -79.7619,
            "lat": -4.51971,
            "school_name": "SAGRADO CORAZON DE JESUS",
            "country_name": "Peru",
            "connectivity": false
        },
        {
            "lon": -78.7762,
            "lat": -8.42159,
            "school_name": "SAGRADOS CORAZONES",
            "country_name": "Peru",
            "connectivity": false
        },
        {
            "lon": -75.5503,
            "lat": -10.0689,
            "school_name": "SAN JOSE",
            "country_name": "Peru",
            "connectivity": false
        },
        {
            "lon": -78.3765,
            "lat": -6.98915,
            "school_name": "SAN JUAN BAUTISTA",
            "country_name": "Peru",
            "connectivity": false
        },
        {
            "lon": -76.7618,
            "lat": -9.8205,
            "school_name": "SAN PEDRO DE VINCHUS CHICO",
            "country_name": "Peru",
            "connectivity": false
        },
        {
            "lon": -76.967,
            "lat": -12.1491,
            "school_name": "SAN PEDRO DEL HORIZONTE",
            "country_name": "Peru",
            "connectivity": false
        },
        {
            "lon": -73.5725,
            "lat": -12.9882,
            "school_name": "SAN VICENTE",
            "country_name": "Peru",
            "connectivity": false
        },
        {
            "lon": -74.2274,
            "lat": -13.1642,
            "school_name": "SANTA CLARA DE ASIS",
            "country_name": "Peru",
            "connectivity": false
        },
        {
            "lon": -79.0451,
            "lat": -8.10111,
            "school_name": "SEMILLITAS DE LA SALETTE",
            "country_name": "Peru",
            "connectivity": false
        },
        {
            "lon": -71.5074,
            "lat": -16.4371,
            "school_name": "ST. ANDREW",
            "country_name": "Peru",
            "connectivity": false
        },
        {
            "lon": -75.8579,
            "lat": -9.28246,
            "school_name": "TOPA",
            "country_name": "Peru",
            "connectivity": false
        },
        {
            "lon": 9.5420017,
            "lat": 12.0226374,
            "school_name": "Name unknown",
            "country_name": "Nigeria",
            "connectivity": false
        },
        {
            "lon": 6.14582,
            "lat": 10.58286667,
            "school_name": "Name unknown",
            "country_name": "Nigeria",
            "connectivity": false
        },
        {
            "lon": 7.37831141,
            "lat": 10.05321424,
            "school_name": "Name unknown",
            "country_name": "Nigeria",
            "connectivity": false
        },
        {
            "lon": 8.02171621,
            "lat": 9.641611481,
            "school_name": "Name unknown",
            "country_name": "Nigeria",
            "connectivity": false
        },
        {
            "lon": 7.72041901,
            "lat": 10.3960688,
            "school_name": "Name unknown",
            "country_name": "Nigeria",
            "connectivity": false
        },
        {
            "lon": 8.528003972,
            "lat": 9.738184159,
            "school_name": "Name unknown",
            "country_name": "Nigeria",
            "connectivity": false
        },
        {
            "lon": 8.511244655,
            "lat": 10.5507803,
            "school_name": "Name unknown",
            "country_name": "Nigeria",
            "connectivity": false
        },
        {
            "lon": 7.843363881,
            "lat": 11.13556087,
            "school_name": "Name unknown",
            "country_name": "Nigeria",
            "connectivity": false
        },
        {
            "lon": 9.125152,
            "lat": 11.39259,
            "school_name": "Name unknown",
            "country_name": "Nigeria",
            "connectivity": false
        },
        {
            "lon": 9.105101,
            "lat": 11.69675,
            "school_name": "Name unknown",
            "country_name": "Nigeria",
            "connectivity": false
        },
        {
            "lon": 12.708211,
            "lat": 9.296124,
            "school_name": "Name unknown",
            "country_name": "Nigeria",
            "connectivity": false
        },
        {
            "lon": 8.677235,
            "lat": 11.61604,
            "school_name": "Name unknown",
            "country_name": "Nigeria",
            "connectivity": false
        },
        {
            "lon": 8.034867,
            "lat": 12.09243,
            "school_name": "Name unknown",
            "country_name": "Nigeria",
            "connectivity": false
        },
        {
            "lon": 8.015951,
            "lat": 11.77811,
            "school_name": "Name unknown",
            "country_name": "Nigeria",
            "connectivity": false
        },
        {
            "lon": 6.413453,
            "lat": 7.681078,
            "school_name": "Name unknown",
            "country_name": "Nigeria",
            "connectivity": false
        },
        {
            "lon": 5.868409,
            "lat": 7.828039,
            "school_name": "Name unknown",
            "country_name": "Nigeria",
            "connectivity": false
        },
        {
            "lon": 6.222978,
            "lat": 7.565998,
            "school_name": "Name unknown",
            "country_name": "Nigeria",
            "connectivity": false
        },
        {
            "lon": 3.327655151,
            "lat": 6.464958957,
            "school_name": "Name unknown",
            "country_name": "Nigeria",
            "connectivity": false
        },
        {
            "lon": 3.29503,
            "lat": 6.61611,
            "school_name": "Name unknown",
            "country_name": "Nigeria",
            "connectivity": false
        },
        {
            "lon": 3.49021,
            "lat": 6.67087,
            "school_name": "Name unknown",
            "country_name": "Nigeria",
            "connectivity": false
        },
        {
            "lon": 3.399062507,
            "lat": 6.449615575,
            "school_name": "Name unknown",
            "country_name": "Nigeria",
            "connectivity": false
        },
        {
            "lon": 8.159301,
            "lat": 8.063225,
            "school_name": "Name unknown",
            "country_name": "Nigeria",
            "connectivity": false
        },
        {
            "lon": 8.602740045,
            "lat": 8.616510529,
            "school_name": "Name unknown",
            "country_name": "Nigeria",
            "connectivity": false
        },
        {
            "lon": 2.751685,
            "lat": 7.414831667,
            "school_name": "Name unknown",
            "country_name": "Nigeria",
            "connectivity": false
        },
        {
            "lon": 3.49334,
            "lat": 6.69081,
            "school_name": "Name unknown",
            "country_name": "Nigeria",
            "connectivity": false
        },
        {
            "lon": 3.642277188,
            "lat": 6.842612929,
            "school_name": "Name unknown",
            "country_name": "Nigeria",
            "connectivity": false
        },
        {
            "lon": 5.179821,
            "lat": 7.361746,
            "school_name": "Name unknown",
            "country_name": "Nigeria",
            "connectivity": false
        },
        {
            "lon": 4.735899,
            "lat": 7.616065,
            "school_name": "Name unknown",
            "country_name": "Nigeria",
            "connectivity": false
        },
        {
            "lon": 4.201396,
            "lat": 7.38231,
            "school_name": "Name unknown",
            "country_name": "Nigeria",
            "connectivity": false
        },
        {
            "lon": 4.477548,
            "lat": 7.847961,
            "school_name": "Name unknown",
            "country_name": "Nigeria",
            "connectivity": false
        },
        {
            "lon": 7.832671,
            "lat": 4.664365,
            "school_name": "Name unknown",
            "country_name": "Nigeria",
            "connectivity": false
        },
        {
            "lon": 7.8609,
            "lat": 4.64335,
            "school_name": "Name unknown",
            "country_name": "Nigeria",
            "connectivity": false
        },
        {
            "lon": 3.797461,
            "lat": 7.784243,
            "school_name": "Name unknown",
            "country_name": "Nigeria",
            "connectivity": false
        },
        {
            "lon": 4.087334,
            "lat": 8.791127,
            "school_name": "Name unknown",
            "country_name": "Nigeria",
            "connectivity": false
        },
        {
            "lon": 8.720867,
            "lat": 9.888121,
            "school_name": "Name unknown",
            "country_name": "Nigeria",
            "connectivity": false
        },
        {
            "lon": 9.764514,
            "lat": 9.214041,
            "school_name": "Name unknown",
            "country_name": "Nigeria",
            "connectivity": false
        },
        {
            "lon": 9.82515,
            "lat": 8.967787,
            "school_name": "Name unknown",
            "country_name": "Nigeria",
            "connectivity": false
        },
        {
            "lon": 7.269707,
            "lat": 4.663094,
            "school_name": "Name unknown",
            "country_name": "Nigeria",
            "connectivity": false
        },
        {
            "lon": 11.34934,
            "lat": 8.900015,
            "school_name": "Name unknown",
            "country_name": "Nigeria",
            "connectivity": false
        },
        {
            "lon": 11.41395132,
            "lat": 9.232333253,
            "school_name": "Name unknown",
            "country_name": "Nigeria",
            "connectivity": false
        },
        {
            "lon": 11.736533,
            "lat": 8.994726,
            "school_name": "Name unknown",
            "country_name": "Nigeria",
            "connectivity": false
        },
        {
            "lon": 7.50147274,
            "lat": 12.91162265,
            "school_name": "Name unknown",
            "country_name": "Nigeria",
            "connectivity": false
        },
        {
            "lon": 7.02331936,
            "lat": 11.5552548,
            "school_name": "Name unknown",
            "country_name": "Nigeria",
            "connectivity": false
        },
        {
            "lon": 7.62955592,
            "lat": 12.96579341,
            "school_name": "Name unknown",
            "country_name": "Nigeria",
            "connectivity": false
        },
        {
            "lon": 7.58623437,
            "lat": 11.7851234,
            "school_name": "Name unknown",
            "country_name": "Nigeria",
            "connectivity": false
        },
        {
            "lon": 8.4403107,
            "lat": 13.05164665,
            "school_name": "Name unknown",
            "country_name": "Nigeria",
            "connectivity": false
        },
        {
            "lon": 9.763943333,
            "lat": 10.688875,
            "school_name": "Name unknown",
            "country_name": "Nigeria",
            "connectivity": false
        },
        {
            "lon": 4.6373693,
            "lat": 12.50251322,
            "school_name": "Name unknown",
            "country_name": "Nigeria",
            "connectivity": false
        },
        {
            "lon": 4.37306419,
            "lat": 12.22580412,
            "school_name": "Name unknown",
            "country_name": "Nigeria",
            "connectivity": false
        },
        {
            "lon": 5.79762,
            "lat": 11.56092,
            "school_name": "Name unknown",
            "country_name": "Nigeria",
            "connectivity": false
        },
        {
            "lon": 6.265406,
            "lat": 4.309687,
            "school_name": "Name unknown",
            "country_name": "Nigeria",
            "connectivity": false
        },
        {
            "lon": 5.281767587,
            "lat": 13.05076649,
            "school_name": "Name unknown",
            "country_name": "Nigeria",
            "connectivity": false
        },
        {
            "lon": 5.418233184,
            "lat": 13.28967457,
            "school_name": "Name unknown",
            "country_name": "Nigeria",
            "connectivity": false
        },
        {
            "lon": 8.374276,
            "lat": 6.950024,
            "school_name": "Name unknown",
            "country_name": "Nigeria",
            "connectivity": false
        },
        {
            "lon": 7.968618,
            "lat": 7.520361,
            "school_name": "Name unknown",
            "country_name": "Nigeria",
            "connectivity": false
        },
        {
            "lon": 9.781484,
            "lat": 7.569325,
            "school_name": "Name unknown",
            "country_name": "Nigeria",
            "connectivity": false
        },
        {
            "lon": 9.01626,
            "lat": 6.93905,
            "school_name": "Name unknown",
            "country_name": "Nigeria",
            "connectivity": false
        },
        {
            "lon": 9.131558,
            "lat": 6.68768,
            "school_name": "Name unknown",
            "country_name": "Nigeria",
            "connectivity": false
        },
        {
            "lon": 6.672794223,
            "lat": 12.54660666,
            "school_name": "Name unknown",
            "country_name": "Nigeria",
            "connectivity": false
        },
        {
            "lon": 5.662137866,
            "lat": 12.29241908,
            "school_name": "Name unknown",
            "country_name": "Nigeria",
            "connectivity": false
        },
        {
            "lon": 5.767822266,
            "lat": 11.90496862,
            "school_name": "Name unknown",
            "country_name": "Nigeria",
            "connectivity": false
        },
        {
            "lon": 6.61336747,
            "lat": 11.97819824,
            "school_name": "Name unknown",
            "country_name": "Nigeria",
            "connectivity": false
        },
        {
            "lon": 6.10008,
            "lat": 12.83078,
            "school_name": "Name unknown",
            "country_name": "Nigeria",
            "connectivity": false
        },
        {
            "lon": 8.5015,
            "lat": 4.93712,
            "school_name": "Name unknown",
            "country_name": "Nigeria",
            "connectivity": false
        },
        {
            "lon": 8.176808333,
            "lat": 5.724136667,
            "school_name": "Name unknown",
            "country_name": "Nigeria",
            "connectivity": false
        },
        {
            "lon": 30.28854,
            "lat": -29.3562,
            "school_name": "Hawkstone Primary School",
            "country_name": "South Africa",
            "connectivity": false
        },
        {
            "lon": 33.47451905,
            "lat": -13.74489655,
            "school_name": "Bungwe Prim School",
            "country_name": "Malawi",
            "connectivity": false
        },
        {
            "lon": -59.59572726,
            "lat": -25.3241894,
            "school_name": "JIN N\u00b0 43 BROTECITO DE ESPERANZA - EPEP N\u00b0 160",
            "country_name": "Argentina",
            "connectivity": false
        },
        {
            "lon": -65.29525318,
            "lat": -24.19371413,
            "school_name": "COLEGIO N 2 ARMADA ARGENTINA",
            "country_name": "Argentina",
            "connectivity": false
        },
        {
            "lon": -64.4717576,
            "lat": -23.64491401,
            "school_name": "ESCUELA PROVINCIAL DE COMERCIO N 5",
            "country_name": "Argentina",
            "connectivity": false
        },
        {
            "lon": -75.7383,
            "lat": -14.0866,
            "school_name": "73",
            "country_name": "Peru",
            "connectivity": false
        },
        {
            "lon": -78.528,
            "lat": -7.20803,
            "school_name": "82122",
            "country_name": "Peru",
            "connectivity": false
        },
        {
            "lon": 7.659919112,
            "lat": 10.17984715,
            "school_name": "Name unknown",
            "country_name": "Nigeria",
            "connectivity": false
        },
        {
            "lon": 7.63656754,
            "lat": 11.19584247,
            "school_name": "Name unknown",
            "country_name": "Nigeria",
            "connectivity": false
        },
        {
            "lon": 9.194664,
            "lat": 11.44025,
            "school_name": "Name unknown",
            "country_name": "Nigeria",
            "connectivity": false
        },
        {
            "lon": 3.240384525,
            "lat": 6.565800478,
            "school_name": "Name unknown",
            "country_name": "Nigeria",
            "connectivity": false
        },
        {
            "lon": 6.75361197,
            "lat": 9.37357524,
            "school_name": "Name unknown",
            "country_name": "Nigeria",
            "connectivity": false
        },
        {
            "lon": 8.027612147,
            "lat": 5.043650281,
            "school_name": "Name unknown",
            "country_name": "Nigeria",
            "connectivity": false
        },
        {
            "lon": 9.326495,
            "lat": 7.055585,
            "school_name": "Name unknown",
            "country_name": "Nigeria",
            "connectivity": false
        },
        {
            "lon": 9.630548,
            "lat": 7.52094,
            "school_name": "Name unknown",
            "country_name": "Nigeria",
            "connectivity": false
        },
        {
            "lon": 9.559111,
            "lat": 7.569092,
            "school_name": "Name unknown",
            "country_name": "Nigeria",
            "connectivity": false
        },
        {
            "lon": 5.96345915,
            "lat": 12.48059166,
            "school_name": "Name unknown",
            "country_name": "Nigeria",
            "connectivity": false
        },
        {
            "lon": 8.5505016,
            "lat": 5.9478718,
            "school_name": "Name unknown",
            "country_name": "Nigeria",
            "connectivity": false
        },
        {
            "lon": 69.23416379,
            "lat": 41.31767418,
            "school_name": "324 -  sonli umumta\u2018lim maktabi",
            "country_name": "Uzbekistan",
            "connectivity": false
        },
        {
            "lon": 67.22751,
            "lat": 37.66159,
            "school_name": "30 -  sonli umumta\u2018lim maktabi",
            "country_name": "Uzbekistan",
            "connectivity": false
        },
        {
            "lon": 66.56413,
            "lat": 39.58782,
            "school_name": "10 -  sonli umumta\u2018lim maktabi",
            "country_name": "Uzbekistan",
            "connectivity": false
        },
        {
            "lon": 65.76321,
            "lat": 38.86406,
            "school_name": "46 -  sonli umumta\u2018lim maktabi",
            "country_name": "Uzbekistan",
            "connectivity": false
        },
        {
            "lon": 67.07444,
            "lat": 39.02644,
            "school_name": "63 -  sonli umumta\u2018lim maktabi",
            "country_name": "Uzbekistan",
            "connectivity": false
        },
        {
            "lon": 72.583134,
            "lat": 40.737371,
            "school_name": "47 -  sonli umumta\u2018lim maktabi",
            "country_name": "Uzbekistan",
            "connectivity": false
        },
        {
            "lon": -98.947472,
            "lat": 21.27175,
            "school_name": "TELESECUNDARIA 463",
            "country_name": "Mexico",
            "connectivity": false
        },
        {
            "lon": -102.059583,
            "lat": 20.555084,
            "school_name": "LUCAS ORTIZ BENITEZ",
            "country_name": "Mexico",
            "connectivity": false
        },
        {
            "lon": -103.7495,
            "lat": 21.074583,
            "school_name": "JOSE MARIA MERCADO",
            "country_name": "Mexico",
            "connectivity": false
        },
        {
            "lon": -99.227425,
            "lat": 18.783022,
            "school_name": "COLEGIO LUDERE VICTUM",
            "country_name": "Mexico",
            "connectivity": false
        },
        {
            "lon": -100.071218,
            "lat": 20.604402,
            "school_name": "MOCTEZUMA ILHUICAMINA",
            "country_name": "Mexico",
            "connectivity": false
        },
        {
            "lon": -100.493938,
            "lat": 20.621673,
            "school_name": "COLEGIO WEXFORD CAMPUS LA JOYA",
            "country_name": "Mexico",
            "connectivity": false
        },
        {
            "lon": -99.559635,
            "lat": 27.48933,
            "school_name": "ROBERTO BENAVIDES ARREDONDO",
            "country_name": "Mexico",
            "connectivity": false
        },
        {
            "lon": 69.0044,
            "lat": 24.3717,
            "school_name": "GBPS - MALOOK RAHIMOON",
            "country_name": "Pakistan",
            "connectivity": false
        },
        {
            "lon": 68.6122,
            "lat": 24.6722,
            "school_name": "GBPS - MUHAMMAD UMER JAT",
            "country_name": "Pakistan",
            "connectivity": false
        },
        {
            "lon": 68.5943,
            "lat": 24.5418,
            "school_name": "GBPS - MUSHTAQ PUNJABI",
            "country_name": "Pakistan",
            "connectivity": false
        },
        {
            "lon": 68.9111,
            "lat": 24.7608,
            "school_name": "GBPS - KHALIFO DOST MUHAMMAD",
            "country_name": "Pakistan",
            "connectivity": false
        },
        {
            "lon": 68.9785,
            "lat": 24.9557,
            "school_name": "GBPS - RASOOL BUX JAMALI",
            "country_name": "Pakistan",
            "connectivity": false
        },
        {
            "lon": 69.0561,
            "lat": 24.7001,
            "school_name": "GGPS - ABDULLAH JUNEJO",
            "country_name": "Pakistan",
            "connectivity": false
        },
        {
            "lon": 67.6501,
            "lat": 26.9415,
            "school_name": "GBPS - Mevo Khan Babar",
            "country_name": "Pakistan",
            "connectivity": false
        },
        {
            "lon": 67.4774,
            "lat": 26.7534,
            "school_name": "GGPS - HAJI KHAN",
            "country_name": "Pakistan",
            "connectivity": false
        },
        {
            "lon": 67.7391,
            "lat": 27.0072,
            "school_name": "GGPS - BAHAR WAHAN",
            "country_name": "Pakistan",
            "connectivity": false
        },
        {
            "lon": 67.7134,
            "lat": 27.1786,
            "school_name": "GBPS - KARAM KHANCHANDIO",
            "country_name": "Pakistan",
            "connectivity": false
        },
        {
            "lon": 67.8829,
            "lat": 27.1666,
            "school_name": "GBPS - SAEED KHAN CHANDIO",
            "country_name": "Pakistan",
            "connectivity": false
        },
        {
            "lon": 67.0447,
            "lat": 24.8876,
            "school_name": "KMC - BOYS PRIMARY SCHOOL",
            "country_name": "Pakistan",
            "connectivity": false
        },
        {
            "lon": 68.3805,
            "lat": 25.3541,
            "school_name": "GBPS - SHAHEED BENAZEER BHUTTO",
            "country_name": "Pakistan",
            "connectivity": false
        },
        {
            "lon": 68.9181,
            "lat": 28.3035,
            "school_name": "GBLSS - WAFADAR KHAN SUNDRANI  (BR:)",
            "country_name": "Pakistan",
            "connectivity": false
        },
        {
            "lon": 69.1326,
            "lat": 28.1881,
            "school_name": "GBPS - MUHAMMAD MUREED BAJKANI",
            "country_name": "Pakistan",
            "connectivity": false
        },
        {
            "lon": 68.6378,
            "lat": 27.1821,
            "school_name": "GGHS - BOZDAR WADA",
            "country_name": "Pakistan",
            "connectivity": false
        },
        {
            "lon": 68.1942,
            "lat": 27.487,
            "school_name": "GBHS - RAHIM BUGHIO",
            "country_name": "Pakistan",
            "connectivity": false
        },
        {
            "lon": 69.2684,
            "lat": 25.0376,
            "school_name": "GGPS - DEH 264",
            "country_name": "Pakistan",
            "connectivity": false
        },
        {
            "lon": 69.146,
            "lat": 25.3557,
            "school_name": "GBPS - MARI DEH 277",
            "country_name": "Pakistan",
            "connectivity": false
        },
        {
            "lon": 69.107,
            "lat": 25.7543,
            "school_name": "GBPS - DATO KHAN SHAR",
            "country_name": "Pakistan",
            "connectivity": false
        },