{
    "name": "Patchwork Kingdom #929 | Ormundor",
    "description": "The twin kingdoms of Ormundor, separated by a digital divide. A bustling kingdom of 205 schools on top that are all connected to the internet, and 170 schools, not connected, hidden in the upside down kingdom | Created for Giga (GigaConnect.org) \u2014 connecting every school in the world \u2014 in celebration of UNICEF's 75th birthday, by Nadieh Bremer",
    "external_url": "https://dummyURL.com/patchwork_kingdoms_929",
    "image": "https://dummy-storage-url.com/patchwork_kingdoms_929.png",
    "attributes": [
        {
            "trait_type": "Color palette",
            "value": "fruit loops"
        },
        {
            "display_type": "number",
            "trait_type": "Schools",
            "value": 407,
            "max_value": 460
        },
        {
            "display_type": "number",
            "trait_type": "Ratio - Connected",
            "value": 0.5,
            "max_value": 1
        },
        {
            "display_type": "number",
            "trait_type": "Ratio - Unconnected",
            "value": 0.42,
            "max_value": 1
        },
        {
            "display_type": "number",
            "trait_type": "Ratio - Data unavailable",
            "value": 0.08,
            "max_value": 1
        },
        {
            "trait_type": "Countries",
            "value": "AG-BJ-BR-CO-CR-GD-HN-KG-KZ-NA-PH-PS-RW-SL-ZW"
        },
        {
            "display_type": "number",
            "trait_type": "Symbols",
            "value": 47,
            "max_value": 51
        }
    ],
    "cluster_id": 929,
    "num_schools": 407,
    "num_schools_connected": 205,
    "num_schools_unconnected": 170,
    "num_schools_unknown": 32,
    "schools": [
        {
            "lon": -48.6114,
            "lat": -26.4604,
            "school_name": "CENTRO DE EDUCACAO INFANTIL LAIR CARVALHO PIAZERA",
            "country_name": "Brazil",
            "connectivity": true
        },
        {
            "lon": -84.6308,
            "lat": 15.13555,
            "school_name": "VICTORIANO ZELAYA",
            "country_name": "Honduras",
            "connectivity": true
        },
        {
            "lon": -84.6018,
            "lat": 15.29029,
            "school_name": "SANTIAGO RIVAS",
            "country_name": "Honduras",
            "connectivity": true
        },
        {
            "lon": -86.54687,
            "lat": 15.76224,
            "school_name": "LISA LOPEZ",
            "country_name": "Honduras",
            "connectivity": true
        },
        {
            "lon": -87.42464,
            "lat": 15.56059,
            "school_name": "FROYLAN TURCIOS",
            "country_name": "Honduras",
            "connectivity": true
        },
        {
            "lon": -88.00875,
            "lat": 14.08361,
            "school_name": "J.D. RAMON ROSA CASTILLO",
            "country_name": "Honduras",
            "connectivity": true
        },
        {
            "lon": -86.03717,
            "lat": 14.80693,
            "school_name": "ESCUELA RURAL MIXTA ALEJANDRO AGUILAR",
            "country_name": "Honduras",
            "connectivity": true
        },
        {
            "lon": -86.75538,
            "lat": 13.32743,
            "school_name": "RAMON ROSA",
            "country_name": "Honduras",
            "connectivity": true
        },
        {
            "lon": -48.9118,
            "lat": -26.9166,
            "school_name": "CDI DEP FRANCISCO MASTELLA",
            "country_name": "Brazil",
            "connectivity": true
        },
        {
            "lon": -52.9952,
            "lat": -26.853,
            "school_name": "CEIM MENINO JESUS",
            "country_name": "Brazil",
            "connectivity": true
        },
        {
            "lon": -48.5917,
            "lat": -27.4284,
            "school_name": "ESC MUN PROF\u00aa SILVIA PRAZERES DE CARVALHO",
            "country_name": "Brazil",
            "connectivity": true
        },
        {
            "lon": -85.63373,
            "lat": 15.67463,
            "school_name": "LA TRINIDAD",
            "country_name": "Honduras",
            "connectivity": true
        },
        {
            "lon": -87.33183,
            "lat": 14.91858,
            "school_name": "FRANCISCO MORAZAN",
            "country_name": "Honduras",
            "connectivity": true
        },
        {
            "lon": -87.84001,
            "lat": 14.60344,
            "school_name": "ERNESTINA FLORES",
            "country_name": "Honduras",
            "connectivity": true
        },
        {
            "lon": -87.62631,
            "lat": 14.87666,
            "school_name": "REPUBLICA DE GUATEMALA",
            "country_name": "Honduras",
            "connectivity": true
        },
        {
            "lon": -76.49041298,
            "lat": 3.417000402,
            "school_name": "Name unknown",
            "country_name": "Colombia",
            "connectivity": false
        },
        {
            "lon": -86.83246,
            "lat": 14.53744,
            "school_name": "J.N. REPUBLICA DE HONDURAS",
            "country_name": "Honduras",
            "connectivity": true
        },
        {
            "lon": -87.01728,
            "lat": 13.20605,
            "school_name": "REPUBLICA DE HONDURAS",
            "country_name": "Honduras",
            "connectivity": true
        },
        {
            "lon": -87.07072,
            "lat": 13.58131,
            "school_name": "JOSE TRINIDAD REYES",
            "country_name": "Honduras",
            "connectivity": true
        },
        {
            "lon": -86.82527,
            "lat": 13.68362,
            "school_name": "LEMPIRA",
            "country_name": "Honduras",
            "connectivity": true
        },
        {
            "lon": -86.45782,
            "lat": 14.33252,
            "school_name": "REPUBLICA DE MEXICO",
            "country_name": "Honduras",
            "connectivity": true
        },
        {
            "lon": -86.12605,
            "lat": 14.11219,
            "school_name": "REPUBLICA DE HONDURAS",
            "country_name": "Honduras",
            "connectivity": true
        },
        {
            "lon": -85.92575,
            "lat": 14.07599,
            "school_name": "LUIS MAMILIO RODAS",
            "country_name": "Honduras",
            "connectivity": true
        },
        {
            "lon": -85.8323,
            "lat": 14.00603,
            "school_name": "NUEVO AMANECER",
            "country_name": "Honduras",
            "connectivity": true
        },
        {
            "lon": -87.50531,
            "lat": 14.14967,
            "school_name": "RAMON ROSA",
            "country_name": "Honduras",
            "connectivity": true
        },
        {
            "lon": -86.90588,
            "lat": 14.80285,
            "school_name": "MI NUEVA ESPERANZA",
            "country_name": "Honduras",
            "connectivity": true
        },
        {
            "lon": -84.96808,
            "lat": 15.79159,
            "school_name": "MARVIN FIGUEROA",
            "country_name": "Honduras",
            "connectivity": true
        },
        {
            "lon": 31.87037,
            "lat": -19.63184,
            "school_name": "MUKAMBIRWA",
            "country_name": "Zimbabwe",
            "connectivity": true
        },
        {
            "lon": 32.36791,
            "lat": -19.20624,
            "school_name": "MUSIRINGOFA",
            "country_name": "Zimbabwe",
            "connectivity": true
        },
        {
            "lon": 32.37201,
            "lat": -17.84277,
            "school_name": "NGWENA",
            "country_name": "Zimbabwe",
            "connectivity": true
        },
        {
            "lon": 29.90497,
            "lat": -2.15631,
            "school_name": "GISARI",
            "country_name": "Rwanda",
            "connectivity": true
        },
        {
            "lon": -72.49027778,
            "lat": 7.905277778,
            "school_name": "CENT DOC ALMA LUZ VEGA RANGEL",
            "country_name": "Colombia",
            "connectivity": true
        },
        {
            "lon": 29.22647,
            "lat": -2.23431,
            "school_name": "JARAMA",
            "country_name": "Rwanda",
            "connectivity": false
        },
        {
            "lon": 29.74836111,
            "lat": -2.596833333,
            "school_name": "ECOLE AUTONOME DE BUTARE",
            "country_name": "Rwanda",
            "connectivity": false
        },
        {
            "lon": -84.04264396,
            "lat": 9.86827626,
            "school_name": "LOS GUIDO",
            "country_name": "Costa Rica",
            "connectivity": true
        },
        {
            "lon": -83.70521228,
            "lat": 9.29702519,
            "school_name": "BAJO LAS ESPERANZAS",
            "country_name": "Costa Rica",
            "connectivity": true
        },
        {
            "lon": 31.82494,
            "lat": -18.77053,
            "school_name": "ST THOMAS AQUINAS",
            "country_name": "Zimbabwe",
            "connectivity": true
        },
        {
            "lon": -84.40234639,
            "lat": 10.21807392,
            "school_name": "ARNULFO ARIAS MADRID",
            "country_name": "Costa Rica",
            "connectivity": true
        },
        {
            "lon": -84.43659945,
            "lat": 10.06988497,
            "school_name": "JOAQUIN LORENZO SANCHO QUESADA",
            "country_name": "Costa Rica",
            "connectivity": true
        },
        {
            "lon": -84.62281344,
            "lat": 11.03171225,
            "school_name": "LAS CUACAS",
            "country_name": "Costa Rica",
            "connectivity": true
        },
        {
            "lon": -84.57035013,
            "lat": 10.41794929,
            "school_name": "LA CRUZ",
            "country_name": "Costa Rica",
            "connectivity": true
        },
        {
            "lon": -83.96967319,
            "lat": 9.65180689,
            "school_name": "REPUBLICA DE BOLIVIA",
            "country_name": "Costa Rica",
            "connectivity": true
        },
        {
            "lon": -84.07264558,
            "lat": 10.0199189,
            "school_name": "EL PALENQUE",
            "country_name": "Costa Rica",
            "connectivity": true
        },
        {
            "lon": -82.92697118,
            "lat": 9.54779432,
            "school_name": "BOCA UREN",
            "country_name": "Costa Rica",
            "connectivity": true
        },
        {
            "lon": 35.268882,
            "lat": 32.251975,
            "school_name": "aseer ashamalia  basic for boys",
            "country_name": "Palestine",
            "connectivity": true
        },
        {
            "lon": 35.013638,
            "lat": 32.124688,
            "school_name": "azzoun-atmah secondary co-ed school",
            "country_name": "Palestine",
            "connectivity": true
        },
        {
            "lon": 35.21643,
            "lat": 31.877283,
            "school_name": "Name unknown",
            "country_name": "Palestine",
            "connectivity": true
        },
        {
            "lon": -74.19333333,
            "lat": 4.593333333,
            "school_name": "INSTITUCION EDUCATIVA NUEVO COMPARTIR",
            "country_name": "Colombia",
            "connectivity": true
        },
        {
            "lon": 35.241837,
            "lat": 32.399214,
            "school_name": "Marka Sec boys",
            "country_name": "Palestine",
            "connectivity": true
        },
        {
            "lon": 29.13203,
            "lat": -20.66612,
            "school_name": "GLASS BLOCK 2",
            "country_name": "Zimbabwe",
            "connectivity": true
        },
        {
            "lon": 29.86746,
            "lat": -18.94935,
            "school_name": "CAMELOT",
            "country_name": "Zimbabwe",
            "connectivity": true
        },
        {
            "lon": -34.9136,
            "lat": -8.0771,
            "school_name": "ESCOLA DE REFERENCIA EM ENSINO MEDIO VIDAL DE NEGREIROS",
            "country_name": "Brazil",
            "connectivity": true
        },
        {
            "lon": -61.81886869,
            "lat": 17.16099008,
            "school_name": "Cedar Grove Primary",
            "country_name": "Antigua and Barbuda",
            "connectivity": true
        },
        {
            "lon": -61.72421749,
            "lat": 17.08997673,
            "school_name": "Glanvilles Secondary",
            "country_name": "Antigua and Barbuda",
            "connectivity": true
        },
        {
            "lon": -76.12196553,
            "lat": 1.111964469,
            "school_name": "I.E.R. LA NOVIA",
            "country_name": "Colombia",
            "connectivity": true
        },
        {
            "lon": -74.595832,
            "lat": 4.399578,
            "school_name": "ESCUELA  RURAL PALACIOS",
            "country_name": "Colombia",
            "connectivity": true
        },
        {
            "lon": -76.094444,
            "lat": 5.286111,
            "school_name": "Name unknown",
            "country_name": "Colombia",
            "connectivity": false
        },
        {
            "lon": -75.56633981,
            "lat": 6.260354369,
            "school_name": "Name unknown",
            "country_name": "Colombia",
            "connectivity": false
        },
        {
            "lon": -76.49498102,
            "lat": 3.581867396,
            "school_name": "Name unknown",
            "country_name": "Colombia",
            "connectivity": false
        },
        {
            "lon": -70.75615784,
            "lat": 7.08696126,
            "school_name": "Name unknown",
            "country_name": "Colombia",
            "connectivity": false
        },
        {
            "lon": 17.08234,
            "lat": -22.56342,
            "school_name": "Holy Cross Convent",
            "country_name": "Namibia",
            "connectivity": true
        },
        {
            "lon": 120.423959,
            "lat": 15.848609,
            "school_name": "Patacbo ES",
            "country_name": "Philippines",
            "connectivity": true
        },
        {
            "lon": 121.691303,
            "lat": 18.198314,
            "school_name": "Cagoran Elementary School",
            "country_name": "Philippines",
            "connectivity": true
        },
        {
            "lon": 121.76667,
            "lat": 17.4,
            "school_name": "Sto. Tomas CS",
            "country_name": "Philippines",
            "connectivity": true
        },
        {
            "lon": 120.884164,
            "lat": 15.292765,
            "school_name": "San Roque ES",
            "country_name": "Philippines",
            "connectivity": true
        },
        {
            "lon": 120.3330776,
            "lat": 15.5057481,
            "school_name": "Tala ES",
            "country_name": "Philippines",
            "connectivity": true
        },
        {
            "lon": 121.086719,
            "lat": 13.571242,
            "school_name": "Parang Cueva ES",
            "country_name": "Philippines",
            "connectivity": true
        },
        {
            "lon": 120.820059,
            "lat": 14.196006,
            "school_name": "Pulo ni Sara ES",
            "country_name": "Philippines",
            "connectivity": true
        },
        {
            "lon": 121.440651,
            "lat": 12.52106,
            "school_name": "Mansalay CS",
            "country_name": "Philippines",
            "connectivity": true
        },
        {
            "lon": 124.015324,
            "lat": 13.040176,
            "school_name": "Sta. Cruz Elementary School",
            "country_name": "Philippines",
            "connectivity": true
        },
        {
            "lon": 122.5188889,
            "lat": 11.25166667,
            "school_name": "Mariano Gleyo ES",
            "country_name": "Philippines",
            "connectivity": true
        },
        {
            "lon": 124.765105,
            "lat": 11.70166,
            "school_name": "Cagboboto PS",
            "country_name": "Philippines",
            "connectivity": true
        },
        {
            "lon": 125.0050128,
            "lat": 11.18120869,
            "school_name": "Pawing ES",
            "country_name": "Philippines",
            "connectivity": true
        },
        {
            "lon": 124.753458,
            "lat": 9.09458,
            "school_name": "Manuyog ES",
            "country_name": "Philippines",
            "connectivity": true
        },
        {
            "lon": 125.656383,
            "lat": 7.3321354,
            "school_name": "Southern Davao ES",
            "country_name": "Philippines",
            "connectivity": true
        },
        {
            "lon": 124.5369435,
            "lat": 7.292044848,
            "school_name": "Piarro ES",
            "country_name": "Philippines",
            "connectivity": true
        },
        {
            "lon": 121.3744992,
            "lat": 17.05057015,
            "school_name": "Butac ES",
            "country_name": "Philippines",
            "connectivity": true
        },
        {
            "lon": 123.221191,
            "lat": 7.938578,
            "school_name": "Lison Valley NHS",
            "country_name": "Philippines",
            "connectivity": true
        },
        {
            "lon": -44.195915,
            "lat": -19.404432,
            "school_name": "EM MARIA DA CONCEICAO AZEREDO DIAS",
            "country_name": "Brazil",
            "connectivity": false
        },
        {
            "lon": -42.706398,
            "lat": -18.82198,
            "school_name": "CENTRO DE EDUCACAO INFANTIL D MARIINHA LEITE",
            "country_name": "Brazil",
            "connectivity": false
        },
        {
            "lon": -41.885628,
            "lat": -21.206472,
            "school_name": "E M VEREADOR ELZO GALVAO DA FRANCA",
            "country_name": "Brazil",
            "connectivity": true
        },
        {
            "lon": -49.398613,
            "lat": -28.707432,
            "school_name": "EMEIEF PROF JAIRO LUIZ THOMAZI",
            "country_name": "Brazil",
            "connectivity": true
        },
        {
            "lon": -76.8469488,
            "lat": 2.551122428,
            "school_name": "URIBE (sede principal)",
            "country_name": "Colombia",
            "connectivity": true
        },
        {
            "lon": -87.60448,
            "lat": 14.29991,
            "school_name": "MANUEL ANTONIO BONILLA",
            "country_name": "Honduras",
            "connectivity": true
        },
        {
            "lon": -71.21627696,
            "lat": 6.943273411,
            "school_name": "I.E. SAN JOSE DE LA PESQUERA - SEDE PRINCIPAL",
            "country_name": "Colombia",
            "connectivity": true
        },
        {
            "lon": -72.51338687,
            "lat": 7.820219263,
            "school_name": "SEDE KM OCHO",
            "country_name": "Colombia",
            "connectivity": true
        },
        {
            "lon": -72.92673614,
            "lat": 5.336308006,
            "school_name": "ESC LA SALINA",
            "country_name": "Colombia",
            "connectivity": true
        },
        {
            "lon": -72.898611,
            "lat": 11.503333,
            "school_name": "GUAJIRITO",
            "country_name": "Colombia",
            "connectivity": true
        },
        {
            "lon": -73.54,
            "lat": 4.29,
            "school_name": "SEDE PRINCIPAL - JOSE MARIA GUIOTH",
            "country_name": "Colombia",
            "connectivity": true
        },
        {
            "lon": -73.606389,
            "lat": 5.793611,
            "school_name": "ESC LA CAPILLA",
            "country_name": "Colombia",
            "connectivity": true
        },
        {
            "lon": -73.66050994,
            "lat": 6.253099913,
            "school_name": "ESCUELA RURAL LA LINTERNA",
            "country_name": "Colombia",
            "connectivity": true
        },
        {
            "lon": -74.22846993,
            "lat": 5.218389585,
            "school_name": "CONCENTRACION RURAL DE PAN DE AZUCAR",
            "country_name": "Colombia",
            "connectivity": true
        },
        {
            "lon": -74.54670774,
            "lat": 4.938300166,
            "school_name": "ESCUELA  RURAL MANILLAS A",
            "country_name": "Colombia",
            "connectivity": true
        },
        {
            "lon": -74.582778,
            "lat": 5.9375,
            "school_name": "ESC GENERAL GUSTAVO MATAMOROS",
            "country_name": "Colombia",
            "connectivity": true
        },
        {
            "lon": -75.311389,
            "lat": 6.232222,
            "school_name": "C. E. R. EDUVIGEZ GOMEZ",
            "country_name": "Colombia",
            "connectivity": true
        },
        {
            "lon": -75.98890682,
            "lat": 2.636162208,
            "school_name": "ESCUELA RURAL MIXTA AGUA BENDITA",
            "country_name": "Colombia",
            "connectivity": true
        },
        {
            "lon": -75.821543,
            "lat": 9.276374,
            "school_name": "EL ESFUERZO",
            "country_name": "Colombia",
            "connectivity": true
        },
        {
            "lon": -75.83308402,
            "lat": 9.137036544,
            "school_name": "CE COTOCA ARRIBA",
            "country_name": "Colombia",
            "connectivity": true
        },
        {
            "lon": -75.99391864,
            "lat": 5.313648719,
            "school_name": "SE VILLA CLARET - SEDE PRINCIPAL",
            "country_name": "Colombia",
            "connectivity": true
        },
        {
            "lon": -76.22222222,
            "lat": 4.090555556,
            "school_name": "SEDE INSTITUTO CAMPESTRE SANTA CECILIA",
            "country_name": "Colombia",
            "connectivity": true
        },
        {
            "lon": -76.097116,
            "lat": 4.108618,
            "school_name": "SAN FRANCISCO",
            "country_name": "Colombia",
            "connectivity": true
        },
        {
            "lon": -76.11381784,
            "lat": 3.617806303,
            "school_name": "MARIA LUISA DE LA ESPADA",
            "country_name": "Colombia",
            "connectivity": true
        },
        {
            "lon": -76.37713957,
            "lat": 2.621762123,
            "school_name": "CENTRO DOCENTE RURAL MIXTO EL TENGO",
            "country_name": "Colombia",
            "connectivity": true
        },
        {
            "lon": -76.32418866,
            "lat": 2.776317116,
            "school_name": "CENTRO DOCENTE RURAL MIXTO PALETON",
            "country_name": "Colombia",
            "connectivity": true
        },
        {
            "lon": -76.10996931,
            "lat": 9.193552871,
            "school_name": "ESCUELA NUEVA NARANJAL ARRIBA",
            "country_name": "Colombia",
            "connectivity": true
        },
        {
            "lon": -76.24962693,
            "lat": 3.602246625,
            "school_name": "RODRIGO DE BASTIDAS",
            "country_name": "Colombia",
            "connectivity": true
        },
        {
            "lon": -76.58055556,
            "lat": 0.6325,
            "school_name": "ESC RUR MIX LA ROCHELA",
            "country_name": "Colombia",
            "connectivity": true
        },
        {
            "lon": -76.674167,
            "lat": 7.667778,
            "school_name": "E U I BRISAS DE LA CASTELLANA",
            "country_name": "Colombia",
            "connectivity": true
        },
        {
            "lon": -77.04522819,
            "lat": 1.525849375,
            "school_name": "CENTRO EDUCATIVO MIRADOR LA PLAYA",
            "country_name": "Colombia",
            "connectivity": true
        },
        {
            "lon": -77.066944,
            "lat": 0.295278,
            "school_name": "ESC RUR MIX LOS OLIVOS",
            "country_name": "Colombia",
            "connectivity": true
        },
        {
            "lon": -77.30765391,
            "lat": 1.064674646,
            "school_name": "ESCUELA RURAL MIXTA EL PALMAR",
            "country_name": "Colombia",
            "connectivity": true
        },
        {
            "lon": -61.4767,
            "lat": -11.7236,
            "school_name": "CENTRO TECNICO ESTADUAL DE EDUCACAO RURAL ABAITARA",
            "country_name": "Brazil",
            "connectivity": false
        },
        {
            "lon": -69.5792,
            "lat": -10.8591,
            "school_name": "ESC JOSE HIPOLITO DE SOUZA",
            "country_name": "Brazil",
            "connectivity": false
        },
        {
            "lon": -62.9185,
            "lat": -0.9744,
            "school_name": "ESC MUN EVARISTA BRAZ",
            "country_name": "Brazil",
            "connectivity": false
        },
        {
            "lon": -59.9257,
            "lat": -3.0643,
            "school_name": "ESC MUL PINTOR CANDIDO PORTINARI",
            "country_name": "Brazil",
            "connectivity": true
        },
        {
            "lon": -55.0293,
            "lat": -1.5791,
            "school_name": "E M E I F SAO JOAO II",
            "country_name": "Brazil",
            "connectivity": false
        },
        {
            "lon": -49.9811,
            "lat": -0.1674,
            "school_name": "E M E F AMANCIO ANTONIO DOS SANTOS",
            "country_name": "Brazil",
            "connectivity": false
        },
        {
            "lon": -47.4485,
            "lat": -0.9494,
            "school_name": "E M E I F JOAO AMARAL RODRIGUES DIAS",
            "country_name": "Brazil",
            "connectivity": false
        },
        {
            "lon": -47.3595,
            "lat": -1.3994,
            "school_name": "E M E F CUMARU I",
            "country_name": "Brazil",
            "connectivity": false
        },
        {
            "lon": -47.1728,
            "lat": -1.2192,
            "school_name": "EEEF KM 2",
            "country_name": "Brazil",
            "connectivity": true
        },
        {
            "lon": -44.3071,
            "lat": -2.5143,
            "school_name": "UEB ENS FUND MONSENHOR FREDERICO CHAVES",
            "country_name": "Brazil",
            "connectivity": true
        },
        {
            "lon": -46.3172,
            "lat": -1.8004,
            "school_name": "EEEFM CEL NEWTON BARREIRA",
            "country_name": "Brazil",
            "connectivity": false
        },
        {
            "lon": -54.7806,
            "lat": -3.7984,
            "school_name": "E M E F LOURENCO FILHO",
            "country_name": "Brazil",
            "connectivity": false
        },
        {
            "lon": -54.3981,
            "lat": -3.797,
            "school_name": "E M E F MEC SEDUC KM 221 D",
            "country_name": "Brazil",
            "connectivity": false
        },
        {
            "lon": -49.1343,
            "lat": -5.3945,
            "school_name": "EMEF JOSE ALVES DE CARVALHO",
            "country_name": "Brazil",
            "connectivity": true
        },
        {
            "lon": -48.8531,
            "lat": -5.9236,
            "school_name": "E M E F JERUSALEM",
            "country_name": "Brazil",
            "connectivity": false
        },
        {
            "lon": -49.0539,
            "lat": -5.2121,
            "school_name": "NEI RAIMUNDA OLIVEIRA ROCHA",
            "country_name": "Brazil",
            "connectivity": true
        },
        {
            "lon": -50.9236,
            "lat": -17.8122,
            "school_name": "ESCOLA MUNICIPAL PROFESSORA MARIA DULCE ROCHA DUARTE BARBOSA",
            "country_name": "Brazil",
            "connectivity": true
        },
        {
            "lon": -46.6377,
            "lat": -1.0251,
            "school_name": "ESCOLA EM REGIME DE CONVENIO PARAISO DA CRIANCA",
            "country_name": "Brazil",
            "connectivity": true
        },
        {
            "lon": -50.6645,
            "lat": -1.9612,
            "school_name": "E M E F NOSSA SENHORA DAS GRACAS",
            "country_name": "Brazil",
            "connectivity": false
        },
        {
            "lon": -52.0771,
            "lat": -0.5485,
            "school_name": "ESC EST ITABOCA DO CAJARI",
            "country_name": "Brazil",
            "connectivity": false
        },
        {
            "lon": -51.2837,
            "lat": -0.1148,
            "school_name": "ESC MUL VARADOR DO MARACA",
            "country_name": "Brazil",
            "connectivity": false
        },
        {
            "lon": -51.0685,
            "lat": 0.0062,
            "school_name": "ESC MUL EXPEDICIONARIO WILSON MALCHER",
            "country_name": "Brazil",
            "connectivity": false
        },
        {
            "lon": -50.9512,
            "lat": 2.4927,
            "school_name": "CENTRO EDUC INF MEU PEDACINHO DE CHAO",
            "country_name": "Brazil",
            "connectivity": false
        },
        {
            "lon": -51.1758,
            "lat": -23.282,
            "school_name": "KALIN YOUSSEF YOUSSEF C M E I",
            "country_name": "Brazil",
            "connectivity": true
        },
        {
            "lon": -45.0773,
            "lat": -3.3261,
            "school_name": "EM NSA SRA DAS GRACAS",
            "country_name": "Brazil",
            "connectivity": true
        },
        {
            "lon": -45.1008,
            "lat": -2.9561,
            "school_name": "EM DR PEDRO NEIVA DE SANTANA",
            "country_name": "Brazil",
            "connectivity": false
        },
        {
            "lon": -45.1915,
            "lat": -2.5881,
            "school_name": "EM SAO JOSE DE RIBAMAR",
            "country_name": "Brazil",
            "connectivity": false
        },
        {
            "lon": -51.8069,
            "lat": -29.5128,
            "school_name": "ESC EST ENS MED REYNALDO AFFONSO AUGUSTIN",
            "country_name": "Brazil",
            "connectivity": true
        },
        {
            "lon": -45.2519,
            "lat": -2.9963,
            "school_name": "UI RAIMUNDO LAZARO PINHEIRO",
            "country_name": "Brazil",
            "connectivity": false
        },
        {
            "lon": -42.2581,
            "lat": -22.7237,
            "school_name": "E M PASTOR ALCEBIADES F MENDONCA",
            "country_name": "Brazil",
            "connectivity": true
        },
        {
            "lon": -47.4364,
            "lat": -5.4976,
            "school_name": "EM DA AMIZADE",
            "country_name": "Brazil",
            "connectivity": true
        },
        {
            "lon": -46.2427,
            "lat": -6.6699,
            "school_name": "EM SIRINO RODRIGUES",
            "country_name": "Brazil",
            "connectivity": false
        },
        {
            "lon": -43.1062,
            "lat": -5.002,
            "school_name": "UEM ALTO ALEGRE",
            "country_name": "Brazil",
            "connectivity": false
        },
        {
            "lon": -47.9591,
            "lat": -16.2409,
            "school_name": "ESCOLA MUNICIPAL SETOR NORTE MARAVILHA PROFESSOR BELIM",
            "country_name": "Brazil",
            "connectivity": true
        },
        {
            "lon": -43.0613,
            "lat": -5.2254,
            "school_name": "EMEF ALCIDES SOTERO DE ASSUNCAO",
            "country_name": "Brazil",
            "connectivity": false
        },
        {
            "lon": -46.7577,
            "lat": -6.3813,
            "school_name": "EM OTAVIO FRANCO",
            "country_name": "Brazil",
            "connectivity": false
        },
        {
            "lon": -46.8546,
            "lat": -4.4839,
            "school_name": "UI ROVERSAN DE MORAES NETO",
            "country_name": "Brazil",
            "connectivity": true
        },
        {
            "lon": -44.2691,
            "lat": -5.0217,
            "school_name": "CRECHE PARAISO DAS CRIANCAS I E II",
            "country_name": "Brazil",
            "connectivity": true
        },
        {
            "lon": -42.4643,
            "lat": -3.2588,
            "school_name": "UI BERNARDO COELHO DE ALMEIDA",
            "country_name": "Brazil",
            "connectivity": false
        },
        {
            "lon": -46.4153,
            "lat": -4.7223,
            "school_name": "EM SOUSA ANDRADE",
            "country_name": "Brazil",
            "connectivity": false
        },
        {
            "lon": -44.6037,
            "lat": -2.1286,
            "school_name": "CRECHE MUNICIPAL ANJINHOS DE DEUS",
            "country_name": "Brazil",
            "connectivity": false
        },
        {
            "lon": -42.3646,
            "lat": -3.6074,
            "school_name": "ESC MUL JOAO DE ASSIS MARQUES",
            "country_name": "Brazil",
            "connectivity": false
        },
        {
            "lon": -42.3295,
            "lat": -3.6291,
            "school_name": "UNID ESC JOSE DE CASTRO",
            "country_name": "Brazil",
            "connectivity": false
        },
        {
            "lon": -42.4182,
            "lat": -3.8483,
            "school_name": "UNID ESC FRANCISCO AUGUSTO MAIA",
            "country_name": "Brazil",
            "connectivity": false
        },
        {
            "lon": -42.2574,
            "lat": -7.7787,
            "school_name": "UNID ESC RAIO DE LUZ",
            "country_name": "Brazil",
            "connectivity": true
        },
        {
            "lon": -43.8649,
            "lat": -8.4463,
            "school_name": "CRECHE DELITE BENVINDO",
            "country_name": "Brazil",
            "connectivity": true
        },
        {
            "lon": -41.1352,
            "lat": -7.3527,
            "school_name": "PRE ESC O BOLINHA",
            "country_name": "Brazil",
            "connectivity": true
        },
        {
            "lon": -48.0725,
            "lat": -16.1032,
            "school_name": "COLEGIO ESTADUAL HERBERT DE SOUZA",
            "country_name": "Brazil",
            "connectivity": true
        },
        {
            "lon": -40.338,
            "lat": -3.5056,
            "school_name": "FRANCISCA DIOGO GOMES EEF",
            "country_name": "Brazil",
            "connectivity": true
        },
        {
            "lon": -40.1349,
            "lat": -4.3474,
            "school_name": "ADORALICE PEREIRA DAMASCENO ESC MUL ENS FUND",
            "country_name": "Brazil",
            "connectivity": false
        },
        {
            "lon": -39.6597,
            "lat": -3.062,
            "school_name": "EDGAR FLOR DOS SANTOS EEB",
            "country_name": "Brazil",
            "connectivity": true
        },
        {
            "lon": -38.8723,
            "lat": -4.3444,
            "school_name": "VOVO GUILHERMINA CRECHE",
            "country_name": "Brazil",
            "connectivity": true
        },
        {
            "lon": -38.2423,
            "lat": -4.1283,
            "school_name": "PERPETUO SOCORRO EEF N SRA DO",
            "country_name": "Brazil",
            "connectivity": false
        },
        {
            "lon": -38.4606,
            "lat": -4.1688,
            "school_name": "PICA PAU AMARELO CEI",
            "country_name": "Brazil",
            "connectivity": false
        },
        {
            "lon": -40.3549,
            "lat": -7.2103,
            "school_name": "IRACI VICENTINA DOS SANTOS EMEIF",
            "country_name": "Brazil",
            "connectivity": false
        },
        {
            "lon": -35.2909,
            "lat": -6.5049,
            "school_name": "ESCOLA ESTADUAL DO INGA",
            "country_name": "Brazil",
            "connectivity": true
        },
        {
            "lon": -37.5328,
            "lat": -6.1872,
            "school_name": "CRECHE INTEGRADA MARIA DO SOCORRO LINHARES",
            "country_name": "Brazil",
            "connectivity": false
        },
        {
            "lon": -37.8231,
            "lat": -6.5398,
            "school_name": "EMEF REGINA LEOPOLDINA DA CONCEICAO",
            "country_name": "Brazil",
            "connectivity": false
        },
        {
            "lon": -36.0338,
            "lat": -6.5114,
            "school_name": "EMEF PROFESSORA MARIA JOSE FIALHO DE PONTES",
            "country_name": "Brazil",
            "connectivity": false
        },
        {
            "lon": -35.8863,
            "lat": -6.9595,
            "school_name": "EMEF FRANCISCO PEDRO DE OLIVEIRA",
            "country_name": "Brazil",
            "connectivity": false
        },
        {
            "lon": -35.2944,
            "lat": -6.6414,
            "school_name": "EMEF DAURA RIBEIRO DA SILVA",
            "country_name": "Brazil",
            "connectivity": true
        },
        {
            "lon": -35.2493,
            "lat": -6.9512,
            "school_name": "EMEF JOSE MANOEL",
            "country_name": "Brazil",
            "connectivity": false
        },
        {
            "lon": -39.1697,
            "lat": -7.7144,
            "school_name": "ESCOLA MUL MANOEL MARCULINO PEREIRA",
            "country_name": "Brazil",
            "connectivity": true
        },
        {
            "lon": -37.2001,
            "lat": -7.7294,
            "school_name": "ESCOLA MUNICIPAL SITIO PONTA DIREITA",
            "country_name": "Brazil",
            "connectivity": false
        },
        {
            "lon": -37.1549,
            "lat": -8.3111,
            "school_name": "ESCOLA MUNICIPAL PEDRO BATISTA DOS SANTOS",
            "country_name": "Brazil",
            "connectivity": false
        },
        {
            "lon": -36.0813,
            "lat": -8.3233,
            "school_name": "GRUPO ESCOLAR VALDEMAR MENEZES",
            "country_name": "Brazil",
            "connectivity": false
        },
        {
            "lon": -34.8805,
            "lat": -7.847,
            "school_name": "ESCOLA JOSE LUIZ DE BARROS SAMPAIO",
            "country_name": "Brazil",
            "connectivity": true
        },
        {
            "lon": -35.1752,
            "lat": -7.8966,
            "school_name": "ESCOLA MUNICIPAL GENILDA MARTINS",
            "country_name": "Brazil",
            "connectivity": true
        },
        {
            "lon": -39.2933,
            "lat": -7.9474,
            "school_name": "ESCOLA MUNICIPAL MENINO JESUS",
            "country_name": "Brazil",
            "connectivity": true
        },
        {
            "lon": -40.0499,
            "lat": -19.3689,
            "school_name": "EMEF DINORAH ALMEIDA RODRIGUES",
            "country_name": "Brazil",
            "connectivity": true
        },
        {
            "lon": -44.2077,
            "lat": -13.036,
            "school_name": "ESCOLA MUNICIPAL JOAO DE SOUZA SILVA",
            "country_name": "Brazil",
            "connectivity": false
        },
        {
            "lon": -37.9288,
            "lat": -10.2851,
            "school_name": "ESCOLA MUNICIPAL NOVA CORONEL JOAO SA",
            "country_name": "Brazil",
            "connectivity": false
        },
        {
            "lon": -38.8332,
            "lat": -11.5576,
            "school_name": "ESCOLA MUNICIPAL RUI BARBOSA",
            "country_name": "Brazil",
            "connectivity": false
        },
        {
            "lon": -39.3328,
            "lat": -11.1555,
            "school_name": "ESCOLA MUNICIPAL SENHORA SANTANA",
            "country_name": "Brazil",
            "connectivity": true
        },
        {
            "lon": -38.926,
            "lat": -12.7848,
            "school_name": "ESC SILVIO VIEIRA MELO",
            "country_name": "Brazil",
            "connectivity": false
        },
        {
            "lon": -39.269,
            "lat": -12.9587,
            "school_name": "ESCOLA MUNICIPAL DR ROMULO BARRETO DE ALMEIDA",
            "country_name": "Brazil",
            "connectivity": true
        },
        {
            "lon": -39.2075,
            "lat": -12.6655,
            "school_name": "ESC MUL DUQUE DE CAXIAS",
            "country_name": "Brazil",
            "connectivity": false
        },
        {
            "lon": -38.4735,
            "lat": -12.941,
            "school_name": "ESCOLA MUNICIPAL COMUNITARIA DO BOM JUA",
            "country_name": "Brazil",
            "connectivity": true
        },
        {
            "lon": -38.4352,
            "lat": -12.936,
            "school_name": "ESCOLA MUNICIPAL COMUNITARIA DE SANTA IZABEL",
            "country_name": "Brazil",
            "connectivity": true
        },
        {
            "lon": -51.1352,
            "lat": -30.0847,
            "school_name": "ESC EST ENS FUN ONOFRE PIRES",
            "country_name": "Brazil",
            "connectivity": true
        },
        {
            "lon": -39.2492,
            "lat": -13.9469,
            "school_name": "ESC BOA VISTA",
            "country_name": "Brazil",
            "connectivity": false
        },
        {
            "lon": -39.494,
            "lat": -13.7903,
            "school_name": "ESC HERMILLO LOPES",
            "country_name": "Brazil",
            "connectivity": false
        },
        {
            "lon": -39.6516,
            "lat": -15.4613,
            "school_name": "CENTRO EDUCACIONAL MARIA SANTANA",
            "country_name": "Brazil",
            "connectivity": true
        },
        {
            "lon": -42.3682,
            "lat": -15.0237,
            "school_name": "ESCOLA MUNICIPAL PROFESSOR DECIO CARVALHO",
            "country_name": "Brazil",
            "connectivity": true
        },
        {
            "lon": -38.6761,
            "lat": -12.8965,
            "school_name": "CENTRO DE EDUCACAO INFANTIL DO MUN DE ITAPARICA",
            "country_name": "Brazil",
            "connectivity": true
        },
        {
            "lon": -42.7513,
            "lat": -14.2323,
            "school_name": "ESCOLA MUNICIPAL DE EDUCACAO INFANTIL VEREADOR JACKSON PEREIRA BALEEIRO",
            "country_name": "Brazil",
            "connectivity": true
        },
        {
            "lon": -39.5205,
            "lat": -12.866,
            "school_name": "ESCOLA MUNICIPAL NOSSA SENHORA DA CONCEICAO",
            "country_name": "Brazil",
            "connectivity": false
        },
        {
            "lon": -44.0471,
            "lat": -19.9744,
            "school_name": "EE PADRE JOAO BOSCO PENIDO BURNIER",
            "country_name": "Brazil",
            "connectivity": true
        },
        {
            "lon": -43.6711,
            "lat": -19.899,
            "school_name": "EM DR JOAO PINHEIRO",
            "country_name": "Brazil",
            "connectivity": true
        },
        {
            "lon": -43.0456,
            "lat": -18.2034,
            "school_name": "EM JOAO PAULA PIRES",
            "country_name": "Brazil",
            "connectivity": false
        },
        {
            "lon": -40.9838,
            "lat": -19.338,
            "school_name": "ESCOLA MUNICIPAL SANTO ANTONIO",
            "country_name": "Brazil",
            "connectivity": false
        },
        {
            "lon": -42.299,
            "lat": -18.8868,
            "school_name": "EM FRANCISCO FLOR DA SILVA",
            "country_name": "Brazil",
            "connectivity": true
        },
        {
            "lon": -45.4652,
            "lat": -22.4193,
            "school_name": "EE SILVERIO SANCHES",
            "country_name": "Brazil",
            "connectivity": true
        },
        {
            "lon": -43.3635,
            "lat": -21.7311,
            "school_name": "ESCOLA MUNICIPAL VEREADOR MARCOS FREESZ",
            "country_name": "Brazil",
            "connectivity": true
        },
        {
            "lon": -43.6317,
            "lat": -21.4617,
            "school_name": "EM JOSE CARLOS DE PAULA",
            "country_name": "Brazil",
            "connectivity": false
        },
        {
            "lon": -42.6863,
            "lat": -21.3894,
            "school_name": "EE FRANCISCO INACIO PEIXOTO",
            "country_name": "Brazil",
            "connectivity": true
        },
        {
            "lon": -44.1346,
            "lat": -21.1635,
            "school_name": "ESCOLA MUNICIPAL CARLOS RODRIGUES DE MELO",
            "country_name": "Brazil",
            "connectivity": true
        },
        {
            "lon": -41.5129,
            "lat": -17.3279,
            "school_name": "EM ELIESER PINHEIRO",
            "country_name": "Brazil",
            "connectivity": false
        },
        {
            "lon": -45.4382,
            "lat": -21.1911,
            "school_name": "EE MARIA DE ARAUJO MAGALHAES PINTO",
            "country_name": "Brazil",
            "connectivity": true
        },
        {
            "lon": -44.9361,
            "lat": -17.3724,
            "school_name": "EM DONA RITA SANTOS BRAGA",
            "country_name": "Brazil",
            "connectivity": true
        },
        {
            "lon": -44.9743,
            "lat": -22.3961,
            "school_name": "EM DO FUTURO",
            "country_name": "Brazil",
            "connectivity": true
        },
        {
            "lon": -37.5108,
            "lat": -9.1511,
            "school_name": "CENTRO MUNICIPAL DE EDUCACAO INFANTIL TIA TOINHA",
            "country_name": "Brazil",
            "connectivity": true
        },
        {
            "lon": -36.3906,
            "lat": -10.2869,
            "school_name": "ESCOLA MUNICIPAL DE EDUCACAO BASICA PROFESSOR IRENIO ARAUJO",
            "country_name": "Brazil",
            "connectivity": true
        },
        {
            "lon": -40.0641,
            "lat": -18.6755,
            "school_name": "EPM PALMITO",
            "country_name": "Brazil",
            "connectivity": true
        },
        {
            "lon": -51.0536,
            "lat": -29.6918,
            "school_name": "ESC EST ENS FUN JOAO BLOS",
            "country_name": "Brazil",
            "connectivity": true
        },
        {
            "lon": -52.1083,
            "lat": -30.7015,
            "school_name": "ESC EST ENS MED DOM FELICIANO",
            "country_name": "Brazil",
            "connectivity": true
        },
        {
            "lon": -43.2918,
            "lat": -22.7581,
            "school_name": "CIEP 199 CHARLES CHAPLIN",
            "country_name": "Brazil",
            "connectivity": true
        },
        {
            "lon": -43.5906,
            "lat": -22.8013,
            "school_name": "EMEI NISIA SOUZA MARCONDES",
            "country_name": "Brazil",
            "connectivity": true
        },
        {
            "lon": -44.4698,
            "lat": -22.4772,
            "school_name": "CENTRO MUNICIPAL DE ATENDIMENTO EDUCACIONAL ESPECIALIZADO A DEFICIENTES AUDITIVOS DE RESENDE- CEDEAR",
            "country_name": "Brazil",
            "connectivity": true
        },
        {
            "lon": -46.8708,
            "lat": -23.5025,
            "school_name": "IVANI MARIA PAES PROFESSORA",
            "country_name": "Brazil",
            "connectivity": true
        },
        {
            "lon": -46.7717,
            "lat": -23.5429,
            "school_name": "JOSE MARIA RODRIGUES LEITE PROFESSOR",
            "country_name": "Brazil",
            "connectivity": true
        },
        {
            "lon": -47.6257,
            "lat": -22.7384,
            "school_name": "OLINDO RIZZATO PASCHOAL ESCOLA MUNICIPAL",
            "country_name": "Brazil",
            "connectivity": true
        },
        {
            "lon": -47.5292,
            "lat": -23.1987,
            "school_name": "CHAPEUZINHO VERMELHO CENTRO DE EDUC INFANTIL MUNICIPAL",
            "country_name": "Brazil",
            "connectivity": true
        },
        {
            "lon": -47.7915,
            "lat": -23.0848,
            "school_name": "JUMIRIM GOVERNADOR MARIO COVAS JUNIOR EMEB",
            "country_name": "Brazil",
            "connectivity": true
        },
        {
            "lon": -47.9156,
            "lat": -22.5413,
            "school_name": "GUSTAVO TEIXEIRA EMEB",
            "country_name": "Brazil",
            "connectivity": false
        },
        {
            "lon": -46.6848,
            "lat": -23.6873,
            "school_name": "CEI DIRET MARIA DO CARMO PAZOS FERNANDEZ - MADU PROFA",
            "country_name": "Brazil",
            "connectivity": true
        },
        {
            "lon": -48.0034,
            "lat": -24.7,
            "school_name": "SISTEMA INTEGRADO DE EDUCACAO INFANTIL SIMEI",
            "country_name": "Brazil",
            "connectivity": true
        },
        {
            "lon": -49.2434,
            "lat": -23.5209,
            "school_name": "ESCOLA MUNICIPAL PROFESSORA CONSUELLO MONTEIRO GONCALVES",
            "country_name": "Brazil",
            "connectivity": true
        },
        {
            "lon": -46.7226,
            "lat": -23.2826,
            "school_name": "CORA CORALINA ESCOLA MUNICIPAL",
            "country_name": "Brazil",
            "connectivity": true
        },
        {
            "lon": -46.8175,
            "lat": -23.5851,
            "school_name": "MAGALI DO NASCIMENTO VIEIRA ARIAS CE",
            "country_name": "Brazil",
            "connectivity": true
        },
        {
            "lon": -46.367,
            "lat": -23.4237,
            "school_name": "RECANTO PRIMAVERA EM",
            "country_name": "Brazil",
            "connectivity": true
        },
        {
            "lon": -47.6964,
            "lat": -21.5586,
            "school_name": "IRINEU SILVA CEMEI",
            "country_name": "Brazil",
            "connectivity": true
        },
        {
            "lon": -39.5516,
            "lat": -16.5822,
            "school_name": "ESCOLA MUNICIPAL LUCIO FERREIRA DA SILVA",
            "country_name": "Brazil",
            "connectivity": true
        },
        {
            "lon": -52.7715,
            "lat": -23.4148,
            "school_name": "FRANCISCO SELLA C M E I",
            "country_name": "Brazil",
            "connectivity": true
        },
        {
            "lon": -47.1701,
            "lat": -22.9736,
            "school_name": "ROSENTINA FARIA SYLLOS PROFESSORA",
            "country_name": "Brazil",
            "connectivity": true
        },
        {
            "lon": -49.2751,
            "lat": -25.5529,
            "school_name": "PAULO ROGERIO G ESMANHOTO E M EI EF",
            "country_name": "Brazil",
            "connectivity": true
        },
        {
            "lon": -58.6074,
            "lat": -11.1416,
            "school_name": "CENTRO EDUCACIONAL MUNICIPAL PEQUENO PRINCIPE",
            "country_name": "Brazil",
            "connectivity": true
        },
        {
            "lon": -39.147,
            "lat": -14.7769,
            "school_name": "EE - COLEGIO ESTADUAL INDIGENA TUPINAMBA AMOTARA - ALDEIA ITAPUA",
            "country_name": "Brazil",
            "connectivity": true
        },
        {
            "lon": -52.3878,
            "lat": -26.1427,
            "school_name": "MARIA F DOS SANTOS E M PROFA EI EF",
            "country_name": "Brazil",
            "connectivity": true
        },
        {
            "lon": -48.7313,
            "lat": -26.8695,
            "school_name": "EB PROF",
            "country_name": "Brazil",
            "connectivity": true
        },
        {
            "lon": -48.8935,
            "lat": -27.1616,
            "school_name": "CENTRO EDUCACAO INFANTIL TIA NORMA",
            "country_name": "Brazil",
            "connectivity": true
        },
        {
            "lon": -52.4458,
            "lat": -27.6268,
            "school_name": "EMEF ANGELO ROSA",
            "country_name": "Brazil",
            "connectivity": true
        },
        {
            "lon": -51.6012,
            "lat": -30.8545,
            "school_name": "ESC MUN 1 G INC MANOEL PEREIRA DE CAMPOS",
            "country_name": "Brazil",
            "connectivity": true
        },
        {
            "lon": -37.2116,
            "lat": -9.6912,
            "school_name": "ESCOLA MUNICIPAL ANTONIO DE CASTRO ALVES",
            "country_name": "Brazil",
            "connectivity": true
        },
        {
            "lon": -51.1633,
            "lat": -29.9023,
            "school_name": "EMEI CARROSSEL",
            "country_name": "Brazil",
            "connectivity": true
        },
        {
            "lon": -53.2171,
            "lat": -29.305,
            "school_name": "E E IND ENS FUN KARAI TATAENDY VERA CLAUDIO ACOSTA",
            "country_name": "Brazil",
            "connectivity": true
        },
        {
            "lon": -55.2813,
            "lat": -10.4404,
            "school_name": "ESCOLA MUNICIPAL PLANALTO",
            "country_name": "Brazil",
            "connectivity": true
        },
        {
            "lon": -51.5864,
            "lat": -16.1793,
            "school_name": "ESCOLA MUNICIPAL CAIAPO",
            "country_name": "Brazil",
            "connectivity": true
        },
        {
            "lon": -49.3359,
            "lat": -14.1942,
            "school_name": "COLEGIO ESTADUAL JOAO GONCALVES FILHO",
            "country_name": "Brazil",
            "connectivity": true
        },
        {
            "lon": -46.6464,
            "lat": -23.5557,
            "school_name": "MARIA JOSE",
            "country_name": "Brazil",
            "connectivity": true
        },
        {
            "lon": -54.336,
            "lat": -30.3437,
            "school_name": "EMEF DR JOAO MANOEL SALVADE",
            "country_name": "Brazil",
            "connectivity": true
        },
        {
            "lon": -50.9194,
            "lat": -17.7887,
            "school_name": "CRECHE DE AMOR SAO FRANCISCO",
            "country_name": "Brazil",
            "connectivity": true
        },
        {
            "lon": -49.307,
            "lat": -16.6085,
            "school_name": "ESC MUL RECANTO DO BOSQUE",
            "country_name": "Brazil",
            "connectivity": true
        },
        {
            "lon": -47.5575,
            "lat": -15.9631,
            "school_name": "EC CAPAO SECO",
            "country_name": "Brazil",
            "connectivity": false
        },
        {
            "lon": -45.7284,
            "lat": -23.1862,
            "school_name": "HERMENGARDA RODRIGUES BRAGA PROFESSORA EMEF",
            "country_name": "Brazil",
            "connectivity": true
        },
        {
            "lon": -46.019,
            "lat": -23.3159,
            "school_name": "MARIA REGINA CACHUTE PROFESSORA EMEF",
            "country_name": "Brazil",
            "connectivity": true
        },
        {
            "lon": -47.9245,
            "lat": -15.8282,
            "school_name": "CEF 01 DO PLANALTO",
            "country_name": "Brazil",
            "connectivity": true
        },
        {
            "lon": -47.3222,
            "lat": -22.7389,
            "school_name": "MARIO PATARRA FRATTINI PROF",
            "country_name": "Brazil",
            "connectivity": true
        },
        {
            "lon": -47.9749,
            "lat": -16.0841,
            "school_name": "ESCOLA MUNICIPAL DE EDUCACAO INFANTIL PEDACINHO DO CEU",
            "country_name": "Brazil",
            "connectivity": true
        },
        {
            "lon": -46.5563,
            "lat": -23.4338,
            "school_name": "TOMIE OHTAKE",
            "country_name": "Brazil",
            "connectivity": true
        },
        {
            "lon": -42.4859,
            "lat": -14.0649,
            "school_name": "EE - COLEGIO ESTADUAL PEDRO ATANASIO GARCIA DIST DE MANIACU",
            "country_name": "Brazil",
            "connectivity": true
        },
        {
            "lon": -52.0386,
            "lat": -23.4576,
            "school_name": "LUCILIA V FERRARI E M PROFA EF",
            "country_name": "Brazil",
            "connectivity": true
        },
        {
            "lon": -63.8349,
            "lat": -8.7732,
            "school_name": "EEEFM SAO LUIZ",
            "country_name": "Brazil",
            "connectivity": true
        },
        {
            "lon": -46.8425,
            "lat": -23.564,
            "school_name": "REGINA HALEPIAN ANTUNES PROFESSORA",
            "country_name": "Brazil",
            "connectivity": true
        },
        {
            "lon": -40.6132,
            "lat": -8.1616,
            "school_name": "ESCOLA DE REFERENCIA EM ENSINO MEDIO RAIMUNDO DE CASTRO FERREIRA",
            "country_name": "Brazil",
            "connectivity": true
        },
        {
            "lon": -41.9636,
            "lat": -18.9042,
            "school_name": "ESCOLA MUNICIPAL DE EDUCACAO INFANTIL E ENSINO FUNDAMENTAL PASTOR FABIANO ALVES",
            "country_name": "Brazil",
            "connectivity": true
        },
        {
            "lon": -49.8819,
            "lat": -25.1417,
            "school_name": "MARGARETE M MAZUR E E C PROFA EF",
            "country_name": "Brazil",
            "connectivity": true
        },
        {
            "lon": -42.8269,
            "lat": -5.0132,
            "school_name": "U E PROF JOSE CAMILLO DA SILVEIRA FILHO",
            "country_name": "Brazil",
            "connectivity": true
        },
        {
            "lon": -37.831,
            "lat": -4.7884,
            "school_name": "JOAQUIM VENANCIO EEF",
            "country_name": "Brazil",
            "connectivity": true
        },
        {
            "lon": -42.8485,
            "lat": -5.0915,
            "school_name": "EMEF LAURO RODRIGUES DE SAMPAIO",
            "country_name": "Brazil",
            "connectivity": true
        },
        {
            "lon": -37.347,
            "lat": -5.1786,
            "school_name": "UNIDADE DE EDUCACAO INFANTIL MARIO NEGOCIO",
            "country_name": "Brazil",
            "connectivity": true
        }
    ],
    "num_countries": 15,
    "countries": [
        "Antigua and Barbuda",
        "Benin",
        "Brazil",
        "Colombia",
        "Costa Rica",
        "Grenada",
        "Honduras",
        "Kazakhstan",
        "Kyrgyzstan",
        "Namibia",
        "Palestine",
        "Philippines",
        "Rwanda",
        "Sierra Leone",
        "Zimbabwe"
    ],
    "schools_no_data": [
        {
            "lon": 25.9421459,
            "lat": -24.6082153,
            "school_name": "Ledumang (RPC)",
            "country_name": "Botswana",
            "connectivity": false
        },
        {
            "lon": -9.884596,
            "lat": 5.914322,
            "school_name": "Gbardyukpee Public",
            "country_name": "Liberia",
            "connectivity": false
        },
        {
            "lon": -9.268935,
            "lat": 6.462435,
            "school_name": "Kardour Town",
            "country_name": "Liberia",
            "connectivity": false
        },
        {
            "lon": -8.848211,
            "lat": 4.989507,
            "school_name": "Kpanyan Central Elementary",
            "country_name": "Liberia",
            "connectivity": false
        },
        {
            "lon": 7.507725,
            "lat": 6.345155,
            "school_name": "Name unknown",
            "country_name": "Nigeria",
            "connectivity": false
        },
        {
            "lon": -0.6745598,
            "lat": 5.546935,
            "school_name": "Name unknown",
            "country_name": "Ghana",
            "connectivity": false
        },
        {
            "lon": -1.1614052,
            "lat": 5.4532554,
            "school_name": "Name unknown",
            "country_name": "Ghana",
            "connectivity": false
        },
        {
            "lon": 33.1046957,
            "lat": 14.5331940833333,
            "school_name": "Name unknown",
            "country_name": "Sudan",
            "connectivity": false
        },
        {
            "lon": 34.35464892,
            "lat": 11.8225572,
            "school_name": "Name unknown",
            "country_name": "Sudan",
            "connectivity": false
        },
        {
            "lon": 33.39626733,
            "lat": 11.41622027,
            "school_name": "Name unknown",
            "country_name": "Sudan",
            "connectivity": false
        },
        {
            "lon": 25.20559907,
            "lat": 10.58977373,
            "school_name": "Name unknown",
            "country_name": "Sudan",
            "connectivity": false
        },
        {
            "lon": 23.48374757,
            "lat": 12.93333522,
            "school_name": "Name unknown",
            "country_name": "Sudan",
            "connectivity": false
        },
        {
            "lon": 23.47223583,
            "lat": 12.90790803,
            "school_name": "Name unknown",
            "country_name": "Sudan",
            "connectivity": false
        },
        {
            "lon": 0.8845037,
            "lat": 5.7903248,
            "school_name": "Name unknown",
            "country_name": "Ghana",
            "connectivity": false
        },
        {
            "lon": -1.8500565,
            "lat": 9.2524467,
            "school_name": "Name unknown",
            "country_name": "Ghana",
            "connectivity": false
        },
        {
            "lon": -1.8501006,
            "lat": 9.2518706,
            "school_name": "Name unknown",
            "country_name": "Ghana",
            "connectivity": false
        },
        {
            "lon": -1.8637702,
            "lat": 9.2215791,
            "school_name": "Name unknown",
            "country_name": "Ghana",
            "connectivity": false
        },
        {
            "lon": -1.7480198,
            "lat": 4.9327646,
            "school_name": "Name unknown",
            "country_name": "Ghana",
            "connectivity": false
        },
        {
            "lon": -0.6392402,
            "lat": 5.3529499,
            "school_name": "Name unknown",
            "country_name": "Ghana",
            "connectivity": false
        },
        {
            "lon": -2.0034588,
            "lat": 5.2899903,
            "school_name": "Name unknown",
            "country_name": "Ghana",
            "connectivity": false
        },
        {
            "lon": -0.1989479,
            "lat": 5.5884044,
            "school_name": "Name unknown",
            "country_name": "Ghana",
            "connectivity": false
        },
        {
            "lon": 32.90645,
            "lat": -2.51387,
            "school_name": "Stepping Stone",
            "country_name": "United Republic of Tanzania",
            "connectivity": false
        },
        {
            "lon": 37.80697,
            "lat": -4.36243,
            "school_name": "MONGOLOMA",
            "country_name": "United Republic of Tanzania",
            "connectivity": false
        },
        {
            "lon": 33.82961,
            "lat": -9.62646,
            "school_name": "KABANGA",
            "country_name": "United Republic of Tanzania",
            "connectivity": false
        },
        {
            "lon": 38.76389,
            "lat": -6.79641,
            "school_name": "KAWAWA",
            "country_name": "United Republic of Tanzania",
            "connectivity": false
        },
        {
            "lon": 35.25502,
            "lat": -8.24896,
            "school_name": "NDOLEZI",
            "country_name": "United Republic of Tanzania",
            "connectivity": false
        },
        {
            "lon": 35.99716,
            "lat": -3.48256,
            "school_name": "LAIBONI",
            "country_name": "United Republic of Tanzania",
            "connectivity": false
        },
        {
            "lon": 31.99654,
            "lat": -5.17572,
            "school_name": "AMANI",
            "country_name": "United Republic of Tanzania",
            "connectivity": false
        },
        {
            "lon": 38.68428,
            "lat": -5.31911,
            "school_name": "KILONGO",
            "country_name": "United Republic of Tanzania",
            "connectivity": false
        },
        {
            "lon": -1.721608,
            "lat": 7.5510112,
            "school_name": "Name unknown",
            "country_name": "Ghana",
            "connectivity": false
        },
        {
            "lon": 36.8769419,
            "lat": -1.2535507,
            "school_name": "Name unknown",
            "country_name": "Kenya",
            "connectivity": false
        },
        {
            "lon": 19.44099426,
            "lat": 45.36517228,
            "school_name": "\u0410\u043b\u0435\u043a\u0441\u0430 \u0428\u0430\u043d\u0442\u0438\u045b",
            "country_name": "Serbia",
            "connectivity": false
        },
        {
            "lon": 1.255356667,
            "lat": 6.140785,
            "school_name": "JEPL ST PIERRE",
            "country_name": "Togo",
            "connectivity": false
        },
        {
            "lon": 0.2008,
            "lat": 10.665216,
            "school_name": "JEP TANDJOUARE",
            "country_name": "Togo",
            "connectivity": false
        },
        {
            "lon": 1.17146318,
            "lat": 7.35466565,
            "school_name": "EPP ILE BAHE",
            "country_name": "Togo",
            "connectivity": false
        },
        {
            "lon": 0.748944,
            "lat": 9.163541,
            "school_name": "EPP KPALOU",
            "country_name": "Togo",
            "connectivity": false
        },
        {
            "lon": 1.206793,
            "lat": 9.546378,
            "school_name": "EPP TCHITCHINIDA G/B",
            "country_name": "Togo",
            "connectivity": false
        },
        {
            "lon": 0.556319,
            "lat": 10.317562,
            "school_name": "EPP BONZOUKOU",
            "country_name": "Togo",
            "connectivity": false
        },
        {
            "lon": 0.549299,
            "lat": 10.274978,
            "school_name": "EPP TCHANWIEKOU",
            "country_name": "Togo",
            "connectivity": false
        },
        {
            "lon": 0.933769548,
            "lat": 8.368367135,
            "school_name": "CEGIL KPAWA",
            "country_name": "Togo",
            "connectivity": false
        },
        {
            "lon": 19.434675,
            "lat": 44.390214,
            "school_name": "\u0411\u043e\u0440\u0438\u0432\u043e\u0458\u0435 \u0416. \u041c\u0438\u043b\u043e\u0458\u0435\u0432\u0438\u045b",
            "country_name": "Serbia",
            "connectivity": false
        },
        {
            "lon": 19.515969,
            "lat": 44.300812,
            "school_name": "\u0412\u043e\u0458\u0432\u043e\u0434\u0430 \u041c\u0438\u0448\u0438\u045b",
            "country_name": "Serbia",
            "connectivity": false
        },
        {
            "lon": 33.42057,
            "lat": -3.66769,
            "school_name": "TOWN",
            "country_name": "United Republic of Tanzania",
            "connectivity": false
        },
        {
            "lon": 32.93645,
            "lat": -3.31715,
            "school_name": "IZIZIMBA A",
            "country_name": "United Republic of Tanzania",
            "connectivity": false
        },
        {
            "lon": 29.61938,
            "lat": -4.89919,
            "school_name": "BANGWE",
            "country_name": "United Republic of Tanzania",
            "connectivity": false
        },
        {
            "lon": 29.66187,
            "lat": -4.87639,
            "school_name": "MWASENGA",
            "country_name": "United Republic of Tanzania",
            "connectivity": false
        },
        {
            "lon": 1.673211,
            "lat": 6.442289,
            "school_name": "LYCEE MASSEDA",
            "country_name": "Togo",
            "connectivity": false
        },
        {
            "lon": 33.8300629,
            "lat": -13.92217935,
            "school_name": "Mbwetu Primary School",
            "country_name": "Malawi",
            "connectivity": false
        },
        {
            "lon": 33.96785898,
            "lat": -14.05538939,
            "school_name": "Mphangula Primary School",
            "country_name": "Malawi",
            "connectivity": false
        },
        {
            "lon": 34.15150879,
            "lat": -11.51145608,
            "school_name": "Luwazi",
            "country_name": "Malawi",
            "connectivity": false
        },
        {
            "lon": 35.29692821,
            "lat": -16.00832157,
            "school_name": "Luchenza CDSS",
            "country_name": "Malawi",
            "connectivity": false
        },
        {
            "lon": 35.26479844,
            "lat": -16.09970546,
            "school_name": "Khonjeni",
            "country_name": "Malawi",
            "connectivity": false
        },
        {
            "lon": 7.203159,
            "lat": 5.303641,
            "school_name": "Name unknown",
            "country_name": "Nigeria",
            "connectivity": false
        },
        {
            "lon": 23.60785825,
            "lat": -3.500289197,
            "school_name": "INST OMONDJO",
            "country_name": "Democratic Republic of the Congo",
            "connectivity": false
        },
        {
            "lon": 24.23117098,
            "lat": -1.912225264,
            "school_name": "INST DJONGA",
            "country_name": "Democratic Republic of the Congo",
            "connectivity": false
        },
        {
            "lon": 29.09328772,
            "lat": -4.101686206,
            "school_name": "COMPLEXE SCOLAIRE DU PANAFRICANISME",
            "country_name": "Democratic Republic of the Congo",
            "connectivity": false
        },
        {
            "lon": 22.4407143,
            "lat": 4.087350168,
            "school_name": "INST MGR  TANGHE",
            "country_name": "Democratic Republic of the Congo",
            "connectivity": false
        },
        {
            "lon": 13.48666601,
            "lat": -5.834523147,
            "school_name": "INST   KINGIMBI",
            "country_name": "Democratic Republic of the Congo",
            "connectivity": false
        },
        {
            "lon": -99.096986,
            "lat": 18.985586,
            "school_name": "INSTITUTO DE COMPUTACION E INFORMATICA ICEI TEPOZTLAN",
            "country_name": "Mexico",
            "connectivity": false
        },
        {
            "lon": -9.02024,
            "lat": 16.54952,
            "school_name": "\u0644\u0642\u0644\u064a\u0643",
            "country_name": "Mauritania",
            "connectivity": false
        },
        {
            "lon": -10.61501,
            "lat": 16.74459,
            "school_name": "\u0644\u0647\u0628\u064a\u0644\u0647",
            "country_name": "Mauritania",
            "connectivity": false
        },
        {
            "lon": 33.82053,
            "lat": 1.41347,
            "school_name": "OGOOMA P/SCH",
            "country_name": "Uganda",
            "connectivity": false
        },
        {
            "lon": 32.27754,
            "lat": 2.75886,
            "school_name": "Rwot Corner Memorial College",
            "country_name": "Uganda",
            "connectivity": false
        },
        {
            "lon": 33.99986,
            "lat": 0.329,
            "school_name": "Ebenezer Prog. S.S",
            "country_name": "Uganda",
            "connectivity": false
        },
        {
            "lon": 30.64628,
            "lat": 0.22544,
            "school_name": "Lyakahungu P.S",
            "country_name": "Uganda",
            "connectivity": false
        },
        {
            "lon": 31.24155,
            "lat": -0.85973,
            "school_name": "Magabirano P.S.",
            "country_name": "Uganda",
            "connectivity": false
        },
        {
            "lon": 29.64811,
            "lat": -0.92258,
            "school_name": "Rutendere P.S.",
            "country_name": "Uganda",
            "connectivity": false
        },
        {
            "lon": 32.54817,
            "lat": 0.39729,
            "school_name": "Jolly Infant",
            "country_name": "Uganda",
            "connectivity": false
        },
        {
            "lon": -58.5029958,
            "lat": -34.5474782,
            "school_name": "CENTRO INVESTIGACION EDUCATIVA",
            "country_name": "Argentina",
            "connectivity": false
        },
        {
            "lon": 29.86942,
            "lat": -27.00676,
            "school_name": "La?\u0192?\u00abrskool Amersfoort",
            "country_name": "South Africa",
            "connectivity": false
        },
        {
            "lon": 29.11244,
            "lat": -25.86784,
            "school_name": "Zacheus Malaza Secondary School",
            "country_name": "South Africa",
            "connectivity": false
        },
        {
            "lon": 27.8084,
            "lat": -25.6522,
            "school_name": "Rabboni Christian School",
            "country_name": "South Africa",
            "connectivity": false
        },
        {
            "lon": 27.00081,
            "lat": -24.8013,
            "school_name": "Tlhaalapitse Primary School",
            "country_name": "South Africa",
            "connectivity": false
        },
        {
            "lon": 31.29853,
            "lat": -24.82049,
            "school_name": "Machaye Senior Secondary School",
            "country_name": "South Africa",
            "connectivity": false
        },
        {
            "lon": 27.88165,
            "lat": -25.59817,
            "school_name": "Sedimosang Middle School",
            "country_name": "South Africa",
            "connectivity": false
        },
        {
            "lon": 18.55477,
            "lat": -33.9519,
            "school_name": "Central Park Primary School",
            "country_name": "South Africa",
            "connectivity": false
        },
        {
            "lon": 29.82763,
            "lat": -24.22946,
            "school_name": "Mashianyane Secondary School",
            "country_name": "South Africa",
            "connectivity": false
        },
        {
            "lon": 29.85394,
            "lat": -22.61535,
            "school_name": "Mopane Intermediate School",
            "country_name": "South Africa",
            "connectivity": false
        },
        {
            "lon": 18.51092,
            "lat": -33.96008,
            "school_name": "Madrasah Tul Ighsaan",
            "country_name": "South Africa",
            "connectivity": false
        },
        {
            "lon": 22.24271,
            "lat": -33.59541,
            "school_name": "Babbel en Krabbels Creche",
            "country_name": "South Africa",
            "connectivity": false
        },
        {
            "lon": 29.28678,
            "lat": -23.74855,
            "school_name": "School",
            "country_name": "South Africa",
            "connectivity": false
        },
        {
            "lon": 30.83201,
            "lat": -30.01509,
            "school_name": "Sophie Phewa Senior Primary School",
            "country_name": "South Africa",
            "connectivity": false
        },
        {
            "lon": 30.842,
            "lat": -30.01136,
            "school_name": "Simbambanezulu Secondary School",
            "country_name": "South Africa",
            "connectivity": false
        },
        {
            "lon": 30.26647,
            "lat": -23.1598,
            "school_name": "Khwara Secondary School",
            "country_name": "South Africa",
            "connectivity": false
        },
        {
            "lon": 29.77911,
            "lat": -28.56214,
            "school_name": "Sharaj Training And Ambulance Services",
            "country_name": "South Africa",
            "connectivity": false
        },
        {
            "lon": 30.92992,
            "lat": -29.95648,
            "school_name": "Enaleni Secondary School",
            "country_name": "South Africa",
            "connectivity": false
        },
        {
            "lon": 31.44663,
            "lat": -28.09824,
            "school_name": "Mfabeni Primary School",
            "country_name": "South Africa",
            "connectivity": false
        },
        {
            "lon": 31.5452,
            "lat": -28.17718,
            "school_name": "Mqiniseni High School",
            "country_name": "South Africa",
            "connectivity": false
        },
        {
            "lon": 31.77851,
            "lat": -27.55519,
            "school_name": "Makoti Primary School",
            "country_name": "South Africa",
            "connectivity": false
        },
        {
            "lon": 27.98679,
            "lat": -26.19189,
            "school_name": "Raucall Secondary School",
            "country_name": "South Africa",
            "connectivity": false
        },
        {
            "lon": 28.17186,
            "lat": -26.21689,
            "school_name": "Laerskool Germiston Primary School",
            "country_name": "South Africa",
            "connectivity": false
        },
        {
            "lon": 27.64248,
            "lat": -25.93073,
            "school_name": "Mogales Gate - Environmental Education Centre",
            "country_name": "South Africa",
            "connectivity": false
        },
        {
            "lon": 27.58274,
            "lat": -33.03399,
            "school_name": "Kuni Primary School",
            "country_name": "South Africa",
            "connectivity": false
        },
        {
            "lon": 27.92648,
            "lat": -26.07545,
            "school_name": "Piggy Wiggy",
            "country_name": "South Africa",
            "connectivity": false
        },
        {
            "lon": 28.26651,
            "lat": -32.46572,
            "school_name": "Gobe Commercial Secondary School",
            "country_name": "South Africa",
            "connectivity": false
        },
        {
            "lon": 32.69835,
            "lat": 0.34821,
            "school_name": "St. Peters Nantabulirwa",
            "country_name": "Uganda",
            "connectivity": false
        },
        {
            "lon": 27.48021,
            "lat": -26.91715,
            "school_name": "Sindekile Primary School",
            "country_name": "South Africa",
            "connectivity": false
        },
        {
            "lon": 26.40014,
            "lat": -33.58953,
            "school_name": "Geelhoutboom Primary School",
            "country_name": "South Africa",
            "connectivity": false
        },
        {
            "lon": 27.80826,
            "lat": -32.32574,
            "school_name": "Nyidlana Junior Secondary School",
            "country_name": "South Africa",
            "connectivity": false
        },
        {
            "lon": 28.4054,
            "lat": -32.30692,
            "school_name": "Zenzele Junior Secondary School",
            "country_name": "South Africa",
            "connectivity": false
        },
        {
            "lon": 28.75123,
            "lat": -30.44107,
            "school_name": "Embizeni Junior Secondary School",
            "country_name": "South Africa",
            "connectivity": false
        },
        {
            "lon": 29.1052,
            "lat": -31.64901,
            "school_name": "Ngidini Senior Primary School",
            "country_name": "South Africa",
            "connectivity": false
        },
        {
            "lon": -58.42849209,
            "lat": -34.78880845,
            "school_name": "COLEGIO LA MILAGROSA",
            "country_name": "Argentina",
            "connectivity": false
        },
        {
            "lon": -58.25302521,
            "lat": -34.72187484,
            "school_name": "INSTITUTO EDUARDO L. HOLMBERG",
            "country_name": "Argentina",
            "connectivity": false
        },
        {
            "lon": -62.24674554,
            "lat": -38.72347119,
            "school_name": "ESCUELA PRIMARIA N\u00ba9 GENERAL MANUEL BELGRANO",
            "country_name": "Argentina",
            "connectivity": false
        },
        {
            "lon": -58.59419692,
            "lat": -34.55771004,
            "school_name": "ESCUELA DE ADULTOS N\u00ba707",
            "country_name": "Argentina",
            "connectivity": false
        },
        {
            "lon": -59.1096038,
            "lat": -36.0090944,
            "school_name": "JARDIN DE INFANTES N\u00ba904 BARRIO LAS VERBENAS",
            "country_name": "Argentina",
            "connectivity": false
        },
        {
            "lon": -58.7507635,
            "lat": -34.5042101,
            "school_name": "EXTENSION I DE ESCUELA SECUNDARIA N\u00ba6",
            "country_name": "Argentina",
            "connectivity": false
        },
        {
            "lon": -58.71917724,
            "lat": -34.52426002,
            "school_name": "JARDIN DE INFANTES N\u00ba920",
            "country_name": "Argentina",
            "connectivity": false
        },
        {
            "lon": -58.97034363,
            "lat": -34.17090945,
            "school_name": "EMANUEL",
            "country_name": "Argentina",
            "connectivity": false
        },
        {
            "lon": -58.60354793,
            "lat": -34.70147321,
            "school_name": "CENTRO EDUCATIVO COMPLEMENTARIO N\u00ba1",
            "country_name": "Argentina",
            "connectivity": false
        },
        {
            "lon": -58.35870557,
            "lat": -34.78060973,
            "school_name": "ESCUELA SECUNDARIA N\u00ba22",
            "country_name": "Argentina",
            "connectivity": false
        },
        {
            "lon": -59.63720036,
            "lat": -28.8400055,
            "school_name": "ESCUELA ESPECIAL PARA DISCAPACITADOS MENTALES NRO 2131",
            "country_name": "Argentina",
            "connectivity": false
        },
        {
            "lon": -65.73345947,
            "lat": -28.43073845,
            "school_name": "ESCUELA N\u00b0 230",
            "country_name": "Argentina",
            "connectivity": false
        },
        {
            "lon": -67.47606027,
            "lat": -45.83851494,
            "school_name": "COLEGIO N\u00ba 770",
            "country_name": "Argentina",
            "connectivity": false
        },
        {
            "lon": -63.8560401,
            "lat": -31.32322745,
            "school_name": "J.DE INF. ANTARTIDA ARGENTINA",
            "country_name": "Argentina",
            "connectivity": false
        },
        {
            "lon": -64.17900765,
            "lat": -31.43349999,
            "school_name": "ESCUELA GOBERNADOR JOSE MANUEL ALVAREZ",
            "country_name": "Argentina",
            "connectivity": false
        },
        {
            "lon": -64.53441844,
            "lat": -31.47606568,
            "school_name": "J.DE INF. JUAN JOSE PASO",
            "country_name": "Argentina",
            "connectivity": false
        },
        {
            "lon": -64.3054713,
            "lat": -31.22793583,
            "school_name": "J.DE INF. FLORENTINO AMEGHINO",
            "country_name": "Argentina",
            "connectivity": false
        },
        {
            "lon": -63.24325857,
            "lat": -32.40918157,
            "school_name": "J.DE INF. JOSE INGENIEROS",
            "country_name": "Argentina",
            "connectivity": false
        },
        {
            "lon": -64.33014202,
            "lat": -33.10312754,
            "school_name": "ESCUELA PROVINCIA DE SANTA CRUZ",
            "country_name": "Argentina",
            "connectivity": false
        },
        {
            "lon": -64.20164113,
            "lat": -31.37662112,
            "school_name": "COLEGIO JUVENILIA",
            "country_name": "Argentina",
            "connectivity": false
        },
        {
            "lon": -57.69140949,
            "lat": -30.25838438,
            "school_name": "ESCUELA N\u00ba 473 LA ROSADA",
            "country_name": "Argentina",
            "connectivity": false
        },
        {
            "lon": -57.93704971,
            "lat": -27.9570441,
            "school_name": "ESCUELA N\u00ba 796 OLEGARIO L.MAURI\u00d1O",
            "country_name": "Argentina",
            "connectivity": false
        },
        {
            "lon": -59.33872353,
            "lat": -25.56943733,
            "school_name": "JIN N\u00ba 26 - EPEP N\u00ba 517",
            "country_name": "Argentina",
            "connectivity": false
        },
        {
            "lon": -59.8635279,
            "lat": -25.31490561,
            "school_name": "JARDIN DE INFANTES NUCLEADO N\u00ba 18 - EPEP N\u00ba 283",
            "country_name": "Argentina",
            "connectivity": false
        },
        {
            "lon": -67.15416436,
            "lat": -33.40271479,
            "school_name": "RUBEN DARIO",
            "country_name": "Argentina",
            "connectivity": false
        },
        {
            "lon": -67.86344578,
            "lat": -34.98052579,
            "school_name": "MAESTRO OSWALDO P. J. ARONNE",
            "country_name": "Argentina",
            "connectivity": false
        },
        {
            "lon": -68.85194681,
            "lat": -32.95416059,
            "school_name": "INTEGRAL DEL HUERTO",
            "country_name": "Argentina",
            "connectivity": false
        },
        {
            "lon": -67.89352107,
            "lat": -34.58507598,
            "school_name": "HOGAR DE JOVENES SAN LUIS GONZAGA",
            "country_name": "Argentina",
            "connectivity": false
        },
        {
            "lon": -69.28555,
            "lat": -39.51778,
            "school_name": "CENTRO DE FORMACION PROFESIONAL AGROPECUARIA 3",
            "country_name": "Argentina",
            "connectivity": false
        },
        {
            "lon": -67.76083913,
            "lat": -40.58580917,
            "school_name": "CENTRO DE EDUCACION BASICA PARA ADULTOS NRO.29",
            "country_name": "Argentina",
            "connectivity": false
        },
        {
            "lon": -62.51889975,
            "lat": -23.96409821,
            "school_name": "ESCUELA N\u00aa 4574 EX N\u00b0798",
            "country_name": "Argentina",
            "connectivity": false
        },
        {
            "lon": -61.86055507,
            "lat": -31.8941837,
            "school_name": "C.E.P.A. NRO 21",
            "country_name": "Argentina",
            "connectivity": false
        },
        {
            "lon": -60.8895191,
            "lat": -31.1222053,
            "school_name": "JARDIN DE INFANTES NRO 160 ROSA DE SRAIER",
            "country_name": "Argentina",
            "connectivity": false
        },
        {
            "lon": -61.5129853,
            "lat": -31.3552295,
            "school_name": "E.E.S. ORIENTADA NRO 504 MARGARITA BOCCHETTO",
            "country_name": "Argentina",
            "connectivity": false
        },
        {
            "lon": 5.711156,
            "lat": 5.875518,
            "school_name": "Name unknown",
            "country_name": "Nigeria",
            "connectivity": false
        },
        {
            "lon": 5.804059,
            "lat": 5.558969,
            "school_name": "Name unknown",
            "country_name": "Nigeria",
            "connectivity": false
        },
        {
            "lon": 5.751583,
            "lat": 5.514283,
            "school_name": "Name unknown",
            "country_name": "Nigeria",
            "connectivity": false
        },
        {
            "lon": 7.363769366,
            "lat": 4.965947315,
            "school_name": "Name unknown",
            "country_name": "Nigeria",
            "connectivity": false
        },
        {
            "lon": 14.30577879,
            "lat": 12.04853913,
            "school_name": "Name unknown",
            "country_name": "Nigeria",
            "connectivity": false
        },
        {
            "lon": 8.375193333,
            "lat": 6.282753333,
            "school_name": "Name unknown",
            "country_name": "Nigeria",
            "connectivity": false
        },
        {
            "lon": 8.121993333,
            "lat": 6.63613,
            "school_name": "Name unknown",
            "country_name": "Nigeria",
            "connectivity": false
        },
        {
            "lon": 7.739155,
            "lat": 6.271796,
            "school_name": "Name unknown",
            "country_name": "Nigeria",
            "connectivity": false
        },
        {
            "lon": 8.269028333,
            "lat": 6.456185,
            "school_name": "Name unknown",
            "country_name": "Nigeria",
            "connectivity": false
        },
        {
            "lon": 7.896385,
            "lat": 6.083344,
            "school_name": "Name unknown",
            "country_name": "Nigeria",
            "connectivity": false
        },
        {
            "lon": 7.85273,
            "lat": 6.21342,
            "school_name": "Name unknown",
            "country_name": "Nigeria",
            "connectivity": false
        },
        {
            "lon": 12.05045329,
            "lat": 10.58756622,
            "school_name": "Name unknown",
            "country_name": "Nigeria",
            "connectivity": false
        },
        {
            "lon": 14.27886452,
            "lat": 11.60412309,
            "school_name": "Name unknown",
            "country_name": "Nigeria",
            "connectivity": false
        },
        {
            "lon": 6.25803,
            "lat": 7.42162,
            "school_name": "Name unknown",
            "country_name": "Nigeria",
            "connectivity": false
        },
        {
            "lon": 6.401623,
            "lat": 6.649244,
            "school_name": "Name unknown",
            "country_name": "Nigeria",
            "connectivity": false
        },
        {
            "lon": 5.935788,
            "lat": 7.081778,
            "school_name": "Name unknown",
            "country_name": "Nigeria",
            "connectivity": false
        },
        {
            "lon": 6.023464,
            "lat": 6.802959,
            "school_name": "Name unknown",
            "country_name": "Nigeria",
            "connectivity": false
        },
        {
            "lon": 5.494983,
            "lat": 7.794762,
            "school_name": "Name unknown",
            "country_name": "Nigeria",
            "connectivity": false
        },
        {
            "lon": 7.186001667,
            "lat": 6.288145,
            "school_name": "Name unknown",
            "country_name": "Nigeria",
            "connectivity": false
        },
        {
            "lon": 7.355749,
            "lat": 6.140163,
            "school_name": "Name unknown",
            "country_name": "Nigeria",
            "connectivity": false
        },
        {
            "lon": 7.271266667,
            "lat": 9.099613333,
            "school_name": "Name unknown",
            "country_name": "Nigeria",
            "connectivity": false
        },
        {
            "lon": 7.373248,
            "lat": 8.994013,
            "school_name": "Name unknown",
            "country_name": "Nigeria",
            "connectivity": false
        },
        {
            "lon": 7.568997,
            "lat": 9.020291,
            "school_name": "Name unknown",
            "country_name": "Nigeria",
            "connectivity": false
        },
        {
            "lon": 11.48665,
            "lat": 9.629163,
            "school_name": "Name unknown",
            "country_name": "Nigeria",
            "connectivity": false
        },
        {
            "lon": 7.268969742,
            "lat": 5.541237661,
            "school_name": "Name unknown",
            "country_name": "Nigeria",
            "connectivity": false
        },
        {
            "lon": -77.1981,
            "lat": -6.03466,
            "school_name": "28",
            "country_name": "Peru",
            "connectivity": false
        },
        {
            "lon": -76.5678,
            "lat": -7.32368,
            "school_name": "14",
            "country_name": "Peru",
            "connectivity": false
        },
        {
            "lon": -76.7398,
            "lat": -9.23116,
            "school_name": "94",
            "country_name": "Peru",
            "connectivity": false
        },
        {
            "lon": -78.9162,
            "lat": -6.2796,
            "school_name": "10288",
            "country_name": "Peru",
            "connectivity": false
        },
        {
            "lon": -74.9724,
            "lat": -12.7861,
            "school_name": "107",
            "country_name": "Peru",
            "connectivity": false
        },
        {
            "lon": -74.9341,
            "lat": -12.5346,
            "school_name": "116",
            "country_name": "Peru",
            "connectivity": false
        },
        {
            "lon": -72.4943,
            "lat": -13.6751,
            "school_name": "1164",
            "country_name": "Peru",
            "connectivity": false
        },
        {
            "lon": 3.711653,
            "lat": 6.640633,
            "school_name": "Name unknown",
            "country_name": "Nigeria",
            "connectivity": false
        },
        {
            "lon": -76.4737,
            "lat": -5.9776,
            "school_name": "1240",
            "country_name": "Peru",
            "connectivity": false
        },
        {
            "lon": -78.8988,
            "lat": -5.02633,
            "school_name": "1299",
            "country_name": "Peru",
            "connectivity": false
        },
        {
            "lon": -80.8078,
            "lat": -5.43601,
            "school_name": "14093 ABRAHAM RUIZ NUNURA",
            "country_name": "Peru",
            "connectivity": false
        },
        {
            "lon": -79.955,
            "lat": -4.5441,
            "school_name": "14159",
            "country_name": "Peru",
            "connectivity": false
        },
        {
            "lon": -79.6323,
            "lat": -4.96262,
            "school_name": "14884",
            "country_name": "Peru",
            "connectivity": false
        },
        {
            "lon": -78.5338,
            "lat": -5.6376,
            "school_name": "16192",
            "country_name": "Peru",
            "connectivity": false
        },
        {
            "lon": -78.9698,
            "lat": -5.43318,
            "school_name": "16474 SAN JUAN",
            "country_name": "Peru",
            "connectivity": false
        },
        {
            "lon": -79.0272,
            "lat": -8.08795,
            "school_name": "1692",
            "country_name": "Peru",
            "connectivity": false
        },
        {
            "lon": -78.403,
            "lat": -5.495,
            "school_name": "17179",
            "country_name": "Peru",
            "connectivity": false
        },
        {
            "lon": -71.6881,
            "lat": -13.648,
            "school_name": "177",
            "country_name": "Peru",
            "connectivity": false
        },
        {
            "lon": -77.9815,
            "lat": -5.91173,
            "school_name": "18104 SANTO TOMAS",
            "country_name": "Peru",
            "connectivity": false
        },
        {
            "lon": -69.6441,
            "lat": -16.0911,
            "school_name": "216",
            "country_name": "Peru",
            "connectivity": false
        },
        {
            "lon": -78.0323,
            "lat": -7.78637,
            "school_name": "2181",
            "country_name": "Peru",
            "connectivity": false
        },
        {
            "lon": -74.7948,
            "lat": -12.3448,
            "school_name": "31028",
            "country_name": "Peru",
            "connectivity": false
        },
        {
            "lon": -75.9616,
            "lat": -9.46111,
            "school_name": "32515",
            "country_name": "Peru",
            "connectivity": false
        },
        {
            "lon": -79.2786,
            "lat": -7.28104,
            "school_name": "340",
            "country_name": "Peru",
            "connectivity": false
        },
        {
            "lon": -76.2451,
            "lat": -9.94186,
            "school_name": "ARSENIO MENDOZA FLOR",
            "country_name": "Peru",
            "connectivity": false
        },
        {
            "lon": -71.9456,
            "lat": -13.7928,
            "school_name": "AYUSBAMBA",
            "country_name": "Peru",
            "connectivity": false
        },
        {
            "lon": -77.0614,
            "lat": -11.9683,
            "school_name": "BERNE II",
            "country_name": "Peru",
            "connectivity": false
        },
        {
            "lon": -79.0209,
            "lat": -6.33802,
            "school_name": "381",
            "country_name": "Peru",
            "connectivity": false
        },
        {
            "lon": -72.4542,
            "lat": -16.314,
            "school_name": "40368 VIRGEN DE LA FAMILIA",
            "country_name": "Peru",
            "connectivity": false
        },
        {
            "lon": -70.2373,
            "lat": -18.0031,
            "school_name": "42005 JOSE ROSA ARA",
            "country_name": "Peru",
            "connectivity": false
        },
        {
            "lon": -73.1225,
            "lat": -12.6376,
            "school_name": "501353",
            "country_name": "Peru",
            "connectivity": false
        },
        {
            "lon": -71.8679,
            "lat": -13.4311,
            "school_name": "50185",
            "country_name": "Peru",
            "connectivity": false
        },
        {
            "lon": -77.1339,
            "lat": -12.0531,
            "school_name": "5019 - AUGUSTO CAZORLA",
            "country_name": "Peru",
            "connectivity": false
        },
        {
            "lon": -76.8974,
            "lat": -12.2473,
            "school_name": "6023 JULIO C TELLO ROJAS",
            "country_name": "Peru",
            "connectivity": false
        },
        {
            "lon": -76.5244,
            "lat": -4.70982,
            "school_name": "62088",
            "country_name": "Peru",
            "connectivity": false
        },