{
    "name": "Patchwork Kingdom #959 | Alanonna",
    "description": "The twin kingdoms of Alanonna, separated by a digital divide. A bustling kingdom of 123 schools on top that are all connected to the internet, and 93 schools, not connected, hidden in the upside down kingdom | Created for Giga (GigaConnect.org) \u2014 connecting every school in the world \u2014 in celebration of UNICEF's 75th birthday, by Nadieh Bremer",
    "external_url": "https://dummyURL.com/patchwork_kingdoms_959",
    "image": "https://dummy-storage-url.com/patchwork_kingdoms_959.png",
    "attributes": [
        {
            "trait_type": "Color palette",
            "value": "rubik's cube"
        },
        {
            "display_type": "number",
            "trait_type": "Schools",
            "value": 231,
            "max_value": 460
        },
        {
            "display_type": "number",
            "trait_type": "Ratio - Connected",
            "value": 0.53,
            "max_value": 1
        },
        {
            "display_type": "number",
            "trait_type": "Ratio - Unconnected",
            "value": 0.4,
            "max_value": 1
        },
        {
            "display_type": "number",
            "trait_type": "Ratio - Data unavailable",
            "value": 0.06,
            "max_value": 1
        },
        {
            "trait_type": "Countries",
            "value": "BJ-BR-CO-CR-HN-KG-KZ-PH-PS-RW-SL-ZW"
        },
        {
            "display_type": "number",
            "trait_type": "Symbols",
            "value": 43,
            "max_value": 51
        }
    ],
    "cluster_id": 959,
    "num_schools": 231,
    "num_schools_connected": 123,
    "num_schools_unconnected": 93,
    "num_schools_unknown": 15,
    "schools": [
        {
            "lon": -51.6813,
            "lat": -24.2539,
            "school_name": "EMILIA KIYOKO KURODA C M E I",
            "country_name": "Brazil",
            "connectivity": true
        },
        {
            "lon": -88.09565,
            "lat": 14.13066,
            "school_name": "GREVIL AVELAR CHAVES",
            "country_name": "Honduras",
            "connectivity": true
        },
        {
            "lon": -88.90055,
            "lat": 14.23893,
            "school_name": "JOSE HUMBERTO SERRANO",
            "country_name": "Honduras",
            "connectivity": true
        },
        {
            "lon": -85.98328,
            "lat": 15.02607,
            "school_name": "ALEJANDRO CASTRO RUIZ",
            "country_name": "Honduras",
            "connectivity": true
        },
        {
            "lon": -86.62987,
            "lat": 14.82887,
            "school_name": "MI BUEN PASTOR",
            "country_name": "Honduras",
            "connectivity": true
        },
        {
            "lon": -86.04938,
            "lat": 14.60295,
            "school_name": "JOSE CECILIO DEL VALLE",
            "country_name": "Honduras",
            "connectivity": true
        },
        {
            "lon": -88.23114,
            "lat": 14.92344,
            "school_name": "NUEVA LIBERTAD",
            "country_name": "Honduras",
            "connectivity": true
        },
        {
            "lon": -86.3673,
            "lat": 15.44483,
            "school_name": "JN JOSE CECILIO DEL VALLE",
            "country_name": "Honduras",
            "connectivity": true
        },
        {
            "lon": -49.1458,
            "lat": -13.4474,
            "school_name": "COLEGIO ESTADUAL PRESIDENTE KENNEDY",
            "country_name": "Brazil",
            "connectivity": true
        },
        {
            "lon": -87.5975,
            "lat": 15.08652,
            "school_name": "OLGA MARINA ORELLANA",
            "country_name": "Honduras",
            "connectivity": true
        },
        {
            "lon": -53.706097,
            "lat": -27.165659,
            "school_name": "ESCOLA MUNICIPAL INTEGRAL BELA VISTA",
            "country_name": "Brazil",
            "connectivity": true
        },
        {
            "lon": -47.0422,
            "lat": -22.8565,
            "school_name": "DANTE ALIGHIERI VITA PROFESSOR",
            "country_name": "Brazil",
            "connectivity": true
        },
        {
            "lon": -75.92016865,
            "lat": 4.75292074,
            "school_name": "Name unknown",
            "country_name": "Colombia",
            "connectivity": false
        },
        {
            "lon": -86.3144,
            "lat": 13.95994,
            "school_name": "ALVARO CONTRERAS",
            "country_name": "Honduras",
            "connectivity": true
        },
        {
            "lon": -87.31662,
            "lat": 14.07799,
            "school_name": "ROMULO E DURON",
            "country_name": "Honduras",
            "connectivity": true
        },
        {
            "lon": -87.24788,
            "lat": 13.93203,
            "school_name": "JOSE CECILIO DEL VALLE",
            "country_name": "Honduras",
            "connectivity": true
        },
        {
            "lon": 32.63315,
            "lat": -18.99146,
            "school_name": "CHISAMBA",
            "country_name": "Zimbabwe",
            "connectivity": true
        },
        {
            "lon": 29.65953,
            "lat": -1.54517,
            "school_name": "NYARUBUYE",
            "country_name": "Rwanda",
            "connectivity": true
        },
        {
            "lon": 29.99453,
            "lat": -1.61483,
            "school_name": "EP RUSASA",
            "country_name": "Rwanda",
            "connectivity": true
        },
        {
            "lon": -83.4919831,
            "lat": 9.26469651,
            "school_name": "SONADOR",
            "country_name": "Costa Rica",
            "connectivity": true
        },
        {
            "lon": 35.017831,
            "lat": 32.294276,
            "school_name": "Ertah Secondary Girls",
            "country_name": "Palestine",
            "connectivity": true
        },
        {
            "lon": 35.171657,
            "lat": 31.892557,
            "school_name": "amal almostaqbal",
            "country_name": "Palestine",
            "connectivity": true
        },
        {
            "lon": 35.259002,
            "lat": 31.83473,
            "school_name": "hizma basic girls school",
            "country_name": "Palestine",
            "connectivity": true
        },
        {
            "lon": 35.227527,
            "lat": 31.702357,
            "school_name": "al-ruaat s.s.c",
            "country_name": "Palestine",
            "connectivity": true
        },
        {
            "lon": -47.9271,
            "lat": -24.3897,
            "school_name": "PLACIDO DE PAULA E SILVA",
            "country_name": "Brazil",
            "connectivity": true
        },
        {
            "lon": 29.13074,
            "lat": -17.02935,
            "school_name": "CHIROTI",
            "country_name": "Zimbabwe",
            "connectivity": true
        },
        {
            "lon": 30.81099,
            "lat": -19.69673,
            "school_name": "THORNHILL  SATELLITE",
            "country_name": "Zimbabwe",
            "connectivity": true
        },
        {
            "lon": 26.02695,
            "lat": -18.21464,
            "school_name": "MATETSI",
            "country_name": "Zimbabwe",
            "connectivity": true
        },
        {
            "lon": -72.43722222,
            "lat": 5.41,
            "school_name": "LA VILLA",
            "country_name": "Colombia",
            "connectivity": true
        },
        {
            "lon": -75.676399,
            "lat": 5.486931,
            "school_name": "CENTRO EDUCATIVO LA LOMA",
            "country_name": "Colombia",
            "connectivity": true
        },
        {
            "lon": -74.12184964,
            "lat": 4.725582241,
            "school_name": "Name unknown",
            "country_name": "Colombia",
            "connectivity": false
        },
        {
            "lon": -74.17455187,
            "lat": 4.576867457,
            "school_name": "Name unknown",
            "country_name": "Colombia",
            "connectivity": false
        },
        {
            "lon": 120.5518361,
            "lat": 16.02916111,
            "school_name": "Quevedo-Anisca ES",
            "country_name": "Philippines",
            "connectivity": true
        },
        {
            "lon": 121.792143,
            "lat": 16.835651,
            "school_name": "Villa Domingo ES",
            "country_name": "Philippines",
            "connectivity": true
        },
        {
            "lon": 123.879002,
            "lat": 9.807193,
            "school_name": "Canlaas ES",
            "country_name": "Philippines",
            "connectivity": true
        },
        {
            "lon": 124.969082,
            "lat": 11.788719,
            "school_name": "Bayog ES",
            "country_name": "Philippines",
            "connectivity": true
        },
        {
            "lon": 124.4425033,
            "lat": 11.2492066,
            "school_name": "Cabungahan ES",
            "country_name": "Philippines",
            "connectivity": true
        },
        {
            "lon": 123.835156,
            "lat": 8.400805,
            "school_name": "Maular ES",
            "country_name": "Philippines",
            "connectivity": true
        },
        {
            "lon": 125.6204086,
            "lat": 7.113158352,
            "school_name": "San Isidro ES",
            "country_name": "Philippines",
            "connectivity": true
        },
        {
            "lon": 122.017754,
            "lat": 6.415347,
            "school_name": "Lukbait ES",
            "country_name": "Philippines",
            "connectivity": true
        },
        {
            "lon": 124.2211111,
            "lat": 7.1535,
            "school_name": "Tenorio ES",
            "country_name": "Philippines",
            "connectivity": true
        },
        {
            "lon": 121.064507,
            "lat": 14.548748,
            "school_name": "Pateros National High School",
            "country_name": "Philippines",
            "connectivity": true
        },
        {
            "lon": -47.91627,
            "lat": -16.24569,
            "school_name": "ESCOLA MUNICIPAL ESTRELA DALVA VII PROF\u00aa GERALDA DIVINA LOPES NETO",
            "country_name": "Brazil",
            "connectivity": true
        },
        {
            "lon": -72.918056,
            "lat": 5.385,
            "school_name": "SEDE ALIZAL",
            "country_name": "Colombia",
            "connectivity": true
        },
        {
            "lon": -73.07751807,
            "lat": 8.479876833,
            "school_name": "SEDE SAN JAVIER DEL ORIENTE",
            "country_name": "Colombia",
            "connectivity": true
        },
        {
            "lon": -72.99983413,
            "lat": 8.744941113,
            "school_name": "SEDE LA PAZ",
            "country_name": "Colombia",
            "connectivity": true
        },
        {
            "lon": -73.16,
            "lat": 7.56,
            "school_name": "INSTITUCION EDUCATIVA  BETANIA",
            "country_name": "Colombia",
            "connectivity": true
        },
        {
            "lon": -73.740374,
            "lat": 6.206272215,
            "school_name": "INSTITUTO AGRICOLA  DE ALTO JORDAN",
            "country_name": "Colombia",
            "connectivity": true
        },
        {
            "lon": -74.01500288,
            "lat": 10.77147805,
            "school_name": "ERM LA CANDELARIA",
            "country_name": "Colombia",
            "connectivity": true
        },
        {
            "lon": -74.80237125,
            "lat": 10.95826929,
            "school_name": "INSTITUCION EDUCATIVA DISTRITAL SIMON BOLIVAR - SEDE PRINCIPAL",
            "country_name": "Colombia",
            "connectivity": true
        },
        {
            "lon": -74.95529092,
            "lat": 10.99058594,
            "school_name": "INSTITUCION EDUCATIVA TURISTICA SIMON BOLIVAR",
            "country_name": "Colombia",
            "connectivity": true
        },
        {
            "lon": -75.501667,
            "lat": 5.046667,
            "school_name": "INSTITUCI\u00d3N EDUCATIVA MALABAR",
            "country_name": "Colombia",
            "connectivity": true
        },
        {
            "lon": -75.66742153,
            "lat": 2.025055743,
            "school_name": "LA MIGUELA",
            "country_name": "Colombia",
            "connectivity": true
        },
        {
            "lon": -75.984722,
            "lat": 1.040556,
            "school_name": "ESC RUR MIX SAN ROQUE",
            "country_name": "Colombia",
            "connectivity": true
        },
        {
            "lon": -75.9755978,
            "lat": 1.779050871,
            "school_name": "LA UNION",
            "country_name": "Colombia",
            "connectivity": true
        },
        {
            "lon": -76.04627877,
            "lat": 1.854283299,
            "school_name": "VICTOR MANUEL MENESES",
            "country_name": "Colombia",
            "connectivity": true
        },
        {
            "lon": -76.07502334,
            "lat": 4.397980506,
            "school_name": "POLICARPA SALAVARRIETA",
            "country_name": "Colombia",
            "connectivity": true
        },
        {
            "lon": -76.14776123,
            "lat": 8.658945272,
            "school_name": "ESC NVA SANTA CRUZ",
            "country_name": "Colombia",
            "connectivity": true
        },
        {
            "lon": -76.39663761,
            "lat": 4.035580778,
            "school_name": "LAUREANO CAICEDO TRUJILLO",
            "country_name": "Colombia",
            "connectivity": true
        },
        {
            "lon": -76.535556,
            "lat": 8.433889,
            "school_name": "CENTRO EDUCATIVO RURAL NUEVA ESPERANZA",
            "country_name": "Colombia",
            "connectivity": true
        },
        {
            "lon": -76.62036881,
            "lat": 5.387628522,
            "school_name": "SEDE LA TOMA",
            "country_name": "Colombia",
            "connectivity": true
        },
        {
            "lon": -76.61465593,
            "lat": 2.433773642,
            "school_name": "SEDE NORMAL SUPERIOR",
            "country_name": "Colombia",
            "connectivity": true
        },
        {
            "lon": -78.5725,
            "lat": 1.336667,
            "school_name": "SEDE # 1 VALLENATO",
            "country_name": "Colombia",
            "connectivity": true
        },
        {
            "lon": -67.6362,
            "lat": -2.7607,
            "school_name": "ESCOLA MUNICIPAL INDIGENA ESPIRITO SANTO",
            "country_name": "Brazil",
            "connectivity": false
        },
        {
            "lon": -53.4596,
            "lat": -3.6175,
            "school_name": "E M E F FERNANDO GUILHON",
            "country_name": "Brazil",
            "connectivity": false
        },
        {
            "lon": -46.5018,
            "lat": -2.1086,
            "school_name": "E M E F FRANCISCO INACIO DE SOUSA",
            "country_name": "Brazil",
            "connectivity": false
        },
        {
            "lon": -42.941,
            "lat": -4.1596,
            "school_name": "ESCOLA MUNICIPAL SAO FRANCISCO",
            "country_name": "Brazil",
            "connectivity": true
        },
        {
            "lon": -44.6056,
            "lat": -2.1351,
            "school_name": "UEB PROF ANTONIA CARVALHO RIBEIRO",
            "country_name": "Brazil",
            "connectivity": true
        },
        {
            "lon": -44.6999,
            "lat": -1.8702,
            "school_name": "UNIDADE INTEGRADA MONTEIRO LOBATO",
            "country_name": "Brazil",
            "connectivity": false
        },
        {
            "lon": -46.071,
            "lat": -2.1426,
            "school_name": "EM JOSE DA CONCEICAO BARROS",
            "country_name": "Brazil",
            "connectivity": false
        },
        {
            "lon": -42.956,
            "lat": -3.9651,
            "school_name": "U I DR SMITH BRAS",
            "country_name": "Brazil",
            "connectivity": false
        },
        {
            "lon": -45.1793,
            "lat": -5.7096,
            "school_name": "UE CANTO BOM II - CANTO BOM II",
            "country_name": "Brazil",
            "connectivity": false
        },
        {
            "lon": -41.0234,
            "lat": -3.9927,
            "school_name": "JOSE GALDINO EMEB",
            "country_name": "Brazil",
            "connectivity": false
        },
        {
            "lon": -48.5631,
            "lat": -18.3146,
            "school_name": "E M PROF ALBERTO DE MORAIS HOLANDA",
            "country_name": "Brazil",
            "connectivity": true
        },
        {
            "lon": -38.4922,
            "lat": -4.0944,
            "school_name": "MARIANA LINO DA CONCEICAO CEI",
            "country_name": "Brazil",
            "connectivity": true
        },
        {
            "lon": -38.1266,
            "lat": -5.2616,
            "school_name": "CMEI RAQUEL ALEXANDRE DE OLIVEIRA",
            "country_name": "Brazil",
            "connectivity": true
        },
        {
            "lon": -37.6574,
            "lat": -5.1621,
            "school_name": "ESCOLA MUNICIPAL DE 1",
            "country_name": "Brazil",
            "connectivity": false
        },
        {
            "lon": -38.1661,
            "lat": -6.2685,
            "school_name": "ESC MUL JOAO MARCOLINO DE OLIVEIRA",
            "country_name": "Brazil",
            "connectivity": false
        },
        {
            "lon": -35.8188,
            "lat": -5.5411,
            "school_name": "ESCOLA ESTADUAL CAPITAO JOSE DA PENHA",
            "country_name": "Brazil",
            "connectivity": true
        },
        {
            "lon": -36.5597,
            "lat": -7.0274,
            "school_name": "EMEF VITALINO BARTOLOMEU",
            "country_name": "Brazil",
            "connectivity": false
        },
        {
            "lon": -36.1492,
            "lat": -6.4888,
            "school_name": "CRECHE DOUTOR DIOMEDES LUCAS DE CARVALHO",
            "country_name": "Brazil",
            "connectivity": true
        },
        {
            "lon": -34.8389,
            "lat": -7.1095,
            "school_name": "CREI CREUSA PIRES",
            "country_name": "Brazil",
            "connectivity": false
        },
        {
            "lon": -36.8365,
            "lat": -6.8271,
            "school_name": "EMEF RIACHO DA SERRA",
            "country_name": "Brazil",
            "connectivity": true
        },
        {
            "lon": -35.682,
            "lat": -6.6607,
            "school_name": "EMEF DA RAPOSA",
            "country_name": "Brazil",
            "connectivity": false
        },
        {
            "lon": -35.9035,
            "lat": -6.6324,
            "school_name": "EMEF PROFESSOR NINO",
            "country_name": "Brazil",
            "connectivity": true
        },
        {
            "lon": -34.9256,
            "lat": -8.0272,
            "school_name": "ESCOLA MUNICIPAL PROFESSOR NILO PEREIRA",
            "country_name": "Brazil",
            "connectivity": true
        },
        {
            "lon": -36.923,
            "lat": -10.1354,
            "school_name": "ESC MUL ISABEL FREIRE",
            "country_name": "Brazil",
            "connectivity": true
        },
        {
            "lon": -37.0711,
            "lat": -10.9364,
            "school_name": "EMEF JOSE AIRTON DE ANDRADE",
            "country_name": "Brazil",
            "connectivity": true
        },
        {
            "lon": -37.5689,
            "lat": -11.2275,
            "school_name": "ESCOLA MUNICIPAL ANTIPAS COSTA E SILVA",
            "country_name": "Brazil",
            "connectivity": true
        },
        {
            "lon": -37.6232,
            "lat": -11.1472,
            "school_name": "COLEGIO ESTADUAL SEVERIANO CARDOSO",
            "country_name": "Brazil",
            "connectivity": true
        },
        {
            "lon": -38.007,
            "lat": -11.3654,
            "school_name": "ESCOLA MUL JOANA ANGELICA",
            "country_name": "Brazil",
            "connectivity": false
        },
        {
            "lon": -38.993,
            "lat": -13.1807,
            "school_name": "ESCOLA MUNICIPAL NOSSA SENHORA D AJUDA",
            "country_name": "Brazil",
            "connectivity": true
        },
        {
            "lon": -41.6494,
            "lat": -13.8588,
            "school_name": "ESCOLA MUNICIPAL NOSSA SENHORA D AJUDA",
            "country_name": "Brazil",
            "connectivity": false
        },
        {
            "lon": -40.8538,
            "lat": -14.8517,
            "school_name": "EE - COLEGIO ESTADUAL DOUTOR ORLANDO LEITE",
            "country_name": "Brazil",
            "connectivity": true
        },
        {
            "lon": -42.7266,
            "lat": -13.0641,
            "school_name": "ESC MUN DE BURITI",
            "country_name": "Brazil",
            "connectivity": false
        },
        {
            "lon": -39.2942,
            "lat": -14.8107,
            "school_name": "ESCOLA CRECHE ESTER GOMES",
            "country_name": "Brazil",
            "connectivity": true
        },
        {
            "lon": -41.9877,
            "lat": -19.4099,
            "school_name": "EE OTAVIO BRASILIENSE DE ARAUJO",
            "country_name": "Brazil",
            "connectivity": false
        },
        {
            "lon": -44.3631,
            "lat": -14.3786,
            "school_name": "EE GALILEU GALILEI",
            "country_name": "Brazil",
            "connectivity": true
        },
        {
            "lon": -43.4372,
            "lat": -21.6854,
            "school_name": "EM MARIA DAS DORES DIAS L F LEITE",
            "country_name": "Brazil",
            "connectivity": true
        },
        {
            "lon": -43.4221,
            "lat": -19.6181,
            "school_name": "EE PADRE ANCHIETA",
            "country_name": "Brazil",
            "connectivity": true
        },
        {
            "lon": -49.9287,
            "lat": -22.2571,
            "school_name": "SYLVIA RIBEIRO DE CARVALHO PROFA",
            "country_name": "Brazil",
            "connectivity": true
        },
        {
            "lon": -45.346,
            "lat": -21.9728,
            "school_name": "CRECHE MUNICIPAL SANTA CLARA",
            "country_name": "Brazil",
            "connectivity": true
        },
        {
            "lon": -37.8567,
            "lat": -8.6558,
            "school_name": "ESCOLA INDIGENA PEDRO FERREIRA DE QUEIROZ",
            "country_name": "Brazil",
            "connectivity": true
        },
        {
            "lon": -49.9464,
            "lat": -20.42,
            "school_name": "GEYNER RODRIGUES PROFESSOR CEM",
            "country_name": "Brazil",
            "connectivity": true
        },
        {
            "lon": -43.3868,
            "lat": -22.7963,
            "school_name": "CE PROFESSORA ALZIRA DOS SANTOS DA SILVA",
            "country_name": "Brazil",
            "connectivity": true
        },
        {
            "lon": -47.4434,
            "lat": -24.2834,
            "school_name": "CRECHE CIRANDA",
            "country_name": "Brazil",
            "connectivity": true
        },
        {
            "lon": -47.6874,
            "lat": -23.3604,
            "school_name": "THEREZINHA DE JESUS CAMPOS CRISTINO PROFA CEI",
            "country_name": "Brazil",
            "connectivity": true
        },
        {
            "lon": -47.4847,
            "lat": -21.7094,
            "school_name": "ANNA PRADA 1 CRECHE ESCOLA MUNICIPAL",
            "country_name": "Brazil",
            "connectivity": true
        },
        {
            "lon": -47.1922,
            "lat": -22.9589,
            "school_name": "RUY DE ALMEIDA BARBOSA DOUTOR CEI",
            "country_name": "Brazil",
            "connectivity": true
        },
        {
            "lon": -46.4881,
            "lat": -24.0212,
            "school_name": "PAULO SHIGUEO YAMAUTI ESCOLA MUNICIPAL",
            "country_name": "Brazil",
            "connectivity": true
        },
        {
            "lon": -50.9633,
            "lat": -21.7727,
            "school_name": "EMEF PROFESSOR WAGNER CAMPATO",
            "country_name": "Brazil",
            "connectivity": true
        },
        {
            "lon": -44.7906,
            "lat": -22.5503,
            "school_name": "MARILDA DA SILVA GARCEZ FERRAZ DE CARVALHO PROFA EM",
            "country_name": "Brazil",
            "connectivity": true
        },
        {
            "lon": -46.5186,
            "lat": -24.0258,
            "school_name": "CENTRO DE ATEND SOCIOED AO ADOLESCENTE PRAIA GRANDE I CI",
            "country_name": "Brazil",
            "connectivity": true
        },
        {
            "lon": -48.5154,
            "lat": -21.2778,
            "school_name": "ALCIDES CESTARI ETEC",
            "country_name": "Brazil",
            "connectivity": true
        },
        {
            "lon": -46.3845,
            "lat": -23.5198,
            "school_name": "NEYDY DE CAMPOS MELGES PROF",
            "country_name": "Brazil",
            "connectivity": true
        },
        {
            "lon": -51.9692,
            "lat": -22.8352,
            "school_name": "PAULO FREIRE E M EI EF",
            "country_name": "Brazil",
            "connectivity": true
        },
        {
            "lon": -47.5639,
            "lat": -1.3484,
            "school_name": "E M E I F PASTOR JOAO PEREIRA DE SOUZA",
            "country_name": "Brazil",
            "connectivity": true
        },
        {
            "lon": -52.3346,
            "lat": -31.7809,
            "school_name": "EMEI MAL IGNACIO DE FREITAS ROLIM",
            "country_name": "Brazil",
            "connectivity": true
        },
        {
            "lon": -56.5341,
            "lat": -29.9153,
            "school_name": "ESC MUN ENS FUND OSCAR MACHADO",
            "country_name": "Brazil",
            "connectivity": true
        },
        {
            "lon": -43.3625,
            "lat": -22.9009,
            "school_name": "0716608 CRECHE MUNICIPAL IRMA DULCE",
            "country_name": "Brazil",
            "connectivity": true
        },
        {
            "lon": -51.8209,
            "lat": -30.8652,
            "school_name": "ESC EST ENS MED JOAO PAULO II",
            "country_name": "Brazil",
            "connectivity": true
        },
        {
            "lon": -42.011,
            "lat": -20.8062,
            "school_name": "C MUN DE EDUC INF CHAPEUZINHO AMARELO",
            "country_name": "Brazil",
            "connectivity": true
        },
        {
            "lon": -48.3839,
            "lat": -1.3698,
            "school_name": "EEEFM RAIMUNDO VERA CRUZ",
            "country_name": "Brazil",
            "connectivity": true
        },
        {
            "lon": -53.5977,
            "lat": -23.7201,
            "school_name": "CASTRO ALVES E M EI EF",
            "country_name": "Brazil",
            "connectivity": true
        },
        {
            "lon": -62.9014,
            "lat": -9.8409,
            "school_name": "EMEIEF HENRIQUE DIAS",
            "country_name": "Brazil",
            "connectivity": true
        },
        {
            "lon": -61.4741,
            "lat": -11.8009,
            "school_name": "EEEFM MONTEIRO LOBATO",
            "country_name": "Brazil",
            "connectivity": true
        },
        {
            "lon": -51.5524,
            "lat": -23.3182,
            "school_name": "HERMINIA R LUPION C E EF M",
            "country_name": "Brazil",
            "connectivity": true
        },
        {
            "lon": -42.7934,
            "lat": -22.957,
            "school_name": "JIM TRENZINHO DA ESPERANCA",
            "country_name": "Brazil",
            "connectivity": true
        },
        {
            "lon": -49.2606,
            "lat": -16.6564,
            "school_name": "CMEI CECILIA MEIRELES",
            "country_name": "Brazil",
            "connectivity": true
        },
        {
            "lon": -38.9674,
            "lat": -6.6709,
            "school_name": "MANOEL PINHEIRO DE SOUSA EEIF",
            "country_name": "Brazil",
            "connectivity": true
        },
        {
            "lon": -39.2955,
            "lat": -7.6046,
            "school_name": "APARECIDA NOSSA SENHORA E E I E F",
            "country_name": "Brazil",
            "connectivity": true
        },
        {
            "lon": -36.4706,
            "lat": -6.0978,
            "school_name": "ESCOLA MUL DE ENS FUND FRANCISCO JERONIMO DE MEDEIROS",
            "country_name": "Brazil",
            "connectivity": true
        },
        {
            "lon": -37.2794,
            "lat": -7.061,
            "school_name": "EMEF ANTONIO GUEDES DOS SANTOS",
            "country_name": "Brazil",
            "connectivity": true
        }
    ],
    "num_countries": 12,
    "countries": [
        "Benin",
        "Brazil",
        "Colombia",
        "Costa Rica",
        "Honduras",
        "Kazakhstan",
        "Kyrgyzstan",
        "Palestine",
        "Philippines",
        "Rwanda",
        "Sierra Leone",
        "Zimbabwe"
    ],
    "schools_no_data": [
        {
            "lon": 1.6058842,
            "lat": 13.8515005,
            "school_name": "Name unknown",
            "country_name": "Niger",
            "connectivity": false
        },
        {
            "lon": -9.910931,
            "lat": 6.300916,
            "school_name": "Zwahn Town",
            "country_name": "Liberia",
            "connectivity": false
        },
        {
            "lon": 20.59234775,
            "lat": -4.344722438,
            "school_name": "INST LUTSHIADI",
            "country_name": "Democratic Republic of the Congo",
            "connectivity": false
        },
        {
            "lon": -8.711925,
            "lat": 7.369721,
            "school_name": "True Vine Elementary",
            "country_name": "Liberia",
            "connectivity": false
        },
        {
            "lon": -8.01616,
            "lat": 5.167953,
            "school_name": "Drugbo Public School",
            "country_name": "Liberia",
            "connectivity": false
        },
        {
            "lon": -2.3857929,
            "lat": 6.9790111,
            "school_name": "Name unknown",
            "country_name": "Ghana",
            "connectivity": false
        },
        {
            "lon": -0.1231404,
            "lat": 5.6748568,
            "school_name": "Name unknown",
            "country_name": "Ghana",
            "connectivity": false
        },
        {
            "lon": 33.21508805,
            "lat": 14.8208992833333,
            "school_name": "Name unknown",
            "country_name": "Sudan",
            "connectivity": false
        },
        {
            "lon": 22.0405,
            "lat": 42.4106,
            "school_name": "\u0421\u0432\u0435\u0442\u0438 \u0421\u0430\u0432\u0430",
            "country_name": "Serbia",
            "connectivity": false
        },
        {
            "lon": 19.75822449,
            "lat": 43.81966572,
            "school_name": "\u041f\u0440\u0432\u0430 \u043e\u0441\u043d\u043e\u0432\u043d\u0430 \u0448\u043a\u043e\u043b\u0430 \u043a\u0440\u0430\u0459\u0430 \u041f\u0435\u0442\u0440\u0430 II",
            "country_name": "Serbia",
            "connectivity": false
        },
        {
            "lon": 34.7905696,
            "lat": 10.77804318,
            "school_name": "Name unknown",
            "country_name": "Sudan",
            "connectivity": false
        },
        {
            "lon": 34.34941203,
            "lat": 11.78621098,
            "school_name": "Name unknown",
            "country_name": "Sudan",
            "connectivity": false
        },
        {
            "lon": -1.8505053,
            "lat": 9.2514123,
            "school_name": "Name unknown",
            "country_name": "Ghana",
            "connectivity": false
        },
        {
            "lon": -1.2678467,
            "lat": 5.1365033,
            "school_name": "Name unknown",
            "country_name": "Ghana",
            "connectivity": false
        },
        {
            "lon": -1.5507614,
            "lat": 6.7115218,
            "school_name": "Name unknown",
            "country_name": "Ghana",
            "connectivity": false
        },
        {
            "lon": 34.25163,
            "lat": -4.37618,
            "school_name": "ST. DESIDERIUS",
            "country_name": "United Republic of Tanzania",
            "connectivity": false
        },
        {
            "lon": 34.85067,
            "lat": -8.76107,
            "school_name": "IGOMBA",
            "country_name": "United Republic of Tanzania",
            "connectivity": false
        },
        {
            "lon": 34.83808,
            "lat": -11.12923,
            "school_name": "KIKODI",
            "country_name": "United Republic of Tanzania",
            "connectivity": false
        },
        {
            "lon": 38.06328,
            "lat": -6.76623,
            "school_name": "LUKOSE",
            "country_name": "United Republic of Tanzania",
            "connectivity": false
        },
        {
            "lon": 35.49396,
            "lat": -7.77579,
            "school_name": "MAGUBIKE",
            "country_name": "United Republic of Tanzania",
            "connectivity": false
        },
        {
            "lon": 31.56127,
            "lat": -1.7023,
            "school_name": "BUGANGUZI",
            "country_name": "United Republic of Tanzania",
            "connectivity": false
        },
        {
            "lon": 36.68005,
            "lat": -8.12694,
            "school_name": "UHURU",
            "country_name": "United Republic of Tanzania",
            "connectivity": false
        },
        {
            "lon": 37.89351,
            "lat": -5.66691,
            "school_name": "KANG'ATA",
            "country_name": "United Republic of Tanzania",
            "connectivity": false
        },
        {
            "lon": -2.3152372,
            "lat": 7.3783314,
            "school_name": "Name unknown",
            "country_name": "Ghana",
            "connectivity": false
        },
        {
            "lon": 32.28429,
            "lat": -3.81658,
            "school_name": "IGWAMANONI",
            "country_name": "United Republic of Tanzania",
            "connectivity": false
        },
        {
            "lon": 1.262075,
            "lat": 6.149605,
            "school_name": "JEPL SENA G/A",
            "country_name": "Togo",
            "connectivity": false
        },
        {
            "lon": 1.19359,
            "lat": 9.55671,
            "school_name": "JEPL SOLIM",
            "country_name": "Togo",
            "connectivity": false
        },
        {
            "lon": 1.414331,
            "lat": 6.353861,
            "school_name": "EPP SADAYAME",
            "country_name": "Togo",
            "connectivity": false
        },
        {
            "lon": 0.663728,
            "lat": 7.466701,
            "school_name": "EPP TOMITO",
            "country_name": "Togo",
            "connectivity": false
        },
        {
            "lon": 0.406784,
            "lat": 9.594665,
            "school_name": "EPP NANDOUTA G/A",
            "country_name": "Togo",
            "connectivity": false
        },
        {
            "lon": 19.90585327,
            "lat": 44.66572281,
            "school_name": "\u0408\u043e\u0432\u0430\u043d \u0426\u0432\u0438\u0458\u0438\u045b",
            "country_name": "Serbia",
            "connectivity": false
        },
        {
            "lon": 19.354042,
            "lat": 44.381131,
            "school_name": "\u0411\u043e\u0440\u0438\u0432\u043e\u0458\u0435 \u0416. \u041c\u0438\u043b\u043e\u0458\u0435\u0432\u0438\u045b",
            "country_name": "Serbia",
            "connectivity": false
        },
        {
            "lon": 20.83763123,
            "lat": 44.54203704,
            "school_name": "\u0421\u0432\u0435\u0442\u0438\u0442\u0435\u0459 \u0421\u0430\u0432\u0430",
            "country_name": "Serbia",
            "connectivity": false
        },
        {
            "lon": 32.91505,
            "lat": -2.71528,
            "school_name": "BUKUMBI",
            "country_name": "United Republic of Tanzania",
            "connectivity": false
        },
        {
            "lon": 39.26602,
            "lat": -6.9408,
            "school_name": "MIANZINI",
            "country_name": "United Republic of Tanzania",
            "connectivity": false
        },
        {
            "lon": 33.90415,
            "lat": -1.45152,
            "school_name": "KOMUGE",
            "country_name": "United Republic of Tanzania",
            "connectivity": false
        },
        {
            "lon": 0.061208333,
            "lat": 10.89097833,
            "school_name": "CEGIL GABONGBONG",
            "country_name": "Togo",
            "connectivity": false
        },
        {
            "lon": 1.029132,
            "lat": 8.271003,
            "school_name": "LYCEE WARAGNI",
            "country_name": "Togo",
            "connectivity": false
        },
        {
            "lon": -59.61264797,
            "lat": -38.34934054,
            "school_name": "CENTRO DE EDUCACION FISICA N\u00ba21 CIUDAD DE SAN CAYETANO",
            "country_name": "Argentina",
            "connectivity": false
        },
        {
            "lon": 34.15977888,
            "lat": -11.88763091,
            "school_name": "Bandawe Girls",
            "country_name": "Malawi",
            "connectivity": false
        },
        {
            "lon": 33.98397871,
            "lat": -11.63820998,
            "school_name": "Tuwanda",
            "country_name": "Malawi",
            "connectivity": false
        },
        {
            "lon": 35.09894861,
            "lat": -16.21925854,
            "school_name": "Nyodola",
            "country_name": "Malawi",
            "connectivity": false
        },
        {
            "lon": 15.30175523,
            "lat": -4.344795147,
            "school_name": "CS CHRIST ROI",
            "country_name": "Democratic Republic of the Congo",
            "connectivity": false
        },
        {
            "lon": 20.5613204,
            "lat": -5.915419582,
            "school_name": "INST GODET KALAU",
            "country_name": "Democratic Republic of the Congo",
            "connectivity": false
        },
        {
            "lon": 22.17083333,
            "lat": -5.638888889,
            "school_name": "INST TSHIKUNDA",
            "country_name": "Democratic Republic of the Congo",
            "connectivity": false
        },
        {
            "lon": 24.45595347,
            "lat": -6.42788143,
            "school_name": "INST  DE  MUNYENGIE",
            "country_name": "Democratic Republic of the Congo",
            "connectivity": false
        },
        {
            "lon": 27.51414202,
            "lat": -11.65785801,
            "school_name": "COLLEGE ERMITAGE",
            "country_name": "Democratic Republic of the Congo",
            "connectivity": false
        },
        {
            "lon": 17.05181168,
            "lat": -4.683433923,
            "school_name": "INST KASOMBO",
            "country_name": "Democratic Republic of the Congo",
            "connectivity": false
        },
        {
            "lon": 26.66667967,
            "lat": -4.41551344,
            "school_name": "INST SAINTE FAMILLE",
            "country_name": "Democratic Republic of the Congo",
            "connectivity": false
        },
        {
            "lon": 21.75614404,
            "lat": 1.886722685,
            "school_name": "INST SAINT ANGE",
            "country_name": "Democratic Republic of the Congo",
            "connectivity": false
        },
        {
            "lon": 22.43963971,
            "lat": 4.096903485,
            "school_name": "INST DEU",
            "country_name": "Democratic Republic of the Congo",
            "connectivity": false
        },
        {
            "lon": 14.51102093,
            "lat": -5.204099057,
            "school_name": "EP KILEMBA KINTI",
            "country_name": "Democratic Republic of the Congo",
            "connectivity": false
        },
        {
            "lon": 19.84303594,
            "lat": 45.25708464,
            "school_name": "\u0413\u0438\u043c\u043d\u0430\u0437\u0438\u0458\u0430 \u0421\u0432\u0435\u0442\u043e\u0437\u0430\u0440 \u041c\u0430\u0440\u043a\u043e\u0432\u0438\u045b",
            "country_name": "Serbia",
            "connectivity": false
        },
        {
            "lon": -68.836304,
            "lat": -16.597529,
            "school_name": "DANIEL SANCHEZ BUSTAMANTE",
            "country_name": "Bolivia (Plurinational State of)",
            "connectivity": false
        },
        {
            "lon": -9.3705,
            "lat": 15.7949,
            "school_name": "\u0627\u062a\u0631\u062f\u06472",
            "country_name": "Mauritania",
            "connectivity": false
        },
        {
            "lon": -12.26757,
            "lat": 15.43227,
            "school_name": "\u0645\u062f\u0631\u0633\u0629\u062a\u0627\u0634\u0648\u06372",
            "country_name": "Mauritania",
            "connectivity": false
        },
        {
            "lon": 35.35684,
            "lat": -4.07953,
            "school_name": "DONGOBESH CHINI",
            "country_name": "United Republic of Tanzania",
            "connectivity": false
        },
        {
            "lon": 33.15693,
            "lat": 0.83852,
            "school_name": "ST STEPHEN SECONDARY SCH",
            "country_name": "Uganda",
            "connectivity": false
        },
        {
            "lon": 31.43298,
            "lat": -0.7553,
            "school_name": "KAWUNGULI PRI-SCHOOL",
            "country_name": "Uganda",
            "connectivity": false
        },
        {
            "lon": 32.70998,
            "lat": 0.37149,
            "school_name": "MIREMBE NURSERY SCHOOL",
            "country_name": "Uganda",
            "connectivity": false
        },
        {
            "lon": 31.94893,
            "lat": 0.2551,
            "school_name": "Sserinya High & Voc.Sch.",
            "country_name": "Uganda",
            "connectivity": false
        },
        {
            "lon": 31.42096,
            "lat": 1.7593,
            "school_name": "Biiso P.S.",
            "country_name": "Uganda",
            "connectivity": false
        },
        {
            "lon": 30.81726,
            "lat": -25.99832,
            "school_name": "Makhosonke Primary School",
            "country_name": "South Africa",
            "connectivity": false
        },
        {
            "lon": 24.88573,
            "lat": -27.54852,
            "school_name": "Moshosho Primary School",
            "country_name": "South Africa",
            "connectivity": false
        },
        {
            "lon": 24.40898,
            "lat": -26.16098,
            "school_name": "Laerskool Piet Plessis",
            "country_name": "South Africa",
            "connectivity": false
        },
        {
            "lon": 31.24215,
            "lat": -24.95483,
            "school_name": "Hlangalezwe Primary School",
            "country_name": "South Africa",
            "connectivity": false
        },
        {
            "lon": 18.45868,
            "lat": -34.05812,
            "school_name": "Zwaanswyk Academy",
            "country_name": "South Africa",
            "connectivity": false
        },
        {
            "lon": 18.50707,
            "lat": -34.04144,
            "school_name": "Lotus River Primary School",
            "country_name": "South Africa",
            "connectivity": false
        },
        {
            "lon": 29.72541,
            "lat": -23.87548,
            "school_name": "Nursing College",
            "country_name": "South Africa",
            "connectivity": false
        },
        {
            "lon": 18.52954,
            "lat": -34.05042,
            "school_name": "Jeq Preparatory School",
            "country_name": "South Africa",
            "connectivity": false
        },
        {
            "lon": 30.18756,
            "lat": -23.61098,
            "school_name": "Platland Primary",
            "country_name": "South Africa",
            "connectivity": false
        },
        {
            "lon": 18.35835,
            "lat": -34.04273,
            "school_name": "Professional Yactmaster Training",
            "country_name": "South Africa",
            "connectivity": false
        },
        {
            "lon": 30.36907,
            "lat": -30.47724,
            "school_name": "Inqolobane Junior Secondary School",
            "country_name": "South Africa",
            "connectivity": false
        },
        {
            "lon": 30.65908,
            "lat": -30.11194,
            "school_name": "Samuel Mkhize Secondary School",
            "country_name": "South Africa",
            "connectivity": false
        },
        {
            "lon": 28.44703,
            "lat": -24.6954,
            "school_name": "Maokeng Primary School",
            "country_name": "South Africa",
            "connectivity": false
        },
        {
            "lon": 31.04394,
            "lat": -29.77762,
            "school_name": "Oakridge College",
            "country_name": "South Africa",
            "connectivity": false
        },
        {
            "lon": 30.42459,
            "lat": -24.4928,
            "school_name": "Itsoseng Primary School",
            "country_name": "South Africa",
            "connectivity": false
        },
        {
            "lon": 30.9768,
            "lat": -29.74193,
            "school_name": "Phuthumani Junior Primary School",
            "country_name": "South Africa",
            "connectivity": false
        },
        {
            "lon": 27.98953,
            "lat": -26.09131,
            "school_name": "Radley College",
            "country_name": "South Africa",
            "connectivity": false
        },
        {
            "lon": 28.07682,
            "lat": -25.77116,
            "school_name": "Marematlou Primary School",
            "country_name": "South Africa",
            "connectivity": false
        },
        {
            "lon": 28.16135,
            "lat": -26.42204,
            "school_name": "Thabotona Primary Farm School",
            "country_name": "South Africa",
            "connectivity": false
        },
        {
            "lon": 28.71625,
            "lat": -25.72482,
            "school_name": "Rethabiseng Primary School",
            "country_name": "South Africa",
            "connectivity": false
        },
        {
            "lon": 28.1601,
            "lat": -25.97967,
            "school_name": "Glen Austin High School",
            "country_name": "South Africa",
            "connectivity": false
        },
        {
            "lon": 28.00184,
            "lat": -26.46846,
            "school_name": "Michael Rua Intermediate Farm School",
            "country_name": "South Africa",
            "connectivity": false
        },
        {
            "lon": 27.96624,
            "lat": -28.29772,
            "school_name": "Rekgotsofetse Secondary School",
            "country_name": "South Africa",
            "connectivity": false
        },
        {
            "lon": 26.22565,
            "lat": -29.08444,
            "school_name": "David Davidson Pre-Primary School - Bayswater",
            "country_name": "South Africa",
            "connectivity": false
        },
        {
            "lon": 18.6105,
            "lat": -33.94719,
            "school_name": "Tomorrow Land Educare Centre",
            "country_name": "South Africa",
            "connectivity": false
        },
        {
            "lon": 29.47257,
            "lat": -24.18581,
            "school_name": "Thokgwaneng Primary School",
            "country_name": "South Africa",
            "connectivity": false
        },
        {
            "lon": -60.25052282,
            "lat": -34.29488301,
            "school_name": "ESCUELA PRIMARIA N\u00ba6 DOMINGO FAUSTINO SARMIENTO",
            "country_name": "Argentina",
            "connectivity": false
        },
        {
            "lon": -60.2584252,
            "lat": -36.9661162,
            "school_name": "ESCUELA PRIMARIA N\u00ba25 LUCIANO FORTABAT",
            "country_name": "Argentina",
            "connectivity": false
        },
        {
            "lon": -58.38407509,
            "lat": -34.71205305,
            "school_name": "JARDIN DE INFANTES LAUSANNE",
            "country_name": "Argentina",
            "connectivity": false
        },
        {
            "lon": -60.1710833,
            "lat": -38.1770784,
            "school_name": "ESCUELA PRIMARIA N\u00ba2 NICOLAS AVELLANEDA",
            "country_name": "Argentina",
            "connectivity": false
        },
        {
            "lon": -62.26271894,
            "lat": -38.73249347,
            "school_name": "INSTITUTO SANTA MARIA DE LOS APOSTOLES",
            "country_name": "Argentina",
            "connectivity": false
        },
        {
            "lon": -58.83781925,
            "lat": -34.49381417,
            "school_name": "ESCUELA PRIMARIA N\u00ba27 ALAS ARGENTINAS",
            "country_name": "Argentina",
            "connectivity": false
        },
        {
            "lon": -60.13732437,
            "lat": -34.05550498,
            "school_name": "ESCUELA AGRARIA N\u00ba1 MARTIN FIERRO",
            "country_name": "Argentina",
            "connectivity": false
        },
        {
            "lon": -57.94835772,
            "lat": -34.90819689,
            "school_name": "ESCUELA SECUNDARIA N\u00ba31 GRAL JOSE DE SAN MARTIN",
            "country_name": "Argentina",
            "connectivity": false
        },
        {
            "lon": -58.45204629,
            "lat": -34.81265427,
            "school_name": "INSTITUTO ARGENTINA",
            "country_name": "Argentina",
            "connectivity": false
        },
        {
            "lon": -60.16094585,
            "lat": -36.86667258,
            "school_name": "JARDIN DE INFANTES N\u00ba903 MANUEL BELGRANO",
            "country_name": "Argentina",
            "connectivity": false
        },
        {
            "lon": -58.61081727,
            "lat": -34.47818197,
            "school_name": "JARDIN DE INFANTES N\u00ba930 BENITO QUINQUELA MARTIN",
            "country_name": "Argentina",
            "connectivity": false
        },
        {
            "lon": -58.36631105,
            "lat": -34.68749206,
            "school_name": "JARDIN DE INFANTES MUNICIPAL N\u00ba8 VILLA OYUELA",
            "country_name": "Argentina",
            "connectivity": false
        },
        {
            "lon": -60.61251,
            "lat": -24.73446,
            "school_name": "EPEP N\u00b0463",
            "country_name": "Argentina",
            "connectivity": false
        },
        {
            "lon": -57.88716358,
            "lat": -34.95384867,
            "school_name": "ESC. SECUNDARIA BASICA N\u00ba28",
            "country_name": "Argentina",
            "connectivity": false
        },
        {
            "lon": -60.71244,
            "lat": -31.6396,
            "school_name": "ESCUELA PARTICULAR AUTORIZADA NRO 1466 SOL DE FUNES",
            "country_name": "Argentina",
            "connectivity": false
        },
        {
            "lon": -58.66139379,
            "lat": -34.46185729,
            "school_name": "ESC. SECUNDARIA BASICA N\u00ba29",
            "country_name": "Argentina",
            "connectivity": false
        },
        {
            "lon": -58.58622017,
            "lat": -34.65810854,
            "school_name": "ESC. SECUNDARIA BASICA N\u00ba185",
            "country_name": "Argentina",
            "connectivity": false
        },
        {
            "lon": -58.52376791,
            "lat": -34.7111958,
            "school_name": "COLEGIO DOMINGO SAVIO",
            "country_name": "Argentina",
            "connectivity": false
        },
        {
            "lon": -60.31884371,
            "lat": -36.89640363,
            "school_name": "NUEVAS LENGUAS",
            "country_name": "Argentina",
            "connectivity": false
        },
        {
            "lon": -57.2607384,
            "lat": -35.2743492,
            "school_name": "CENTRO INVESTIGACION EDUCATIVA",
            "country_name": "Argentina",
            "connectivity": false
        },
        {
            "lon": -64.83678,
            "lat": -27.42588,
            "school_name": "ESCUELA N\u00ba 529 MARIA TERESA AVILA",
            "country_name": "Argentina",
            "connectivity": false
        },
        {
            "lon": -65.48702525,
            "lat": -29.28890803,
            "school_name": "ESCUELA N\u00b0 388",
            "country_name": "Argentina",
            "connectivity": false
        },
        {
            "lon": -66.04813771,
            "lat": -28.71807265,
            "school_name": "ESCUELA SEDE N\u00b0 490",
            "country_name": "Argentina",
            "connectivity": false
        },
        {
            "lon": -61.00371106,
            "lat": -26.14142944,
            "school_name": "E.E.P. N\u00ba 256",
            "country_name": "Argentina",
            "connectivity": false
        },
        {
            "lon": -62.88129643,
            "lat": -25.61569908,
            "school_name": "E.E.P. N\u00ba 845",
            "country_name": "Argentina",
            "connectivity": false
        },
        {
            "lon": -60.4446057,
            "lat": -27.31748391,
            "school_name": "E.E.P. N\u00ba 342-DIONEL ANTONIO MAIDANA",
            "country_name": "Argentina",
            "connectivity": false
        },
        {
            "lon": -63.39151396,
            "lat": -34.13265589,
            "school_name": "I.P.E.M. N\u00ba 278 MALVINAS ARGENTINAS",
            "country_name": "Argentina",
            "connectivity": false
        },
        {
            "lon": -62.11296943,
            "lat": -30.52662335,
            "school_name": "I.P.E.M.y T.N\u00b0 286 D.F. SARMIENTO - ANEXO COLONIA 10 DE JULIO",
            "country_name": "Argentina",
            "connectivity": false
        },
        {
            "lon": -65.02979167,
            "lat": -32.06815393,
            "school_name": "J.DE INF. MANUELA CABRAL DE TERZAGA",
            "country_name": "Argentina",
            "connectivity": false
        },
        {
            "lon": -63.1860712,
            "lat": -31.3196608,
            "school_name": "FACUNDO QUIROGA",
            "country_name": "Argentina",
            "connectivity": false
        },
        {
            "lon": -64.23159908,
            "lat": -31.36367004,
            "school_name": "ESCUELA PRIMERA JUNTA",
            "country_name": "Argentina",
            "connectivity": false
        },
        {
            "lon": -62.5837958,
            "lat": -32.529504,
            "school_name": "JOAQUIN VICTOR GONZALEZ",
            "country_name": "Argentina",
            "connectivity": false
        },
        {
            "lon": -62.6799027,
            "lat": -30.919656,
            "school_name": "C.E.N.M.A. N\u00ba 297 INTE. WALTER DOMINGO TRUJILLO - ANEXO MIRAMAR",
            "country_name": "Argentina",
            "connectivity": false
        },
        {
            "lon": -64.16322393,
            "lat": -31.3631686,
            "school_name": "J.DE INF. CURA BROCHERO - ANEXO B\u00b0 LOS GIGANTES ANEXO",
            "country_name": "Argentina",
            "connectivity": false
        },
        {
            "lon": -64.77610661,
            "lat": -30.75053578,
            "school_name": "J.DE INF. JOAQUIN V. GONZALEZ",
            "country_name": "Argentina",
            "connectivity": false
        },
        {
            "lon": -59.10101543,
            "lat": -29.08551324,
            "school_name": "ESCUELA PRIMARIA N\u00ba 459 DOMINGO DECOTTO",
            "country_name": "Argentina",
            "connectivity": false
        },
        {
            "lon": -58.96966803,
            "lat": -29.09612967,
            "school_name": "ESCUELA N\u00ba 462 LUIS YACUZZI",
            "country_name": "Argentina",
            "connectivity": false
        },
        {
            "lon": -58.01668069,
            "lat": -31.39151204,
            "school_name": "FRAY LUIS BELTRAN NOCT. 45",
            "country_name": "Argentina",
            "connectivity": false
        },
        {
            "lon": -58.16368573,
            "lat": -26.19071769,
            "school_name": "JARDIN DE INFANTES SAN LUIS REY FATIMA",
            "country_name": "Argentina",
            "connectivity": false
        },
        {
            "lon": -68.79954571,
            "lat": -32.8422291,
            "school_name": "IV BRIGADA AEREA",
            "country_name": "Argentina",
            "connectivity": false
        },
        {
            "lon": -68.89021175,
            "lat": -33.12283033,
            "school_name": "ESCUELA N\u00ba 3-465 (C.E.N.S.)",
            "country_name": "Argentina",
            "connectivity": false
        },
        {
            "lon": -71.32829465,
            "lat": -38.94318383,
            "school_name": "ESCUELA PRIMARIA 261",
            "country_name": "Argentina",
            "connectivity": false
        },
        {
            "lon": -71.5238,
            "lat": -13.8103,
            "school_name": "1235",
            "country_name": "Peru",
            "connectivity": false
        },
        {
            "lon": -68.10682367,
            "lat": -38.93722887,
            "school_name": "C.P.E.M. 76",
            "country_name": "Argentina",
            "connectivity": false
        },
        {
            "lon": -65.94299467,
            "lat": -25.91073183,
            "school_name": "DR.ADOLFO GUEMES EX N\u00b0 594",
            "country_name": "Argentina",
            "connectivity": false
        },
        {
            "lon": -64.94559207,
            "lat": -23.21799347,
            "school_name": "ESCUELA N\u00aa 4462 EX N\u00b0 664",
            "country_name": "Argentina",
            "connectivity": false
        },
        {
            "lon": -70.316189,
            "lat": -48.746159,
            "school_name": "ESCUELA AGROPECUARIA PROV. N\u00ba 1",
            "country_name": "Argentina",
            "connectivity": false
        },
        {
            "lon": -61.49633472,
            "lat": -33.46307037,
            "school_name": "ESCUELA ESPECIAL NRO 2108 JOSE PEDRONI",
            "country_name": "Argentina",
            "connectivity": false
        },
        {
            "lon": 6.29416,
            "lat": 5.29808,
            "school_name": "Name unknown",
            "country_name": "Nigeria",
            "connectivity": false
        },
        {
            "lon": 6.057432,
            "lat": 5.372111,
            "school_name": "Name unknown",
            "country_name": "Nigeria",
            "connectivity": false
        },
        {
            "lon": 6.042222,
            "lat": 5.253814,
            "school_name": "Name unknown",
            "country_name": "Nigeria",
            "connectivity": false
        },
        {
            "lon": 7.565927113,
            "lat": 5.441163513,
            "school_name": "Name unknown",
            "country_name": "Nigeria",
            "connectivity": false
        },
        {
            "lon": 7.294953,
            "lat": 5.253526,
            "school_name": "Name unknown",
            "country_name": "Nigeria",
            "connectivity": false
        },
        {
            "lon": 7.30682931,
            "lat": 5.036388837,
            "school_name": "Name unknown",
            "country_name": "Nigeria",
            "connectivity": false
        },
        {
            "lon": 8.300133,
            "lat": 6.452773,
            "school_name": "Name unknown",
            "country_name": "Nigeria",
            "connectivity": false
        },
        {
            "lon": 12.14791499,
            "lat": 10.43111794,
            "school_name": "Name unknown",
            "country_name": "Nigeria",
            "connectivity": false
        },
        {
            "lon": 6.147827,
            "lat": 6.52781,
            "school_name": "Name unknown",
            "country_name": "Nigeria",
            "connectivity": false
        },
        {
            "lon": 6.555375,
            "lat": 7.049333,
            "school_name": "Name unknown",
            "country_name": "Nigeria",
            "connectivity": false
        },
        {
            "lon": 5.489409,
            "lat": 6.474317,
            "school_name": "Name unknown",
            "country_name": "Nigeria",
            "connectivity": false
        },
        {
            "lon": 5.511421667,
            "lat": 7.798313333,
            "school_name": "Name unknown",
            "country_name": "Nigeria",
            "connectivity": false
        },
        {
            "lon": 5.497913333,
            "lat": 7.712791667,
            "school_name": "Name unknown",
            "country_name": "Nigeria",
            "connectivity": false
        },
        {
            "lon": 5.511478,
            "lat": 7.784425,
            "school_name": "Name unknown",
            "country_name": "Nigeria",
            "connectivity": false
        },
        {
            "lon": 7.49786664,
            "lat": 6.433905055,
            "school_name": "Name unknown",
            "country_name": "Nigeria",
            "connectivity": false
        },
        {
            "lon": 7.16864,
            "lat": 6.417465,
            "school_name": "Name unknown",
            "country_name": "Nigeria",
            "connectivity": false
        },
        {
            "lon": 7.178993333,
            "lat": 6.440396667,
            "school_name": "Name unknown",
            "country_name": "Nigeria",
            "connectivity": false
        },
        {
            "lon": 7.762263333,
            "lat": 6.663565,
            "school_name": "Name unknown",
            "country_name": "Nigeria",
            "connectivity": false
        },
        {
            "lon": 7.009913333,
            "lat": 6.724933333,
            "school_name": "Name unknown",
            "country_name": "Nigeria",
            "connectivity": false
        },
        {
            "lon": 7.068499,
            "lat": 5.872228,
            "school_name": "Name unknown",
            "country_name": "Nigeria",
            "connectivity": false
        },
        {
            "lon": 7.191964,
            "lat": 5.632677,
            "school_name": "Name unknown",
            "country_name": "Nigeria",
            "connectivity": false
        },
        {
            "lon": 7.22215,
            "lat": 5.367073333,
            "school_name": "Name unknown",
            "country_name": "Nigeria",
            "connectivity": false
        },
        {
            "lon": 7.146288333,
            "lat": 5.703255,
            "school_name": "Name unknown",
            "country_name": "Nigeria",
            "connectivity": false
        },
        {
            "lon": -71.8826,
            "lat": -13.5447,
            "school_name": "51023 SAN LUIS GONZAGA",
            "country_name": "Peru",
            "connectivity": false
        },
        {
            "lon": -77.1563,
            "lat": -6.2085,
            "school_name": "861",
            "country_name": "Peru",
            "connectivity": false
        },
        {
            "lon": -80.4268,
            "lat": -3.6542,
            "school_name": "013 JESUS DE NAZARETH",
            "country_name": "Peru",
            "connectivity": false
        },
        {
            "lon": -76.5425,
            "lat": -6.3611,
            "school_name": "271",
            "country_name": "Peru",
            "connectivity": false
        },
        {
            "lon": -77.011,
            "lat": -12.0575,
            "school_name": "077 MANZANILLA",
            "country_name": "Peru",
            "connectivity": false
        },
        {
            "lon": -71.2619,
            "lat": -13.9093,
            "school_name": "1026",
            "country_name": "Peru",
            "connectivity": false
        },
        {
            "lon": -78.6421,
            "lat": -6.21715,
            "school_name": "10751",
            "country_name": "Peru",
            "connectivity": false
        },
        {
            "lon": -70.2104,
            "lat": -15.7086,
            "school_name": "1192 ULLAGACHI-ATUNCOLLA",
            "country_name": "Peru",
            "connectivity": false
        },
        {
            "lon": -76.6926,
            "lat": -6.61901,
            "school_name": "1276",
            "country_name": "Peru",
            "connectivity": false
        },
        {
            "lon": -76.5887,
            "lat": -6.57362,
            "school_name": "1335",
            "country_name": "Peru",
            "connectivity": false
        },
        {
            "lon": -78.8065,
            "lat": -5.71413,
            "school_name": "16005 PEDRO EMILIO PAULET MOSTAJO",
            "country_name": "Peru",
            "connectivity": false
        },
        {
            "lon": -79.0248,
            "lat": -5.34618,
            "school_name": "16477",
            "country_name": "Peru",
            "connectivity": false
        },
        {
            "lon": -79.2205,
            "lat": -7.884,
            "school_name": "1708",
            "country_name": "Peru",
            "connectivity": false
        },
        {
            "lon": -79.0857,
            "lat": -5.42771,
            "school_name": "17266",
            "country_name": "Peru",
            "connectivity": false
        },
        {
            "lon": -78.1573,
            "lat": -6.28828,
            "school_name": "18167",
            "country_name": "Peru",
            "connectivity": false
        },
        {
            "lon": -76.1199,
            "lat": -12.0405,
            "school_name": "20589 ROSA DE SANTA MARIA",
            "country_name": "Peru",
            "connectivity": false
        },
        {
            "lon": -80.2202,
            "lat": -5.08347,
            "school_name": "20874",
            "country_name": "Peru",
            "connectivity": false
        },
        {
            "lon": -76.7266,
            "lat": -10.9078,
            "school_name": "21502 SE\u00d1OR DE LOS MILAGROS",
            "country_name": "Peru",
            "connectivity": false
        },
        {
            "lon": -77.9627,
            "lat": -4.9355,
            "school_name": "282",
            "country_name": "Peru",
            "connectivity": false
        },
        {
            "lon": -73.374,
            "lat": -13.8052,
            "school_name": "290",
            "country_name": "Peru",
            "connectivity": false
        },
        {
            "lon": -75.1797,
            "lat": -12.1183,
            "school_name": "30027",
            "country_name": "Peru",
            "connectivity": false
        },
        {
            "lon": -74.9421,
            "lat": -11.9997,
            "school_name": "30043",
            "country_name": "Peru",
            "connectivity": false
        },
        {
            "lon": -77.6038,
            "lat": -8.6381,
            "school_name": "307",
            "country_name": "Peru",
            "connectivity": false
        },
        {
            "lon": -75.3873,
            "lat": -11.0628,
            "school_name": "30909",
            "country_name": "Peru",
            "connectivity": false
        },
        {
            "lon": -74.636,
            "lat": -12.3161,
            "school_name": "31030",
            "country_name": "Peru",
            "connectivity": false
        },
        {
            "lon": -74.5906,
            "lat": -12.4222,
            "school_name": "31042 FRANCISCO BOLOGNESI CERVANTES",
            "country_name": "Peru",
            "connectivity": false
        },
        {
            "lon": -76.7486,
            "lat": -11.5011,
            "school_name": "314",
            "country_name": "Peru",
            "connectivity": false
        },
        {
            "lon": -76.5235,
            "lat": -10.0075,
            "school_name": "32025",
            "country_name": "Peru",
            "connectivity": false
        },
        {
            "lon": -76.6242,
            "lat": -9.8963,
            "school_name": "33115",
            "country_name": "Peru",
            "connectivity": false
        },
        {
            "lon": -75.1076,
            "lat": -9.52264,
            "school_name": "33494 JOSE CARLOS MARIATEGUI",
            "country_name": "Peru",
            "connectivity": false
        },
        {
            "lon": -78.2183,
            "lat": -4.96467,
            "school_name": "337",
            "country_name": "Peru",
            "connectivity": false
        },
        {
            "lon": -75.3037,
            "lat": -10.1988,
            "school_name": "34382",
            "country_name": "Peru",
            "connectivity": false
        },
        {
            "lon": -74.8802,
            "lat": -9.83847,
            "school_name": "34626 DONATO CORREA PANDURO",
            "country_name": "Peru",
            "connectivity": false
        },
        {
            "lon": -75.2984,
            "lat": -10.257,
            "school_name": "34632 SAN JUNA DE CHEMILLEN",
            "country_name": "Peru",
            "connectivity": false
        },
        {
            "lon": -74.3341,
            "lat": -13.133,
            "school_name": "38043",
            "country_name": "Peru",
            "connectivity": false
        },
        {
            "lon": -74.112,
            "lat": -13.0917,
            "school_name": "38984-6",
            "country_name": "Peru",
            "connectivity": false
        },
        {
            "lon": -71.5776,
            "lat": -16.4429,
            "school_name": "40087 JESUS MANUEL LOAYZA DEZA",
            "country_name": "Peru",
            "connectivity": false
        },
        {
            "lon": -74.0189,
            "lat": -12.8831,
            "school_name": "425-2",
            "country_name": "Peru",
            "connectivity": false
        },
        {
            "lon": -73.6686,
            "lat": -13.4178,
            "school_name": "486",
            "country_name": "Peru",
            "connectivity": false
        },
        {
            "lon": -72.1369,
            "lat": -12.8449,
            "school_name": "50174",
            "country_name": "Peru",
            "connectivity": false
        },
        {
            "lon": -71.8883,
            "lat": -13.456,
            "school_name": "50221",
            "country_name": "Peru",
            "connectivity": false
        },
        {
            "lon": -77.0861,
            "lat": -11.9312,
            "school_name": "5187",
            "country_name": "Peru",
            "connectivity": false
        },
        {
            "lon": -70.3607,
            "lat": -12.9101,
            "school_name": "52230 PUNKIRI CHICO",
            "country_name": "Peru",
            "connectivity": false
        },
        {
            "lon": -76.9607,
            "lat": -12.136,
            "school_name": "551",
            "country_name": "Peru",
            "connectivity": false
        },
        {
            "lon": -73.2588,
            "lat": -3.75581,
            "school_name": "60023",
            "country_name": "Peru",
            "connectivity": false
        },
        {
            "lon": -75.0865,
            "lat": -6.85341,
            "school_name": "64266",
            "country_name": "Peru",
            "connectivity": false
        },
        {
            "lon": -75.7001,
            "lat": -14.1041,
            "school_name": "70",
            "country_name": "Peru",
            "connectivity": false
        },
        {
            "lon": -77.0089,
            "lat": -12.1102,
            "school_name": "7029 VIRGEN MILAGROSA",
            "country_name": "Peru",
            "connectivity": false
        },
        {
            "lon": -73.6286,
            "lat": -10.7346,
            "school_name": "707-B",
            "country_name": "Peru",
            "connectivity": false
        },
        {
            "lon": -77.0216,
            "lat": -11.9091,
            "school_name": "COLLIQUE IV A",
            "country_name": "Peru",
            "connectivity": false
        },
        {
            "lon": -78.1756,
            "lat": -6.89571,
            "school_name": "82433",
            "country_name": "Peru",
            "connectivity": false
        },
        {
            "lon": -77.99,
            "lat": -7.87719,
            "school_name": "80928 MICAELA BASTIDAS PUYUCAHUA",
            "country_name": "Peru",
            "connectivity": false
        },
        {
            "lon": -78.9711,
            "lat": -8.11066,
            "school_name": "81525 FORTUNATO GANOZA",
            "country_name": "Peru",
            "connectivity": false
        },
        {
            "lon": -79.1175,
            "lat": -8.08894,
            "school_name": "81766",
            "country_name": "Peru",
            "connectivity": false
        },
        {
            "lon": -78.6954,
            "lat": -7.11436,
            "school_name": "821134",
            "country_name": "Peru",
            "connectivity": false
        },
        {
            "lon": -78.537,
            "lat": -7.46729,
            "school_name": "821147",
            "country_name": "Peru",
            "connectivity": false
        },
        {
            "lon": -77.1131,
            "lat": -9.06372,
            "school_name": "86209",
            "country_name": "Peru",
            "connectivity": false
        },
        {
            "lon": 1.418348,
            "lat": 6.333212,
            "school_name": "CEGIL LA GRACE DE TCHIDEME",
            "country_name": "Togo",
            "connectivity": false
        },
        {
            "lon": -77.0305,
            "lat": -9.28709,
            "school_name": "86956",
            "country_name": "Peru",
            "connectivity": false
        },
        {
            "lon": -77.7396,
            "lat": -9.04937,
            "school_name": "87009-06 VIRGEN DE FATIMA",
            "country_name": "Peru",
            "connectivity": false
        },
        {
            "lon": -77.1088,
            "lat": -12.0031,
            "school_name": "ALFREDO REBAZA ACOSTA DE LOS JAZMINES",
            "country_name": "Peru",
            "connectivity": false
        },
        {
            "lon": -77.6454,
            "lat": -9.28289,
            "school_name": "AMAUTA SCHOOL",
            "country_name": "Peru",
            "connectivity": false
        },
        {
            "lon": -77.0491,
            "lat": -12.0349,
            "school_name": "ANDRES AVELINO CACERES",
            "country_name": "Peru",
            "connectivity": false
        },
        {
            "lon": -78.8035,
            "lat": -5.71704,
            "school_name": "MONTESSORI SCHOOL",
            "country_name": "Peru",
            "connectivity": false
        },
        {
            "lon": -69.4481,
            "lat": -16.2199,
            "school_name": "NAYRANJAQUE",
            "country_name": "Peru",
            "connectivity": false
        },
        {
            "lon": -77.3324,
            "lat": -10.5984,
            "school_name": "CAHUA",
            "country_name": "Peru",
            "connectivity": false
        },
        {
            "lon": -76.8588,
            "lat": -12.2289,
            "school_name": "CARRUSELL",
            "country_name": "Peru",
            "connectivity": false
        },
        {
            "lon": -72.0642,
            "lat": -13.4396,
            "school_name": "CCORIMARCA",
            "country_name": "Peru",
            "connectivity": false
        },
        {
            "lon": -78.5228,
            "lat": -7.15354,
            "school_name": "CEBA - 83003 SAN FRANCISCO",
            "country_name": "Peru",
            "connectivity": false
        },
        {
            "lon": -73.8417,
            "lat": -14.0173,
            "school_name": "CEBA - SAN ANTONIO DE PADUA",
            "country_name": "Peru",
            "connectivity": false
        },
        {
            "lon": -72.1002,
            "lat": -13.4667,
            "school_name": "CHILLARAY",
            "country_name": "Peru",
            "connectivity": false
        },
        {
            "lon": -77.0936,
            "lat": -11.9402,
            "school_name": "CIELITO DE LA ENSENADA I",
            "country_name": "Peru",
            "connectivity": false
        },
        {
            "lon": -77.0806,
            "lat": -12.0123,
            "school_name": "CIELITO I",
            "country_name": "Peru",
            "connectivity": false
        },
        {
            "lon": -78.1903,
            "lat": -8.09431,
            "school_name": "CORAZON DE JESUS",
            "country_name": "Peru",
            "connectivity": false
        },
        {
            "lon": -77.0146,
            "lat": -12.0676,
            "school_name": "CORAZON DE MARIA",
            "country_name": "Peru",
            "connectivity": false
        },
        {
            "lon": -76.9857,
            "lat": -12.0149,
            "school_name": "CRISTO REY",
            "country_name": "Peru",
            "connectivity": false
        },
        {
            "lon": -80.4557,
            "lat": -3.57353,
            "school_name": "DIVINO NI\u00d1O",
            "country_name": "Peru",
            "connectivity": false
        },
        {
            "lon": -76.9917,
            "lat": -11.9622,
            "school_name": "EL MUNDO DE LOS NI\u00d1OS",
            "country_name": "Peru",
            "connectivity": false
        },
        {
            "lon": -71.994,
            "lat": -13.5067,
            "school_name": "EL PARAISO DE LISSY",
            "country_name": "Peru",
            "connectivity": false
        },
        {
            "lon": -78.4925,
            "lat": -7.17869,
            "school_name": "EMMANUEL",
            "country_name": "Peru",
            "connectivity": false
        },
        {
            "lon": -79.8425,
            "lat": -6.78125,
            "school_name": "ERNESTO LOPEZ MINDREAU",
            "country_name": "Peru",
            "connectivity": false
        },
        {
            "lon": -76.6434,
            "lat": -9.81643,
            "school_name": "FRONTERA",
            "country_name": "Peru",
            "connectivity": false
        },
        {
            "lon": -76.2423,
            "lat": -9.92791,
            "school_name": "GRAN UNIDAD ESCOLAR LEONCIO PRADO",
            "country_name": "Peru",
            "connectivity": false
        },
        {
            "lon": -74.477,
            "lat": -13.236,
            "school_name": "HUAYLOPATA",
            "country_name": "Peru",
            "connectivity": false
        },
        {
            "lon": -78.4158,
            "lat": -7.81574,
            "school_name": "INMACULADA VIRGEN DE LA PUERTA",
            "country_name": "Peru",
            "connectivity": false
        },
        {
            "lon": -75.8478,
            "lat": -5.71183,
            "school_name": "JOSE OBLITAS HIDALGO",
            "country_name": "Peru",
            "connectivity": false
        },
        {
            "lon": -77.0381,
            "lat": -11.8906,
            "school_name": "KID'S KINGDOM",
            "country_name": "Peru",
            "connectivity": false
        },
        {
            "lon": -77.0527,
            "lat": -12.0075,
            "school_name": "LA INMACULADA CONCEPCION",
            "country_name": "Peru",
            "connectivity": false
        },
        {
            "lon": -77.1289,
            "lat": -11.8883,
            "school_name": "LICEO NAVAL CAPITAN DE CORBETA MANUEL CLAVERO",
            "country_name": "Peru",
            "connectivity": false
        },
        {
            "lon": -75.2057,
            "lat": -12.0844,
            "school_name": "LIDER",
            "country_name": "Peru",
            "connectivity": false
        },
        {
            "lon": 7.999608,
            "lat": 8.807291,
            "school_name": "Name unknown",
            "country_name": "Nigeria",
            "connectivity": false
        },
        {
            "lon": -79.0877,
            "lat": -6.79347,
            "school_name": "LOS NI\u00d1OS ALEGRES",
            "country_name": "Peru",
            "connectivity": false
        },
        {
            "lon": -80.6772,
            "lat": -5.18276,
            "school_name": "MANITOS DORADAS",
            "country_name": "Peru",
            "connectivity": false
        },
        {
            "lon": -77.0451,
            "lat": -11.8279,
            "school_name": "MARIA REICHE NEWMAN",
            "country_name": "Peru",
            "connectivity": false
        },
        {
            "lon": -79.0998,
            "lat": -5.65459,
            "school_name": "MARIA RIVIER",
            "country_name": "Peru",
            "connectivity": false
        },
        {
            "lon": -77.0626,
            "lat": -12.0024,
            "school_name": "MATER CHRISTIE",
            "country_name": "Peru",
            "connectivity": false
        },
        {
            "lon": -80.4365,
            "lat": -4.36,
            "school_name": "PILARES",
            "country_name": "Peru",
            "connectivity": false
        },
        {
            "lon": -70.1374,
            "lat": -15.2686,
            "school_name": "PIQUIZAN",
            "country_name": "Peru",
            "connectivity": false
        },
        {
            "lon": -76.2167,
            "lat": -10.078,
            "school_name": "RICARDO FLORES GUTIERREZ",
            "country_name": "Peru",
            "connectivity": false
        },
        {
            "lon": -77.0202,
            "lat": -12.0605,
            "school_name": "ROSA MERINO",
            "country_name": "Peru",
            "connectivity": false
        },
        {
            "lon": -76.9888,
            "lat": -11.9674,
            "school_name": "SAN MATEO",
            "country_name": "Peru",
            "connectivity": false
        },
        {
            "lon": -79.0229,
            "lat": -8.0887,
            "school_name": "SAN PATRICIO",
            "country_name": "Peru",
            "connectivity": false
        },
        {
            "lon": -78.3101,
            "lat": -9.47396,
            "school_name": "SANTA TERESITA DE JESUS",
            "country_name": "Peru",
            "connectivity": false
        },
        {
            "lon": -78.9981,
            "lat": -8.08781,
            "school_name": "SEYMOUR PAPERT",
            "country_name": "Peru",
            "connectivity": false
        },
        {
            "lon": -70.0203,
            "lat": -15.8413,
            "school_name": "SIMON BOLIVAR B",
            "country_name": "Peru",
            "connectivity": false
        },
        {
            "lon": -77.0373,
            "lat": -12.0742,
            "school_name": "SOUTHERN TECHNOLOGICAL INSTITUTE",
            "country_name": "Peru",
            "connectivity": false
        },
        {
            "lon": -77.0331,
            "lat": -11.8805,
            "school_name": "STEPHEN HAWKING DE CARABAYLLO",
            "country_name": "Peru",
            "connectivity": false
        },
        {
            "lon": -77.0812,
            "lat": -12.028,
            "school_name": "THALES DE MILETO SCHOOL",
            "country_name": "Peru",
            "connectivity": false
        },
        {
            "lon": -71.9927,
            "lat": -13.524,
            "school_name": "THE KIDS HOUSE",
            "country_name": "Peru",
            "connectivity": false
        },
        {
            "lon": -71.5208,
            "lat": -16.3825,
            "school_name": "WILLIAM MORRIS",
            "country_name": "Peru",
            "connectivity": false
        },
        {
            "lon": 7.20986113,
            "lat": 10.48207346,
            "school_name": "Name unknown",
            "country_name": "Nigeria",
            "connectivity": false
        },
        {
            "lon": 7.46955459,
            "lat": 10.45564278,
            "school_name": "Name unknown",
            "country_name": "Nigeria",
            "connectivity": false
        },
        {
            "lon": 7.39382547,
            "lat": 11.26652896,
            "school_name": "Name unknown",
            "country_name": "Nigeria",
            "connectivity": false
        },
        {
            "lon": 7.403363585,
            "lat": 10.4639411,
            "school_name": "Name unknown",
            "country_name": "Nigeria",
            "connectivity": false
        },
        {
            "lon": 8.706782944,
            "lat": 10.37738192,
            "school_name": "Name unknown",
            "country_name": "Nigeria",
            "connectivity": false
        },
        {
            "lon": 8.647887111,
            "lat": 10.33234656,
            "school_name": "Name unknown",
            "country_name": "Nigeria",
            "connectivity": false
        },
        {
            "lon": 7.945808172,
            "lat": 11.34712279,
            "school_name": "Name unknown",
            "country_name": "Nigeria",
            "connectivity": false
        },
        {
            "lon": 7.77953186,
            "lat": 10.97169731,
            "school_name": "Name unknown",
            "country_name": "Nigeria",
            "connectivity": false
        },
        {
            "lon": 8.545831,
            "lat": 11.96861,
            "school_name": "Name unknown",
            "country_name": "Nigeria",
            "connectivity": false
        },
        {
            "lon": 8.868086,
            "lat": 11.52655,
            "school_name": "Name unknown",
            "country_name": "Nigeria",
            "connectivity": false
        },
        {
            "lon": 8.855883,
            "lat": 12.07106,
            "school_name": "Name unknown",
            "country_name": "Nigeria",
            "connectivity": false
        },
        {
            "lon": 8.591829,
            "lat": 11.84351,
            "school_name": "Name unknown",
            "country_name": "Nigeria",
            "connectivity": false
        },
        {
            "lon": 8.522983,
            "lat": 12.0175,
            "school_name": "Name unknown",
            "country_name": "Nigeria",
            "connectivity": false
        },
        {
            "lon": 7.90551,
            "lat": 11.57391,
            "school_name": "Name unknown",
            "country_name": "Nigeria",
            "connectivity": false
        },
        {
            "lon": 7.829437,
            "lat": 11.54826,
            "school_name": "Name unknown",
            "country_name": "Nigeria",
            "connectivity": false
        },
        {
            "lon": 8.745041,
            "lat": 11.54558,
            "school_name": "Name unknown",
            "country_name": "Nigeria",
            "connectivity": false
        },
        {
            "lon": 12.494368,
            "lat": 9.293351,
            "school_name": "Name unknown",
            "country_name": "Nigeria",
            "connectivity": false
        },
        {
            "lon": 12.57286,
            "lat": 10.402213,
            "school_name": "Name unknown",
            "country_name": "Nigeria",
            "connectivity": false
        },
        {
            "lon": 13.04324457,
            "lat": 10.38627324,
            "school_name": "Name unknown",
            "country_name": "Nigeria",
            "connectivity": false
        },
        {
            "lon": 7.707028,
            "lat": 7.42429,
            "school_name": "Name unknown",
            "country_name": "Nigeria",
            "connectivity": false
        },
        {
            "lon": 6.740352,
            "lat": 7.112035,
            "school_name": "Name unknown",
            "country_name": "Nigeria",
            "connectivity": false
        },
        {
            "lon": 4.48725698,
            "lat": 8.460214475,
            "school_name": "Name unknown",
            "country_name": "Nigeria",
            "connectivity": false
        },
        {
            "lon": 3.238158412,
            "lat": 6.521341334,
            "school_name": "Name unknown",
            "country_name": "Nigeria",
            "connectivity": false
        },
        {
            "lon": 3.266959,
            "lat": 6.445454,
            "school_name": "Name unknown",
            "country_name": "Nigeria",
            "connectivity": false
        },
        {
            "lon": 3.37672358,
            "lat": 6.431209848,
            "school_name": "Name unknown",
            "country_name": "Nigeria",
            "connectivity": false
        },
        {
            "lon": 3.358592,
            "lat": 6.47258,
            "school_name": "Name unknown",
            "country_name": "Nigeria",
            "connectivity": false
        },
        {
            "lon": 3.990599,
            "lat": 6.605658,
            "school_name": "Name unknown",
            "country_name": "Nigeria",
            "connectivity": false
        },
        {
            "lon": 3.522175493,
            "lat": 6.433587631,
            "school_name": "Name unknown",
            "country_name": "Nigeria",
            "connectivity": false
        },
        {
            "lon": 3.484166,
            "lat": 6.61087,
            "school_name": "Name unknown",
            "country_name": "Nigeria",
            "connectivity": false
        },
        {
            "lon": 3.19444,
            "lat": 6.492415,
            "school_name": "Name unknown",
            "country_name": "Nigeria",
            "connectivity": false
        },
        {
            "lon": 3.12627,
            "lat": 6.46042,
            "school_name": "Name unknown",
            "country_name": "Nigeria",
            "connectivity": false
        },
        {
            "lon": 8.370365,
            "lat": 8.390008,
            "school_name": "Name unknown",
            "country_name": "Nigeria",
            "connectivity": false
        },
        {
            "lon": 8.229307,
            "lat": 8.543703,
            "school_name": "Name unknown",
            "country_name": "Nigeria",
            "connectivity": false
        },
        {
            "lon": 6.004800797,
            "lat": 9.097629189,
            "school_name": "Name unknown",
            "country_name": "Nigeria",
            "connectivity": false
        },
        {
            "lon": 6.52961307,
            "lat": 9.60417161,
            "school_name": "Name unknown",
            "country_name": "Nigeria",
            "connectivity": false
        },
        {
            "lon": 5.29746,
            "lat": 10.34132,
            "school_name": "Name unknown",
            "country_name": "Nigeria",
            "connectivity": false
        },
        {
            "lon": 5.41753082,
            "lat": 9.327855758,
            "school_name": "Name unknown",
            "country_name": "Nigeria",
            "connectivity": false
        },
        {
            "lon": 6.9957038,
            "lat": 10.01977962,
            "school_name": "Name unknown",
            "country_name": "Nigeria",
            "connectivity": false
        },
        {
            "lon": 7.108301446,
            "lat": 10.02114065,
            "school_name": "Name unknown",
            "country_name": "Nigeria",
            "connectivity": false
        },
        {
            "lon": 7.21323079,
            "lat": 9.189490539,
            "school_name": "Name unknown",
            "country_name": "Nigeria",
            "connectivity": false
        },
        {
            "lon": 2.9939267,
            "lat": 6.7208683,
            "school_name": "Name unknown",
            "country_name": "Nigeria",
            "connectivity": false
        },
        {
            "lon": 3.29549757,
            "lat": 6.70197913,
            "school_name": "Name unknown",
            "country_name": "Nigeria",
            "connectivity": false
        },
        {
            "lon": 3.959212864,
            "lat": 6.849042795,
            "school_name": "Name unknown",
            "country_name": "Nigeria",
            "connectivity": false
        },
        {
            "lon": 3.425855,
            "lat": 6.747046667,
            "school_name": "Name unknown",
            "country_name": "Nigeria",
            "connectivity": false
        },
        {
            "lon": 4.699572,
            "lat": 6.173982,
            "school_name": "Name unknown",
            "country_name": "Nigeria",
            "connectivity": false
        },
        {
            "lon": 4.357938,
            "lat": 7.471242,
            "school_name": "Name unknown",
            "country_name": "Nigeria",
            "connectivity": false
        },
        {
            "lon": 4.42171,
            "lat": 7.737623,
            "school_name": "Name unknown",
            "country_name": "Nigeria",
            "connectivity": false
        },
        {
            "lon": 4.74543,
            "lat": 7.646629,
            "school_name": "Name unknown",
            "country_name": "Nigeria",
            "connectivity": false
        },
        {
            "lon": 4.191973,
            "lat": 7.635588,
            "school_name": "Name unknown",
            "country_name": "Nigeria",
            "connectivity": false
        },
        {
            "lon": 4.559613,
            "lat": 7.756762,
            "school_name": "Name unknown",
            "country_name": "Nigeria",
            "connectivity": false
        },
        {
            "lon": 7.835478,
            "lat": 5.070437,
            "school_name": "Name unknown",
            "country_name": "Nigeria",
            "connectivity": false
        },
        {
            "lon": 3.66024,
            "lat": 7.868528,
            "school_name": "Name unknown",
            "country_name": "Nigeria",
            "connectivity": false
        },
        {
            "lon": 3.972865,
            "lat": 7.453104,
            "school_name": "Name unknown",
            "country_name": "Nigeria",
            "connectivity": false
        },
        {
            "lon": 3.914881,
            "lat": 7.841284,
            "school_name": "Name unknown",
            "country_name": "Nigeria",
            "connectivity": false
        },
        {
            "lon": 9.878103,
            "lat": 9.186824,
            "school_name": "Name unknown",
            "country_name": "Nigeria",
            "connectivity": false
        },
        {
            "lon": 9.873442,
            "lat": 8.790234,
            "school_name": "Name unknown",
            "country_name": "Nigeria",
            "connectivity": false
        },
        {
            "lon": 6.751600017,
            "lat": 5.116909036,
            "school_name": "Name unknown",
            "country_name": "Nigeria",
            "connectivity": false
        },
        {
            "lon": 11.4706171,
            "lat": 9.095034998,
            "school_name": "Name unknown",
            "country_name": "Nigeria",
            "connectivity": false
        },
        {
            "lon": 7.521976233,
            "lat": 11.6097486,
            "school_name": "Name unknown",
            "country_name": "Nigeria",
            "connectivity": false
        },
        {
            "lon": 6.997755,
            "lat": 6.174719,
            "school_name": "Name unknown",
            "country_name": "Nigeria",
            "connectivity": false
        },
        {
            "lon": 6.796129705,
            "lat": 6.14880743,
            "school_name": "Name unknown",
            "country_name": "Nigeria",
            "connectivity": false
        },
        {
            "lon": 7.61941826,
            "lat": 12.97728008,
            "school_name": "Name unknown",
            "country_name": "Nigeria",
            "connectivity": false
        },
        {
            "lon": 7.92531,
            "lat": 12.43804,
            "school_name": "Name unknown",
            "country_name": "Nigeria",
            "connectivity": false
        },
        {
            "lon": 7.60742589,
            "lat": 11.71758583,
            "school_name": "Name unknown",
            "country_name": "Nigeria",
            "connectivity": false
        },
        {
            "lon": 9.261890308,
            "lat": 11.30192331,
            "school_name": "Name unknown",
            "country_name": "Nigeria",
            "connectivity": false
        },
        {
            "lon": 4.06934685,
            "lat": 11.50102659,
            "school_name": "Name unknown",
            "country_name": "Nigeria",
            "connectivity": false
        },
        {
            "lon": 4.61656034,
            "lat": 10.52913057,
            "school_name": "Name unknown",
            "country_name": "Nigeria",
            "connectivity": false
        },
        {
            "lon": 5.65132742,
            "lat": 4.600000164,
            "school_name": "Name unknown",
            "country_name": "Nigeria",
            "connectivity": false
        },
        {
            "lon": 6.320892,
            "lat": 4.939879,
            "school_name": "Name unknown",
            "country_name": "Nigeria",
            "connectivity": false
        },
        {
            "lon": 4.911131667,
            "lat": 13.22310667,
            "school_name": "Name unknown",
            "country_name": "Nigeria",
            "connectivity": false
        },
        {
            "lon": 4.5094161,
            "lat": 11.63344739,
            "school_name": "Name unknown",
            "country_name": "Nigeria",
            "connectivity": false
        },
        {
            "lon": 8.025556,
            "lat": 6.866235,
            "school_name": "Name unknown",
            "country_name": "Nigeria",
            "connectivity": false
        },
        {
            "lon": 8.9892727,
            "lat": 6.7733955,
            "school_name": "Name unknown",
            "country_name": "Nigeria",
            "connectivity": false
        },